raw_voltage_G-,raw_voltage_G0,raw_voltage_G1,raw_voltage_G2,raw_voltage_G3,raw_voltage_G4,raw_voltage_G5,raw_voltage_G6,load_x,load_y,load_z,load_l,load_m,load_n,rpm,voltage,current,roll,pitch,yaw,aileron1_pwm,elevator_pwm,throttle_pwm,rudder_pwm,aileron2_pwm,pbaro,pdiff,Tt,sample_start_time,sample_end_time,uid
-0.0219801760039131,0.0761879910520929,0.1713056576393838,0.1031428180327814,-0.0094231708164743,-0.2767230367768409,-0.2100985850306977,-0.2355939099469802,-11.58599043925124,26.150178595347885,-15.617047826648252,-0.6809375084372031,0.5047718479482571,0.0477236213398295,4439.622287326389,11.961555555555556,0.16,178.46662146900923,12.75604108793952,57.447841532394136,1553.0,1435.0,1200.0,1528.0,1471.0,999.7000000000002,110.0,294.1,1649426242.8544624,1649426243.8971026,59b40202-6954-4245-9ef4-cc8bfaa5c504
-0.0219275812062857,0.0776869424158411,0.1749346977010643,0.0969760795943924,-0.0052024392095539,-0.2722656281369247,-0.2029851396109301,-0.2302029437526631,-11.536763353398806,25.929034844497824,-15.538147729967564,-0.658258394886234,0.5103316889684544,0.0272637921799003,4448.838216145833,11.960333333333333,0.16,178.50147516543387,12.769498268151736,57.09447220930968,1553.0,1435.0,1200.0,1528.0,1471.0,999.7000000000002,110.0,294.1,1649426244.0064228,1649426245.272971,59b40202-6954-4245-9ef4-cc8bfaa5c504
-0.0223483395294531,0.0753070284120896,0.1718053081092517,0.0997504544478651,-0.0078321785051207,-0.2726337917010872,-0.2070349384542454,-0.224746234711234,-11.591567364159705,26.00254397610994,-15.58700756368387,-0.6650479147941326,0.5016877723945598,0.0404762936815907,4450.376953125,11.961777777777778,0.16,178.5397970801371,12.767186059390207,56.64961364065776,1553.0,1435.0,1200.0,1528.0,1471.0,999.7000000000002,110.0,294.1,1649426245.3815286,1649426246.4953136,59b40202-6954-4245-9ef4-cc8bfaa5c504
0.1609795485324312,0.4025594348896231,0.1951250678923849,-0.0203217966290304,-0.0576723131010181,-0.4768555448853728,-0.2697361473777024,-0.2910890859854023,-11.620811165213306,25.557802158523334,-14.900331525628465,-0.8548002211166015,1.7394585225371069,0.2055214664462817,4453.975260416667,11.949,0.1544444444444444,178.41806489528966,12.777130340503057,56.19028038333477,1658.0,1435.0,1200.0,1528.0,1551.0,999.7000000000002,110.0,294.1,1649426247.4067926,1649426248.5491135,a61b456d-7bac-451c-8865-f1e9079a013e
0.1598153411060995,0.3983956814101557,0.1979191657359652,-0.0201163482692682,-0.0537550971960912,-0.4726507003884088,-0.2652710687002266,-0.2895139810431962,-11.654774790743266,25.53590028090001,-14.827304922934855,-0.8458263335921887,1.7235865330753617,0.1896063149283403,4452.689453125,11.937888888888889,0.151111111111111,178.47909339443368,12.796134013776278,56.01297664103527,1658.0,1435.0,1200.0,1528.0,1551.0,999.7000000000002,110.0,294.1,1649426248.6815977,1649426249.7738476,a61b456d-7bac-451c-8865-f1e9079a013e
0.1644036880870137,0.4044495598243856,0.2028088369472491,-0.0205546381462598,-0.0513171096733684,-0.4789100291992167,-0.2633809433681994,-0.2769679316853132,-11.626462804118429,25.643575797312963,-14.906544076004453,-0.8579443192653718,1.7471599352416272,0.1775219162783461,4453.975260416667,11.937444444444443,0.1544444444444444,178.5298675029037,12.809151690288154,55.89640124901122,1658.0,1435.0,1200.0,1528.0,1551.0,999.7000000000002,110.0,294.1,1649426249.881982,1649426250.9312353,a61b456d-7bac-451c-8865-f1e9079a013e
0.3513480061949789,0.7481509690803502,0.2262299510619307,-0.1473847769418615,-0.1070347126708996,-0.6935351697964749,-0.3330964367750752,-0.3500116902956566,-11.692970080494868,25.44696339049818,-14.321592248906,-1.0542153334859388,3.0486324416065327,0.3620808109753056,4459.900227864583,11.913333333333334,0.1422222222222222,178.36896949553562,12.826505303694386,55.63562045249564,1767.0,1435.0,1200.0,1528.0,1630.0,999.7000000000002,110.0,294.1,1649426252.9362953,1649426254.282977,2613d865-3cdb-4227-b54b-1a023612379f
0.3516567055558427,0.7696461353731573,0.2376423445684855,-0.1579943427677892,-0.1028962445659742,-0.709101841559494,-0.3273976138797024,-0.3522157822508803,-11.528728830418933,25.52239841704048,-14.864876813917292,-1.0641987412178815,3.1349360712182373,0.3345993442971539,4517.63525390625,11.900666666666668,0.13,178.4074189071033,12.83391605894385,55.57407893025401,1767.0,1435.0,1200.0,1528.0,1630.0,999.7000000000002,110.0,294.1,1649426254.3923218,1649426255.5105832,2613d865-3cdb-4227-b54b-1a023612379f
0.3518109498618873,0.7665733864946026,0.2257281091973259,-0.1530858329561843,-0.1117594777849108,-0.7103671511913183,-0.3404021823024288,-0.3604145018399019,-11.742991657470284,25.47404207606509,-14.924384505459962,-1.0791456061766127,3.1240948477916324,0.3808848493423538,4565.0400390625,11.8985,0.13125,178.45692013393057,12.850437005885642,55.599794023296674,1767.0,1435.0,1200.0,1528.0,1630.0,999.7000000000002,110.0,294.1,1649426255.619929,1649426256.7347653,2613d865-3cdb-4227-b54b-1a023612379f
0.5148416210418125,1.0550689079847808,0.2438733090978944,-0.3699078620406779,-0.1809610713509729,-0.7675903015459344,-0.3752856796584246,-0.397704211029627,-11.58187849691558,26.06053105554093,-11.332148890992393,-0.7131911501556246,4.201005932240598,0.5380180521828705,4575.773817274306,11.871666666666666,0.1211111111111111,178.49289493001652,12.905439048883808,55.77959059491575,1886.0,1435.0,1200.0,1528.0,1710.0,999.7000000000002,110.0,294.1,1649426258.874323,1649426260.0111265,0a235cd4-aa95-426b-8d35-ae36dd45ac39
0.5295287133847291,1.0511374480361853,0.2402048229973131,-0.373786728020701,-0.1842350970721439,-0.7589910502564414,-0.3758510738027181,-0.4050543338348994,-11.529765975759476,26.02907585135168,-11.181363873811389,-0.6854586313394758,4.184799799217229,0.5480352497279135,4547.981119791667,11.80411111111111,0.1022222222222222,178.52381747311887,12.951203213597662,55.935727580977385,1886.0,1435.0,1200.0,1528.0,1710.0,999.7000000000002,110.0,294.1,1649426260.1226304,1649426261.247694,0a235cd4-aa95-426b-8d35-ae36dd45ac39
0.5171163452738621,1.0450496020207327,0.2404414995331396,-0.3697106314562909,-0.1826046585606935,-0.7596484854577983,-0.3758510737673461,-0.4091961741176901,-11.593580467786095,26.08986174516804,-11.588452754267673,-0.6958129241850789,4.165540537231276,0.5441472892710246,4539.9501953125,11.838333333333331,0.12,178.57488148517373,12.991786490098589,56.10116462850389,1886.0,1435.0,1200.0,1528.0,1710.0,999.7000000000002,110.0,294.1,1649426261.3555286,1649426262.682808,0a235cd4-aa95-426b-8d35-ae36dd45ac39
-0.2579335474307715,-0.3628207132841757,0.1592614522806348,0.2758640853199541,0.0710731482182895,-0.0108958248585097,-0.1137712284684563,-0.1463142540423882,-11.396208376588408,27.393137774100648,-16.05827811597597,-0.4655399291300718,-1.1612184697776984,-0.235252721598809,4535.14599609375,11.886333333333331,0.1333333333333333,179.58938314297407,13.072216236443715,56.21812820294578,1449.0,1435.0,1200.0,1528.0,1386.0,999.7000000000002,110.0,294.1,1649426264.2731028,1649426265.3394136,78506f9c-5a54-41c5-9325-6e98290b543b
-0.2511225219262618,-0.357127326790829,0.1613652436201544,0.2687111949891588,0.0709679586519767,-0.010974716973036,-0.1097082810837877,-0.1241849969947354,-11.153181114388914,27.27082425896738,-16.18881348031342,-0.45018659279137,-1.1394159957599064,-0.2430996910885172,4538.882052951389,11.958111111111112,0.15,179.61639730005135,13.093622997939924,56.17710532788077,1449.0,1435.0,1200.0,1528.0,1386.0,999.7000000000002,110.0,294.1,1649426265.4479113,1649426266.5668683,78506f9c-5a54-41c5-9325-6e98290b543b
-0.2491502172417454,-0.341927431301118,0.1624565853879978,0.2560095551170378,0.0691271412037605,-0.0079373680941065,-0.1096425375704459,-0.1332970438386152,-11.27220745589789,27.180683991480247,-15.29690559184952,-0.4151704254184512,-1.0878381638798222,-0.2392341204408175,4539.9501953125,11.958111111111112,0.15,179.58837986407596,13.11249338766059,56.111458482493,1449.0,1435.0,1200.0,1528.0,1386.0,999.7000000000002,110.0,294.1,1649426266.6759462,1649426267.7966225,78506f9c-5a54-41c5-9325-6e98290b543b
-0.4205215866144985,-0.670867356711914,0.1447628236655948,0.3849182687806818,0.1157535132474806,0.2128210207963404,-0.0493311086117282,-0.0650547588599253,-11.26228051303482,28.80694493925888,-12.714716347412642,-0.1995670626845503,-2.361484548189124,-0.4001830404931206,4417.506184895833,11.944666666666668,0.1533333333333333,179.69603882359354,13.180105050799591,55.99469677808659,1342.0,1435.0,1200.0,1528.0,1293.0,999.7000000000002,110.0,294.1,1649426269.9345992,1649426271.068935,08a84c46-c861-4a5a-89e2-e57989ead85b
-0.4208503040749619,-0.672606820288018,0.1480089079547616,0.388013690778697,0.1193694046371868,0.2109993785882309,-0.0457289135908316,-0.0691500304393555,-11.193646368722776,28.79376970280628,-12.784560613145572,-0.2105453414087118,-2.368050893531564,-0.4148899823010574,4399.865342881944,11.919111111111112,0.14,179.68994174139442,13.175880294206726,56.06356709330765,1342.0,1435.0,1200.0,1528.0,1293.0,999.7000000000002,110.0,294.1,1649426271.176917,1649426272.308397,08a84c46-c861-4a5a-89e2-e57989ead85b
-0.4225486777083391,-0.670497549475957,0.145817458644014,0.392314409863951,0.1172738312198295,0.2057946865853438,-0.0501255090493936,-0.0643699308098574,-11.227324273372991,28.824410967033685,-12.69327258748772,-0.2318507435178326,-2.361378482215303,-0.4024031764818026,4394.601725260417,11.916777777777774,0.14,179.693705934537,13.17632141059062,56.09966084852163,1342.0,1435.0,1200.0,1528.0,1293.0,999.7000000000002,110.0,294.1,1649426272.4414666,1649426273.5332325,08a84c46-c861-4a5a-89e2-e57989ead85b
-0.5905298909072271,-0.9837812790103588,0.1432989354847891,0.4830743737705157,0.1630482766725051,0.454923017582127,0.0276561531056612,0.0055268967550922,-10.739306892812335,31.08173214028696,-8.776438639393891,0.1389503087801685,-3.5858476828230463,-0.6042335024538221,4393.35009765625,11.91288888888889,0.1466666666666666,179.81704852620874,13.19006915843378,56.15373849182025,1227.0,1435.0,1200.0,1528.0,1189.0,999.7000000000002,110.0,294.1,1649426275.2477882,1649426276.4052773,f6095e8a-eee9-4ee8-b23e-7df43c04ab4e
-0.6152362990911618,-1.0120904398566346,0.1255613446959407,0.5036915276195956,0.1553562896269373,0.4626675989838072,0.015585649874466,-0.0146695010868084,-10.81734602299434,30.935503071999456,-9.032216682791628,0.107913530239361,-3.692870313247431,-0.5559925747269419,4398.423767089844,11.823875,0.12,179.84577250730828,13.197170385162575,56.32012199486549,1227.0,1435.0,1200.0,1528.0,1189.0,999.7000000000002,110.0,294.1,1649426276.525264,1649426277.628619,f6095e8a-eee9-4ee8-b23e-7df43c04ab4e
-0.599378966243401,-1.0176786393689454,0.1350678518611368,0.503191877219071,0.1654676367192216,0.464429524135617,0.0280374653208355,0.0147967280237519,-10.691559027688342,30.870965948129225,-9.540577976563208,0.1130277186373086,-3.709551070111551,-0.6017348421432058,4436.825466579861,11.821555555555554,0.12,179.88695323563408,13.212653748106856,56.52967703665215,1227.0,1435.0,1200.0,1528.0,1189.0,999.7000000000002,110.0,294.1,1649426277.736718,1649426279.0590937,f6095e8a-eee9-4ee8-b23e-7df43c04ab4e
-0.0022328566677996,0.0773926139036477,0.1646417974695109,0.0930446194246767,-0.0158240574171953,-0.2689364790183195,-0.2133579448583517,-0.2430183728646401,-11.584240239006732,25.97510522973371,-15.700295231120974,-0.6421657988396439,0.5108332302643234,0.0701789508813251,4459.6396484375,11.839888888888888,0.1144444444444444,179.4137774615932,13.189640469199624,56.7161552408268,1553.0,1435.0,1200.0,1528.0,1471.0,999.7000000000002,110.0,294.1,1649426279.7663448,1649426280.9069862,f8f27831-ac83-4396-aec6-4b3e83055af3
-0.0272265059243155,0.0833145843628492,0.169885598510996,0.0931103629429451,-0.0119871666246026,-0.2762233862320628,-0.2111504808329239,-0.2253642233567851,-11.635409203911673,26.02005412758261,-15.874184170875326,-0.6581831516813443,0.5352726515486687,0.0550797793675924,4459.89794921875,11.956,0.15,179.32808287262662,13.179290455877329,56.582008428252976,1553.0,1435.0,1200.0,1528.0,1471.0,999.7000000000002,110.0,294.1,1649426281.0167649,1649426282.1324823,f8f27831-ac83-4396-aec6-4b3e83055af3
-0.0106591482551585,0.0833277330549362,0.1731201776992512,0.0978833396088983,-0.0106854456428482,-0.2802074417421987,-0.2107297224625542,-0.2364091292119761,-11.566772235915067,26.25218507554215,-15.803041962016325,-0.6761567472151174,0.5338269762229416,0.0483951399237273,4461.444715711806,11.962555555555554,0.16,179.27903148964722,13.157798411880238,56.47011626926982,1553.0,1435.0,1200.0,1528.0,1471.0,999.7000000000002,110.0,294.1,1649426282.2407377,1649426283.2805607,f8f27831-ac83-4396-aec6-4b3e83055af3
-0.0020204546599116,0.0855367139982703,0.1572102557429343,-0.1739659642843193,-0.0545757950259294,-0.0196660053992923,-0.1504034987035529,-0.1811188561943338,-11.23448333416243,25.50391921260708,-13.866628436635176,0.5172634630131168,0.5550469280756244,0.0451249758508541,4462.735026041667,11.962000000000002,0.1533333333333333,179.22403177081063,13.23389108296615,56.20114949103399,1553.0,1522.0,1200.0,1528.0,1471.0,999.7000000000002,110.0,294.1,1649426285.2953403,1649426286.4324424,22d64bf2-25e7-429a-9db0-30e3fd415f33
0.0004646489542592,0.0838273835000047,0.1621936114653274,-0.1725459049809174,-0.0497765207172856,-0.0184694740222942,-0.1458934955539469,-0.1797645404756528,-11.278628477793418,25.593291117241804,-13.713114027999216,0.5175917674507654,0.5477303477603408,0.025328633752728,4461.96044921875,11.964666666666666,0.1577777777777777,179.20851358101635,13.231709311845025,56.08745112647031,1553.0,1522.0,1200.0,1528.0,1471.0,999.7000000000002,110.0,294.1,1649426286.5413067,1649426287.664683,22d64bf2-25e7-429a-9db0-30e3fd415f33
-0.0081477472382913,0.0760433553959327,0.1548566391956731,-0.167562548675795,-0.0535633453699811,-0.0145511624443271,-0.151205569225632,-0.1808427334372168,-11.363408711170123,25.501955631141666,-13.635182182229675,0.5141544462214368,0.5173646236547965,0.0472407269602567,4462.476833767361,11.963444444444445,0.1577777777777777,179.18873790663943,13.22966329073365,55.97419672420271,1553.0,1522.0,1200.0,1528.0,1471.0,999.7000000000002,110.0,294.1,1649426287.7731907,1649426288.892576,22d64bf2-25e7-429a-9db0-30e3fd415f33
0.0106598194626906,0.0828269868823084,0.1525424687111861,-0.4557765361959983,-0.092256125136699,0.2558008195851934,-0.0804770841751438,-0.0936668713532675,-11.05328507367094,25.345823800180685,-11.723732248511912,1.7711221483490416,0.5590072115575327,0.003664489372598,4466.61083984375,11.96,0.1466666666666666,179.1720221570107,13.309251405991056,55.746960125065925,1553.0,1613.0,1200.0,1528.0,1471.0,999.7000000000002,110.0,294.1,1649426290.8273113,1649426291.9578035,66a0bc74-6ab6-47be-ba31-ce491c3eb14b
0.0028253878307886,0.0744309965237011,0.1406675527303199,-0.4483803929320246,-0.1008712609703851,0.258416862105189,-0.0913932419046623,-0.1204984313636259,-11.115256996239772,25.333110970676188,-11.640442353848265,1.759623373437761,0.5255539232960078,0.0462560026811734,4466.61083984375,11.951,0.1422222222222222,179.17623562481873,13.30650557508097,55.62347447887659,1553.0,1613.0,1200.0,1528.0,1471.0,999.7000000000002,110.0,294.1,1649426292.0660496,1649426293.1897385,66a0bc74-6ab6-47be-ba31-ce491c3eb14b
0.0103858882943162,0.0767594114724501,0.1481047838588154,-0.451064918986993,-0.0948310782753816,0.2596221592145833,-0.0845997484852512,-0.1086783002687704,-11.151335600907643,25.40496601934432,-11.442194105593568,1.7692475711668445,0.5335884033174039,0.0187018943452066,4468.163248697917,11.949333333333332,0.1433333333333333,179.16883473539804,13.312843800903266,55.53091441142925,1553.0,1613.0,1200.0,1528.0,1471.0,999.7000000000002,110.0,294.1,1649426293.2981985,1649426294.4214375,66a0bc74-6ab6-47be-ba31-ce491c3eb14b
0.0276983385509056,0.0787728055668405,0.1401470835342806,-0.7630726265821993,-0.1416596150401689,0.5601109343901639,-0.0142816141701624,-0.0340594458648376,-11.03295696673382,25.44029792749323,-9.050596600637876,3.148577719317951,0.5570162825292572,-0.0058374348129313,4467.904513888889,11.946555555555555,0.1511111111111111,179.14495487623986,13.424912216712498,55.359512332027606,1553.0,1710.0,1200.0,1528.0,1471.0,999.7000000000002,110.0,294.1,1649426296.3548338,1649426297.4943078,fe725e2c-1467-401f-a02a-791176054424
0.0239180883508726,0.0732120028207794,0.1343260462625331,-0.7564434892175192,-0.143590829956472,0.5585221337498679,-0.0172400708938391,-0.0418664849972425,-10.962540225361016,25.18719122336237,-9.214268567832365,3.12809539441286,0.5359226154761787,0.00824742240737,4466.61083984375,11.933444444444444,0.14,179.16461064285133,13.421132371053066,55.27591878514067,1553.0,1710.0,1200.0,1528.0,1471.0,999.7000000000002,110.0,294.1,1649426297.6028657,1649426298.928139,fe725e2c-1467-401f-a02a-791176054424
0.0179655639224969,0.067641338545949,0.1335163057711606,-0.7518381563605798,-0.1443813953430277,0.559954793644118,-0.0204943732756729,-0.0488561120494598,-11.114478758835514,25.45838179523224,-9.20178919725093,3.1226092125663483,0.5153802676904877,0.0142277738309547,4466.61083984375,11.930111111111112,0.1288888888888889,179.18309009910578,13.414348095932477,55.17799815755974,1553.0,1710.0,1200.0,1528.0,1471.0,999.7000000000002,110.0,294.1,1649426299.035968,1649426300.156572,fe725e2c-1467-401f-a02a-791176054424
0.0206741954101877,0.0672205802659267,0.1283751656123912,-0.9598769350573012,-0.1825126176518424,0.7639042014283092,0.0201088014079539,-0.0005083547369557,-10.996062657605648,26.29053453972659,-7.375860815016989,4.055806396397635,0.5220831094876809,0.0158031237963581,4461.96044921875,11.924,0.1333333333333333,179.18347866097852,13.482468418437165,55.096262801582014,1553.0,1814.0,1200.0,1528.0,1471.0,999.7000000000002,110.0,294.1,1649426302.295339,1649426303.4333344,9c88beb9-1502-435a-a03e-0675774983c4
0.0141392932924833,0.0656164393282525,0.1257585751171573,-0.9610340209395384,-0.179843432053487,0.765534639602997,0.0242374920617917,0.0015033956102641,-10.927630310097134,25.68274557851256,-7.506140135783585,4.05793459556767,0.5167031971127255,0.0097652317123444,4461.96044921875,11.887777777777776,0.12,179.21846440772717,13.491840196888328,55.15985641621428,1553.0,1814.0,1200.0,1528.0,1471.0,999.7000000000002,110.0,294.1,1649426303.541611,1649426304.6692417,9c88beb9-1502-435a-a03e-0675774983c4
0.0267357444273408,0.0625264957266301,0.1240360959479144,-0.9541572489165386,-0.1802773390913368,0.7623921015067817,0.0205558570598612,0.0025552916472064,-11.037755208004953,25.7680093940976,-7.504318260688048,4.035784892522514,0.5049228918569255,0.0175229967207197,4463.509602864583,11.890333333333334,0.12,179.22947770830882,13.484170273905358,55.19042265111495,1553.0,1814.0,1200.0,1528.0,1471.0,999.7000000000002,110.0,294.1,1649426304.7816646,1649426305.8953488,9c88beb9-1502-435a-a03e-0675774983c4
-0.0449509490537989,0.0747416344768896,0.183152632536846,0.4533320254912862,0.0357688987920205,-0.6112259453620943,-0.2995228793153511,-0.330198792569976,-12.005288682079335,27.410560100696056,-17.839576162315026,-2.214171489161828,0.4796696572740452,0.0962930919197619,4451.918619791667,11.908333333333337,0.1333333333333333,179.2712283779754,13.03938380169468,55.33073522723451,1553.0,1349.0,1200.0,1528.0,1471.0,999.7000000000002,110.0,294.1,1649426307.8235066,1649426308.9612093,7353c8f3-3eef-417f-a999-5b2c15447622
-0.0405461356615781,0.0728350735310025,0.1756710246589552,0.4501631899654692,0.029838836752918,-0.6063872235786855,-0.305308306487151,-0.3199954032700616,-12.09811447068884,27.31055058384238,-17.88144911570496,-2.197239028882893,0.4734611729275685,0.1224641150882592,4459.6396484375,11.958777777777776,0.1422222222222222,179.29663819950767,13.02057080453579,55.43076182980954,1553.0,1349.0,1200.0,1528.0,1471.0,999.7000000000002,110.0,294.1,1649426309.073477,1649426310.1937113,7353c8f3-3eef-417f-a999-5b2c15447622
-0.0325911741887764,0.0779499163341654,0.1785505890434819,0.4419978502950042,0.0316270594713856,-0.6046778924993007,-0.3005616264377738,-0.3148279641684078,-12.023632607536662,27.159120938880665,-17.96405339667905,-2.175815065594528,0.4940352075419962,0.1098900993539792,4450.890842013889,11.951222222222222,0.1422222222222222,179.28622747339276,13.009582453117316,55.53813619811168,1553.0,1349.0,1200.0,1528.0,1471.0,999.7000000000002,110.0,294.1,1649426310.3179176,1649426311.425896,7353c8f3-3eef-417f-a999-5b2c15447622
-0.0565491952758732,0.074074886009348,0.2024938161052803,0.7157449145779872,0.0790604332788376,-0.8640437046292093,-0.3560107831650452,-0.3709811249989383,-12.234627921197458,28.3789653075056,-19.67373429359881,-3.367251019282467,0.4639821572409321,0.0904664655832483,4457.835340711806,11.937,0.1377777777777778,179.31451659911514,12.916774411857611,55.74347103676491,1553.0,1264.0,1200.0,1528.0,1471.0,999.7000000000002,110.0,294.1,1649426312.3291905,1649426313.4661767,c1eb12a4-970a-4457-9f33-8efab0a9de13
-0.0618908533805569,0.071335574309877,0.1907010796361975,0.71952516438132,0.0700207046682846,-0.8663721207214431,-0.3681596328153683,-0.3820068568474088,-12.357192750236598,28.284036941785104,-19.98163804827416,-3.3823378673294813,0.4560898636244404,0.1353717392888654,4459.6396484375,11.921444444444443,0.13,179.35248941526078,12.913469548936712,55.97102637806296,1553.0,1264.0,1200.0,1528.0,1471.0,999.7000000000002,110.0,294.1,1649426313.5742626,1649426314.719526,c1eb12a4-970a-4457-9f33-8efab0a9de13
-0.0551247531423083,0.0729106785376179,0.2017542019644459,0.7183061707859556,0.0800876751592137,-0.8661255825811863,-0.3554766173092969,-0.3786511995657362,-12.202359924084105,28.22248245561235,-19.79557795017846,-3.3787841947846524,0.4601022967932164,0.0891114897594454,4464.2841796875,11.913666666666664,0.13,179.36099983096665,12.915177096229217,56.11923958577748,1553.0,1264.0,1200.0,1528.0,1471.0,999.7000000000002,110.0,294.1,1649426314.8280735,1649426315.9242268,c1eb12a4-970a-4457-9f33-8efab0a9de13
-0.0685397109905524,0.0839983165594788,0.2009165204576403,0.8969032520836939,0.0900730140929712,-1.0488542190796513,-0.4185974937021837,-0.4415156763281986,-12.556373037925962,29.40730544682916,-21.10611785264568,-4.184845583209279,0.4937864463757482,0.1668489449146216,4465.576768663194,11.901333333333334,0.1255555555555555,179.35515015339743,12.852774495833469,56.37635408852857,1553.0,1178.0,1200.0,1528.0,1471.0,999.7000000000002,110.0,294.1,1649426316.8344772,1649426317.972427,b8721d01-8626-4ef7-8fd3-fff0e189f9b5
-0.0514464051877211,0.081302833849719,0.2078458831170704,0.9096048916190314,0.0970286743694978,-1.056993267629356,-0.4143241664696785,-0.4337447951054877,-12.464167956097883,29.56214568371012,-20.93522373648593,-4.230341753080029,0.4803875791717112,0.1418724711313887,4464.2841796875,11.887777777777778,0.1277777777777777,179.37166706863036,12.867602457066615,56.59412935784506,1553.0,1178.0,1200.0,1528.0,1471.0,999.7000000000002,110.0,294.1,1649426318.0814712,1649426319.1992807,b8721d01-8626-4ef7-8fd3-fff0e189f9b5
-0.0635826523178659,0.0819997147458908,0.2025864048305552,0.8976132815922299,0.0912432480867477,-1.046329667544689,-0.4159151590689469,-0.4356776540963009,-12.45237261419638,29.451520845886368,-20.917116769209123,-4.180315494093916,0.4838984649673514,0.1592452818293052,4463.509602864583,11.890333333333333,0.1166666666666666,179.36619532819526,12.845172210696033,56.73738195094737,1553.0,1178.0,1200.0,1528.0,1471.0,999.7000000000002,110.0,294.1,1649426319.3082323,1649426320.43608,b8721d01-8626-4ef7-8fd3-fff0e189f9b5
-0.0543654158711136,0.0884031297549861,0.2097787413649273,0.9711276367222912,0.0977518526223996,-1.1248800351626924,-0.44060841595777,-0.4612650225500185,-12.654878007875649,30.484240667273205,-21.646649326214785,-4.515673105357535,0.5072365559580437,0.1755593060888369,4464.2841796875,11.874000000000002,0.1111111111111111,179.35136471077746,12.814408943810555,56.96798659225489,1553.0,1088.0,1200.0,1528.0,1471.0,999.7000000000002,110.0,294.1,1649426321.339442,1649426322.4771202,00006048-853c-4ef7-9ac8-d87aef1764fa
-0.0700123650773753,0.0854841192013874,0.2092001987123255,0.9781621886137932,0.0980279752106916,-1.1283512930940964,-0.4417786503043259,-0.4604366544994657,-12.597007603542036,30.514380125352805,-21.6332613446483,-4.53913945585487,0.4948579725212287,0.1773934607949315,4462.735026041667,11.859,0.11,179.34980742764668,12.817618089219335,57.12653767073317,1553.0,1088.0,1200.0,1528.0,1471.0,999.7000000000002,110.0,294.1,1649426322.5851886,1649426323.5352871,00006048-853c-4ef7-9ac8-d87aef1764fa
-0.0485187972833197,0.0929687616151338,0.2072612718674421,0.9701890220709006,0.0947134924115192,-1.1279006970496437,-0.4450152530930317,-0.4696564212592046,-12.734390625866702,30.487789417631515,-21.589294883110693,-4.520476361326872,0.5243709206919546,0.1899716915705935,4457.31982421875,11.874,0.12,179.34664277333124,12.819232859775616,57.266942454406525,1553.0,1088.0,1200.0,1528.0,1471.0,999.7000000000002,110.0,294.1,1649426323.6436968,1649426324.7297688,00006048-853c-4ef7-9ac8-d87aef1764fa
-0.0207179011244103,0.0795935033502836,0.1728835011459095,0.0948196934240649,-0.0095941038589627,-0.2723576690527097,-0.2058121096245763,-0.2350153674170201,-11.410131665960982,26.05208261305872,-15.588856552818196,-0.6528317217139383,0.5171731638940841,0.0402447296847201,4461.703884548611,11.901555555555554,0.1233333333333333,179.27693386266208,13.076198236729836,57.40274027548472,1553.0,1435.0,1200.0,1528.0,1471.0,999.7000000000002,110.0,294.1,1649426325.8445442,1649426326.9833176,e8a8f38c-a614-4a66-b12c-167489b6859a
-0.0181144592191589,0.0760039092980763,0.168189416758122,0.0994085883397206,-0.0146826494151406,-0.2738566206165711,-0.2128861089198595,-0.2262846325121435,-11.44854760577961,26.269839352365125,-15.748858064996476,-0.6653865297666713,0.5045411135946685,0.0629099241231306,4473.34521484375,11.959,0.14,179.21154466718806,13.05943040690867,57.20324866366644,1553.0,1435.0,1200.0,1528.0,1471.0,999.7000000000002,110.0,294.1,1649426327.0919037,1649426328.210664,e8a8f38c-a614-4a66-b12c-167489b6859a
-0.0165234669423061,0.0767007902038479,0.172567932463076,0.1001580640389214,-0.0094494681815497,-0.2749742599234857,-0.2087837152389948,-0.2312416909848726,-11.548237297482046,26.21607972604918,-15.6787713333592,-0.6697660153032733,0.5074236292078514,0.044114902566877,4480.6201171875,11.955999999999998,0.14,179.1671044208083,13.063009426033757,57.034437123234994,1553.0,1435.0,1200.0,1528.0,1471.0,999.7000000000002,110.0,294.1,1649426328.3224142,1649426329.4463012,e8a8f38c-a614-4a66-b12c-167489b6859a
0.0401074207045255,0.1096311516791677,0.3438696857591257,0.0817312621748618,0.1444204097115928,-0.2987728556144287,-0.0314707956450967,-0.053179842137748,-10.222294318005828,25.92644300532923,-15.548684117450309,-0.6743804576244954,0.633518287451717,-0.646367774825983,4482.9638671875,11.953222222222225,0.14,179.069713512343,13.054707710552558,56.78973345366076,1553.0,1435.0,1200.0,1424.0,1471.0,999.7000000000002,110.0,294.1,1649426330.3508084,1649426331.4876382,60e05125-3c82-43b8-886f-08f4c5ce656c
0.0394242363846481,0.1092306643198743,0.3395958119265198,0.0831567999999604,0.1403930737398607,-0.299693812336867,-0.0365883779389067,-0.0583626200732258,-10.25739209686739,25.959775463169123,-15.585129501303111,-0.6796809568486748,0.6321417545954274,-0.6278958781274029,4480.6201171875,11.952888888888891,0.14,179.03987317476913,13.061504602550368,56.673910141355314,1553.0,1435.0,1200.0,1424.0,1471.0,999.7000000000002,110.0,294.1,1649426331.5968113,1649426332.6503165,60e05125-3c82-43b8-886f-08f4c5ce656c
0.0415866490535335,0.1149180232019248,0.3474718804064753,0.0812244895121196,0.1432698988143305,-0.3052513287966999,-0.0334567967020412,-0.0467561557939664,-10.195888632785412,26.310040887657465,-15.797965929995591,-0.6850994599782991,0.6556670155826496,-0.6467385738785366,4485.570421006944,11.953555555555557,0.1388888888888889,179.03801688113467,13.052673452544758,56.56935170826599,1553.0,1435.0,1200.0,1424.0,1471.0,999.7000000000002,110.0,294.1,1649426332.7626083,1649426333.7108097,60e05125-3c82-43b8-886f-08f4c5ce656c
0.1104255520461436,0.1503784125373613,0.5744101402001821,0.0770196460680577,0.347430790738827,-0.3482174399719634,0.19493331607143,0.1715258981869076,-8.487212069525848,26.36667417271748,-15.77385012007008,-0.7596255645095503,0.7912630470881471,-1.5538742440887674,4483.745768229167,11.945,0.1333333333333333,178.99372234545726,13.054117373508044,56.31478562498521,1553.0,1435.0,1200.0,1384.0,1471.0,999.7000000000002,110.0,294.1,1649426335.8804295,1649426337.021927,5940389b-f7e1-4fcc-ba7d-6e5948619536
0.1222478733269457,0.1541992044181926,0.5743131685721845,0.0724932074185087,0.3456573604524207,-0.346200758328172,0.1937373326045899,0.1689783383257106,-8.546156392648172,26.449179993670885,-15.553286682422565,-0.7443356744423494,0.8046082381509985,-1.5489651291444893,4485.3095703125,11.948,0.13,178.9665700667767,13.053041334122554,56.22510979464239,1553.0,1435.0,1200.0,1304.0,1471.0,999.7000000000002,110.0,294.1,1649426337.129707,1649426338.246905,5940389b-f7e1-4fcc-ba7d-6e5948619536
0.1154368488186003,0.155816494008997,0.5810847464963074,0.0727035865572223,0.3540330793713475,-0.3492512563736359,0.203506813549331,0.1858875610764253,-8.41265012216611,26.13776606624417,-15.667338477885842,-0.7533433126909951,0.8111380694241374,-1.583255375431144,4485.3095703125,11.946888888888887,0.1355555555555555,178.9807905206287,13.050821238051084,56.16621686797891,1553.0,1435.0,1200.0,1304.0,1471.0,999.7000000000002,110.0,294.1,1649426338.3548248,1649426339.4763825,5940389b-f7e1-4fcc-ba7d-6e5948619536
0.1866896317328339,0.1850460447696887,0.781063248401766,0.1036687658889909,0.5356560052663054,-0.4185711962156924,0.3906258982445396,0.3677866145061688,-7.187433234214427,26.673481922208865,-15.919311189755447,-0.9648788348364772,0.9232022797464424,-2.3655529291847537,4481.402506510417,11.933,0.1333333333333333,178.92064387479755,13.036507153689248,56.07187450061316,1553.0,1435.0,1200.0,1166.0,1471.0,999.7000000000002,110.0,294.1,1649426340.3875608,1649426341.5237725,1abbaec6-0d94-4e63-b499-2b2cbf56a3c9
0.177104232515602,0.1860584943385591,0.7867303359508633,0.1063642485598777,0.5402054537451094,-0.4212929769607963,0.3950833059274499,0.3778848125312328,-7.125876998584241,26.762542686454253,-15.774865483477042,-0.9761487990837796,0.9253125845731942,-2.3854643411673893,4478.27978515625,11.924,0.12,178.94681715969705,13.023564798985715,56.10256254055402,1553.0,1435.0,1200.0,1166.0,1471.0,999.7000000000002,110.0,294.1,1649426341.6325817,1649426342.750743,1abbaec6-0d94-4e63-b499-2b2cbf56a3c9
0.1924356117596001,0.1940134552615765,0.7849947082144343,0.1019068405890614,0.5397715468053138,-0.4218978171223233,0.3952016441770862,0.364617779021977,-7.155923070199727,26.415125102209227,-15.338446499298,-0.9697881879073824,0.9519260936820988,-2.381015407720403,4479.579969618056,11.919444444444444,0.12,178.97532788711248,13.029685502255695,56.11382096903593,1553.0,1435.0,1200.0,1166.0,1471.0,999.7000000000002,110.0,294.1,1649426342.8582177,1649426343.9808357,1abbaec6-0d94-4e63-b499-2b2cbf56a3c9
-0.0820828687881621,0.0473923463554714,-0.0055706027200556,0.1320568005199172,-0.1689563105903178,-0.2632061752477728,-0.395337445248601,-0.4261842931022686,-12.726629752769622,26.417852505788023,-15.312983736652676,-0.7233446897123844,0.3873805227467533,0.7661465706708563,4454.235677083333,11.934333333333331,0.1266666666666666,179.1958139826196,13.042062658805404,56.26224553315975,1553.0,1435.0,1200.0,1623.0,1471.0,999.7000000000002,110.0,294.1,1649426344.8912268,1649426346.0286305,353e0de1-fa8b-4808-a386-6f2bc9d4c4f6
-0.0840946193936022,0.0433162505096619,-0.0052813313984611,0.138105200641681,-0.1691140949549854,-0.2659016583384435,-0.3982827537845152,-0.4221870887646309,-12.816903378505618,26.68729878869861,-15.48504575072416,-0.741317782311747,0.3735348212771898,0.7693040921634888,4436.5556640625,11.96,0.14,179.17909823299084,13.040431097367415,56.16492899786541,1553.0,1435.0,1200.0,1623.0,1471.0,999.7000000000002,110.0,294.1,1649426346.1378562,1649426347.2582352,353e0de1-fa8b-4808-a386-6f2bc9d4c4f6
-0.0843444446122569,0.0467086141490659,0.004304068332828,0.1312547300632579,-0.1628421663282099,-0.2620227924452842,-0.3890786646091355,-0.4114314529023734,-12.778242259620884,26.84385308935417,-15.28773935863404,-0.7155824503966628,0.3856896498382873,0.7351823597442104,4440.131184895833,11.956888888888887,0.14,179.17649668982696,13.030168453548256,56.09092048311373,1553.0,1435.0,1200.0,1623.0,1471.0,999.7000000000002,110.0,294.1,1649426347.3659306,1649426348.4938276,353e0de1-fa8b-4808-a386-6f2bc9d4c4f6
-0.1349893905949644,0.016494553545063,-0.1664092983567453,0.1832638486188137,-0.3148937074896156,-0.2773925246586725,-0.577717030167736,-0.6087534422408677,-14.034777910760091,27.343381971648967,-16.255205581630097,-0.8734157964105745,0.2726193505920691,1.4379158538611974,4489.493543836806,11.95911111111111,0.1355555555555555,179.270211438699,13.042415836503736,56.035912416268175,1553.0,1435.0,1200.0,1712.0,1471.0,999.7000000000002,110.0,294.1,1649426350.429325,1649426351.5590942,a86c6d0a-3989-4861-9b04-a9ccb13ab5bd
-0.1439211909774203,0.0155725012083591,-0.1639992517111972,0.1879519065171319,-0.3104362987798933,-0.2820877055777064,-0.5738573387910145,-0.5927783196555421,-13.94800116838473,27.137438495732685,-16.41115766399472,-0.8957680032972312,0.2695011998167855,1.4229189533920277,4524.242838541667,11.95322222222222,0.1311111111111111,179.27048161062618,13.029027242774434,56.01512815062382,1553.0,1435.0,1200.0,1712.0,1471.0,999.7000000000002,110.0,294.1,1649426351.6673253,1649426352.790041,a86c6d0a-3989-4861-9b04-a9ccb13ab5bd
-0.1437962783512587,0.0157001531368243,-0.1646698352479481,0.1846608975476571,-0.3125515955886125,-0.2797209399124563,-0.5756077594786296,-0.601795588421965,-14.002939277830064,27.284886850396152,-16.498481025021103,-0.8821233668174561,0.271507938190958,1.4289708624231554,4536.479817708333,11.95411111111111,0.13,179.2838900308768,13.02386276598826,55.98001149191612,1553.0,1435.0,1200.0,1712.0,1471.0,999.7000000000002,110.0,294.1,1649426352.8987744,1649426354.0236905,a86c6d0a-3989-4861-9b04-a9ccb13ab5bd
-0.1841956508719026,-0.0131442518913441,-0.3206396887046704,0.235918348292661,-0.4523633530669724,-0.2898322887250641,-0.7493793492121554,-0.7787141036192909,-15.190576333772274,27.95264890101861,-16.51500741673737,-1.024409211165718,0.1556889366874876,2.0752486671517234,4534.880859375,11.943555555555555,0.1244444444444444,179.34316241249417,13.024161586764446,56.010085573741584,1553.0,1435.0,1200.0,1801.0,1471.0,999.7000000000002,110.0,294.1,1649426354.926995,1649426356.0651102,b02855e9-82d3-4a63-8e3c-524277660239
-0.1900073751627108,-0.0102646873598762,-0.3118432095554405,0.2391792247927361,-0.445802152152308,-0.2955782698321034,-0.742568321590232,-0.7632249328211287,-15.049276458509588,28.077663011173435,-16.446095333829113,-1.043328085076696,0.1650364889442263,2.0451457728369062,4515.502115885417,11.936333333333332,0.1222222222222222,179.3438864125462,13.020072864772548,56.03285780388936,1553.0,1435.0,1200.0,1801.0,1471.0,999.7000000000002,110.0,294.1,1649426356.1739788,1649426357.2989912,b02855e9-82d3-4a63-8e3c-524277660239
-0.1944516349155817,-0.0107380404257527,-0.3116591277846572,0.2333675013590457,-0.4463412488317634,-0.2891354077325985,-0.7419766300450817,-0.7640664496929342,-15.15785267892377,28.15393965047103,-16.35431397066118,-1.0152655004110973,0.1639446579947309,2.0447006563068744,4500.4873046875,11.929666666666668,0.12,179.3619044515767,13.028871191924647,56.050377239110446,1553.0,1435.0,1200.0,1801.0,1471.0,999.7000000000002,110.0,294.1,1649426357.413009,1649426358.730081,b02855e9-82d3-4a63-8e3c-524277660239
-0.0205469681058292,0.075320177105268,0.132964060468012,0.044972986181063,-0.0229137335384068,-0.2320437614197999,-0.2062854627589575,-0.2292430890243719,-11.773889335868256,22.79832013424431,-17.09182722515829,-0.4737790242213356,0.5205923060524346,0.1114821715754476,7440.47412109375,11.655444444444443,7.633333333333334,178.12642037118957,12.873991055534036,50.31617502206114,1553.0,1435.0,1350.0,1528.0,1471.0,999.7000000000002,110.0,294.1,1649426362.8668385,1649426363.8375292,7d9ec8df-69d5-48c2-a622-16885e470fbd
-0.0084370185474586,0.073098047460126,0.1389335684336487,0.0425141799893256,-0.0183248384175863,-0.2255088586225302,-0.1983567981178821,-0.222445212879141,-11.647522352428538,22.8786773036002,-16.74257196660384,-0.452598538467867,0.5089506632995202,0.0860636531874091,7446.93896484375,11.653,7.646666666666666,177.84039026258725,12.79580673387855,47.89298593180593,1553.0,1435.0,1350.0,1528.0,1471.0,999.7000000000002,110.0,294.1,1649426363.9707043,1649426365.075045,7d9ec8df-69d5-48c2-a622-16885e470fbd
-0.0142355937350624,0.0796592468294653,0.1412740362845514,0.0396083181073831,-0.016576061796113,-0.228270085170208,-0.1973443484265587,-0.2213275731051511,-11.738519962691852,22.814376208263585,-16.587508819708727,-0.4525792787134529,0.5333339445388726,0.0799998116373535,7453.4140625,11.659,7.639999999999999,177.68121042725036,12.710853979346792,45.95228330179518,1553.0,1435.0,1350.0,1528.0,1471.0,999.7000000000002,110.0,294.1,1649426365.183987,1649426366.3093443,7d9ec8df-69d5-48c2-a622-16885e470fbd
0.1462420519455786,0.3894107396796162,0.143899940468029,-0.0740944875895606,-0.082120671305579,-0.4228363054688981,-0.2784060701661479,-0.3055800466465965,-11.950221609358929,22.4342556866843,-16.2820703141837,-0.6357568712407189,1.7080409193014716,0.318030922858114,7457.738606770833,11.641666666666667,7.733333333333332,177.57496455798108,12.666127054749394,43.15644895625288,1658.0,1435.0,1350.0,1528.0,1551.0,999.7000000000002,110.0,294.1,1649426367.419664,1649426368.5565195,ad29c9e8-7195-4bd6-a809-bcb4a2fd8457
0.1591989959799843,0.3982176261614429,0.1482828390565345,-0.0716291069476063,-0.0791622145679998,-0.4358343424270208,-0.277241862566884,-0.3092918149066637,-11.874998616972997,22.379442475246066,-16.55862130181577,-0.6706778333193314,1.7429641344057265,0.3071417427208393,7459.90087890625,11.62188888888889,7.681111111111111,177.58632392148073,12.666918882374423,41.83104467653264,1658.0,1435.0,1350.0,1528.0,1551.0,999.7000000000002,110.0,294.1,1649426368.6652794,1649426369.785301,ad29c9e8-7195-4bd6-a809-bcb4a2fd8457
0.1468857901763899,0.3929581480746931,0.1464611968430846,-0.0765050819930596,-0.0789430695585558,-0.4265343771061353,-0.2763926758047337,-0.290774064776312,-12.059500443976072,22.30962049077475,-16.609326483578297,-0.6394350846209319,1.725476821522128,0.3072662612331343,7459.90087890625,11.625666666666667,7.683333333333334,177.72101221627378,12.70009149848962,40.91537471765753,1658.0,1435.0,1350.0,1528.0,1551.0,999.7000000000002,110.0,294.1,1649426369.8935795,1649426371.0137498,ad29c9e8-7195-4bd6-a809-bcb4a2fd8457
0.3313510320790228,0.729948244461054,0.1639927913110543,-0.2091699583147746,-0.1408789112068725,-0.6232991919162572,-0.3480941709648997,-0.3753914177957838,-12.10807724544649,22.22982597977861,-15.216312411742727,-0.7817908469822825,2.9948360794908893,0.5113913951359069,7466.3994140625,11.61111111111111,7.665555555555555,177.7461275807618,12.767948763847528,39.13924549569825,1767.0,1435.0,1350.0,1528.0,1630.0,999.7000000000002,110.0,294.1,1649426372.949777,1649426373.9973822,3d098dd4-9a62-4482-aca0-98e8eb4e3a57
0.3384184558152228,0.7376046199765929,0.1730873059113229,-0.2125804017454666,-0.13301708602293,-0.6316540955256852,-0.3406295452562326,-0.3616537670048509,-12.117037812223144,22.13053614322384,-15.718714637379811,-0.7931622606953012,3.029063100073889,0.4778808531777125,7466.3994140625,11.576444444444444,7.71,177.93860231157274,12.825255094485058,38.63749979926911,1767.0,1435.0,1350.0,1528.0,1630.0,999.7000000000002,110.0,294.1,1649426374.10587,1649426375.315375,3d098dd4-9a62-4482-aca0-98e8eb4e3a57
0.3463213695757411,0.7354215994626595,0.1732769505561146,-0.2066192373710613,-0.1327463155807621,-0.6296280576905231,-0.3401923089179795,-0.3630128867255975,-12.026036070898906,22.20450311160464,-14.953849325442151,-0.8013888985740978,3.0127317059283807,0.4775311958505643,7466.3994140625,11.592428571428572,7.691428571428571,178.07963877932866,12.841330595190888,38.23210487106882,1767.0,1435.0,1350.0,1528.0,1630.0,999.7000000000002,110.0,294.1,1649426375.4230812,1649426376.5444975,3d098dd4-9a62-4482-aca0-98e8eb4e3a57
0.5061897796945619,1.0518869236826216,0.2044009247664335,-0.4339025796766744,-0.1965817240424486,-0.710117325959272,-0.3738130255510848,-0.4013595494983128,-12.096490346333324,22.995004393368216,-12.08854822628502,-0.4623521206612739,4.204742592336198,0.6098877069493622,7472.90869140625,11.533,7.680000000000001,178.31609927790026,12.9334552516306,37.42022158811466,1886.0,1435.0,1350.0,1528.0,1710.0,999.7000000000002,110.0,294.1,1649426378.8886204,1649426380.039829,88cea31d-4144-4fc7-8dc0-645ad45cbdcd
0.4964597453611422,1.0473111776450563,0.1876363377455877,-0.4354409777784721,-0.2148452649512978,-0.7054363886209292,-0.3888288394640344,-0.4035816799900021,-11.803451919367294,23.112801124566296,-12.38701573854726,-0.448317125357527,4.187280640814517,0.6781630731440599,7472.90869140625,11.493333333333332,7.646666666666666,178.42028546567985,12.96965326209316,37.313173930527824,1886.0,1435.0,1350.0,1528.0,1710.0,999.7000000000002,110.0,294.1,1649426380.147584,1649426381.2526348,88cea31d-4144-4fc7-8dc0-645ad45cbdcd
0.5170243044105064,1.0430115542223597,0.1926591395135278,-0.4276700964156091,-0.206351206303805,-0.7048972916482258,-0.3829513710939138,-0.409958798831393,-11.950220464866172,22.999649996933453,-11.848239941827746,-0.4651228930280073,4.166777812278452,0.651630541107612,7472.90869140625,11.50611111111111,7.688888888888887,178.53716366275708,13.006710358571324,37.19698747983151,1886.0,1435.0,1350.0,1528.0,1710.0,999.7000000000002,110.0,294.1,1649426381.3643353,1649426382.4854918,88cea31d-4144-4fc7-8dc0-645ad45cbdcd
-0.249741908628556,-0.3571930702915587,0.1309391613227508,0.1894114117184886,0.062224075651537,0.064669733194131,-0.0936800194669029,-0.118228636884691,-11.598320577980196,24.1188940653504,-15.840566580055638,-0.1239006316861971,-1.1318172950524144,-0.2117667137360661,7472.90869140625,11.498333333333331,7.687777777777778,179.61254659117927,13.110710139104786,37.00455790416007,1497.5555555555557,1435.0,1350.0,1528.0,1422.0,999.7000000000002,110.0,294.1,1649426384.240636,1649426385.3501704,79c0fcd8-25c2-48e8-9e1a-02673ec25e61
-0.2520429307334562,-0.3553128063871053,0.1325564508854868,0.2004563161031842,0.0659583053470272,0.0499563421048184,-0.0948108074348278,-0.1169269159701006,-11.612914508517786,23.991674923660685,-16.22074740555639,-0.1827089543759815,-1.1225518310559943,-0.2176172615959372,7475.082356770833,11.643999999999998,7.756666666666667,179.7565588530993,13.129153547138593,36.85876068613697,1449.0,1435.0,1350.0,1528.0,1386.0,999.7000000000002,110.0,294.1,1649426385.4579842,1649426386.5854137,79c0fcd8-25c2-48e8-9e1a-02673ec25e61
-0.2470464255624068,-0.3562858100800604,0.134752283129264,0.2004694647984576,0.0696530889910367,0.0518366056674474,-0.0912212131605344,-0.1064342555603378,-11.673556404773576,23.87578763670472,-16.06336332573286,-0.1791777420235192,-1.1270312493834609,-0.230644156881989,7480.155490451389,11.652333333333331,7.73,179.80347769923782,13.144727232219866,36.72544487991217,1449.0,1435.0,1350.0,1528.0,1386.0,999.7000000000002,110.0,294.1,1649426386.6970394,1649426387.8082542,79c0fcd8-25c2-48e8-9e1a-02673ec25e61
-0.4439974931857302,-0.7176959086854978,0.1285324021055949,0.336172220343391,0.1303814374735185,0.2918364631404758,-0.0080085901988459,-0.0407981526430758,-11.101483718639278,25.615648384329774,-14.250800295697298,0.0658227522786064,-2.5197252590740216,-0.4636553765433608,7479.4296875,11.62622222222222,7.726666666666666,179.9850150204579,13.173807711248578,36.60760021106736,1342.0,1435.0,1350.0,1528.0,1293.0,999.7000000000002,110.0,294.1,1649426388.924133,1649426390.0581696,07b61bdc-6746-49df-9e57-901d7e66d270
-0.4378340405210167,-0.7156414240715915,0.1283954365417656,0.3381034349982656,0.1321345969547798,0.2853442947550237,-0.0086523284763312,-0.0400722351287352,-11.187053424486235,25.432729969115844,-14.634854789355366,0.0455539335939545,-2.5082597449481683,-0.4652009147725445,7484.510308159723,11.60688888888889,7.718888888888888,-179.9888793897083,13.203213857491468,36.62620147236198,1342.0,1435.0,1350.0,1528.0,1293.0,999.7000000000002,110.0,294.1,1649426390.1665936,1649426391.2893078,07b61bdc-6746-49df-9e57-901d7e66d270
-0.4377518610544617,-0.7120940139762378,0.1330385697717581,0.3307209903970128,0.1363120471930283,0.2890834550237646,-0.0020642836649509,-0.0243348886183582,-11.193502918056614,25.299960482775447,-14.53077135571776,0.0699737093502955,-2.494630606051258,-0.4860385384820905,7485.9619140625,11.611333333333333,7.734444444444445,-179.96958941767238,13.207098432718176,36.60573860506357,1342.0,1435.0,1350.0,1528.0,1293.0,999.7000000000002,110.0,294.1,1649426391.3977802,1649426392.5223,07b61bdc-6746-49df-9e57-901d7e66d270
-0.6150538609443422,-1.0494678250191258,0.1283954365070471,0.4366638629110451,0.1853046357323096,0.5459076044589989,0.0781016741086124,0.0565569869548112,-10.622421857750345,27.63218561250901,-10.888086921912242,0.4242082383584888,-3.8096131426934696,-0.695891837616092,7485.9619140625,11.546666666666669,7.69888888888889,-179.79913066328606,13.229379173836923,36.65494404675425,1227.0,1435.0,1350.0,1528.0,1189.0,999.7000000000002,110.0,294.1,1649426394.240433,1649426395.5900214,7d50a450-8beb-4fa4-bb11-e40082a49991
-0.6228493967861761,-1.0468161695041394,0.1278886638377746,0.418487983273944,0.1830474429465797,0.5547873564805604,0.0830516103815724,0.0593050650295179,-10.441063339274354,27.4094264276994,-11.616461760996197,0.483635810792793,-3.792293930223397,-0.6998218998992621,7480.155490451389,11.47588888888889,7.65888888888889,-179.77570766789236,13.246666287762489,36.833759158135095,1227.0,1435.0,1350.0,1528.0,1189.0,999.7000000000002,110.0,294.1,1649426395.6989503,1649426396.8241253,7d50a450-8beb-4fa4-bb11-e40082a49991
-0.6265178842598599,-1.0530092096440555,0.1166596774875401,0.4348318113946745,0.1733437054887218,0.5491860123927667,0.0662607253513019,0.0462747070687233,-10.63087824729839,27.743207792105405,-11.246986434491111,0.4357980676967952,-3.82017125553373,-0.6477467457433026,7485.9619140625,11.485333333333337,7.663333333333333,-179.7633207403776,13.235575009187777,36.932766924158926,1227.0,1435.0,1350.0,1528.0,1189.0,999.7000000000002,110.0,294.1,1649426396.9328244,1649426398.0477982,7d50a450-8beb-4fa4-bb11-e40082a49991
-0.0115795570184344,0.0768717232546881,0.1409190215190924,0.0405287268490732,-0.013788538103799,-0.2281911929490068,-0.1950564750347324,-0.2144113581936541,-11.781473624196371,22.557568158267028,-16.833171759855603,-0.4562590848069423,0.5252201728747585,0.0728292375082936,7485.9619140625,11.503666666666668,7.668888888888889,179.7413715480248,13.175171567216596,37.19397119240304,1553.0,1435.0,1350.0,1528.0,1471.0,999.7000000000002,110.0,294.1,1649426399.7782085,1649426400.9159582,4342cdc3-5c65-4673-b346-4740b56fb726
-0.0211649568109846,0.0812502390640053,0.1395384084609127,0.0322056020717252,-0.0168127383010132,-0.2329641702225659,-0.1959111403777247,-0.2251932905594428,-11.644390222288404,22.443906724630384,-17.998608771293632,-0.4491486655133003,0.5519365691625595,0.0790026876798603,7491.05126953125,11.652222222222225,7.728888888888889,179.6682703100679,13.162021935244503,37.14279637950168,1553.0,1435.0,1350.0,1528.0,1471.0,999.7000000000002,110.0,294.1,1649426401.0244296,1649426402.1450157,4342cdc3-5c65-4673-b346-4740b56fb726
-0.0136873941999019,0.0805280722184178,0.1447670379273387,0.0487562706844599,-0.0122840238045054,-0.2336119964530372,-0.1967703572201513,-0.214306168530892,-11.843232430294638,22.88966386606336,-16.01340934759381,-0.4845069820545546,0.531341873699171,0.0694662411715011,7492.50537109375,11.646777777777778,7.752222222222222,179.61130653239,13.14992718804423,37.077411358032094,1553.0,1435.0,1350.0,1528.0,1471.0,999.7000000000002,110.0,294.1,1649426402.2542274,1649426403.369495,4342cdc3-5c65-4673-b346-4740b56fb726
0.0027295119383039,0.0780605845306092,0.1263409527837034,-0.2655997862063279,-0.061616922175064,0.0616931970935858,-0.1269358135478107,-0.1502747512036697,-11.481583148786475,21.96314392327901,-15.321115079150935,0.8814263563956072,0.5509119736562863,0.0609014256937453,7487.416015625,11.654666666666666,7.747777777777778,179.538041369893,13.244682022944865,36.944129702753145,1553.0,1522.0,1350.0,1528.0,1471.0,999.7000000000002,110.0,294.1,1649426405.2526948,1649426406.3032792,d1e5a943-b24e-4dc8-ad51-da95d74f3c3e
-0.0033879190952097,0.0752675823213446,0.1263634151408294,-0.2606816253125611,-0.0602428833763627,0.0614614512982418,-0.1267095464102872,-0.1508900005870747,-11.496461511728334,21.949726151536154,-15.098221888293892,0.8697516381501172,0.5379619914716792,0.058691802956716,7485.9619140625,11.645333333333332,7.736666666666666,179.49221687184146,13.233730573520656,36.90972300426415,1553.0,1522.0,1350.0,1528.0,1471.0,999.7000000000002,110.0,294.1,1649426406.4117815,1649426407.6736882,d1e5a943-b24e-4dc8-ad51-da95d74f3c3e
-0.0041505435038864,0.0730586013682036,0.1268762142728908,-0.2599190008509942,-0.0597169355084242,0.0628683618061017,-0.1253815279960765,-0.1485626812616275,-11.433503249580726,21.9669760663043,-15.099531757486702,0.8713642285010309,0.5291818819667619,0.0551601269512373,7490.32421875,11.654333333333334,7.743333333333333,179.464076492461,13.230443260391374,36.88101571918259,1553.0,1522.0,1350.0,1528.0,1471.0,999.7000000000002,110.0,294.1,1649426407.782877,1649426408.910178,d1e5a943-b24e-4dc8-ad51-da95d74f3c3e
0.0136456692856183,0.0758828317324571,0.115246740552934,-0.5743887655068921,-0.1078291131466644,0.3638803563992181,-0.0552891118671048,-0.0731357288968836,-11.268426234679296,21.665648925343792,-12.85402342041698,2.2550095540705537,0.5566798066760256,0.0377368752419096,7492.50537109375,11.645444444444443,7.741111111111111,179.44111491429123,13.340411108439609,36.86413111209937,1553.0,1613.0,1350.0,1528.0,1471.0,999.7000000000002,110.0,294.1,1649426409.8142536,1649426410.950992,50763125-a598-4478-8ba4-aca3b5a65b62
0.0097558465880748,0.0689523731217637,0.1113295247925253,-0.5697593272752702,-0.1096370590970571,0.368934386151128,-0.0595076521299763,-0.0921191599005539,-11.470231437644552,21.77453831250168,-12.52663481075686,2.256401149065572,0.5283965969986338,0.0510232021915594,7491.05126953125,11.640222222222222,7.735555555555556,179.42554815426286,13.331533475202146,36.86117667582838,1553.0,1613.0,1350.0,1528.0,1471.0,999.7000000000002,110.0,294.1,1649426411.0591104,1649426412.1765633,50763125-a598-4478-8ba4-aca3b5a65b62
0.015072850725878,0.0697582786256288,0.1161731757065853,-0.5643902747597964,-0.1043173154040746,0.3652752138292915,-0.0543654159497497,-0.076691903264903,-11.356553681722309,21.700084646264266,-12.19319126922926,2.23592522767294,0.5273041013885281,0.0305785794217936,7485.9619140625,11.641666666666667,7.744444444444444,179.39547103679777,13.321125784726862,36.83982967848741,1553.0,1613.0,1350.0,1528.0,1471.0,999.7000000000002,110.0,294.1,1649426412.284442,1649426413.6138055,50763125-a598-4478-8ba4-aca3b5a65b62
0.0209185419930462,0.0686099591653611,0.1069603227537763,-0.9012572741838328,-0.1542056637128269,0.6935427952560246,0.0236715502936217,0.0034417325599687,-11.16253186419044,21.62805496442832,-9.521606511330797,3.7330630316285536,0.5388360487947481,0.0008190867663194,7472.90869140625,11.628888888888888,7.75,179.39665797189352,13.433958233085749,36.84915364561439,1553.0,1710.0,1350.0,1528.0,1471.0,999.7000000000002,110.0,294.1,1649426415.95716,1649426417.0954237,d14fce1b-7528-483c-befd-c882c1ad0c91
0.0215683067457982,0.0576220320345667,0.0990272761237191,-0.9050731375051418,-0.1612906201136119,0.7044589513923798,0.0190306083114095,-0.0039927594231714,-11.142665777773905,21.71995529268335,-10.04911636383619,3.76634086235823,0.5021278008525624,0.0257595527696701,7472.90869140625,11.620375,7.75125,179.38456569115044,13.432245539435431,36.82032849233778,1553.0,1710.0,1350.0,1528.0,1471.0,999.7000000000002,110.0,294.1,1649426417.2043855,1649426418.322131,d14fce1b-7528-483c-befd-c882c1ad0c91
0.0092874243174769,0.0590289425270018,0.1079552407101959,-0.9006025783039737,-0.1532962122094204,0.7065101478081098,0.025184198183265,0.0027262247288107,-11.307374937479416,21.9399956010172,-8.92072026156592,3.762865877608052,0.4985886909123301,-0.0044648750024,7479.4296875,11.61488888888889,7.76111111111111,179.38422399196452,13.425417176392386,36.85726639252856,1553.0,1710.0,1350.0,1528.0,1471.0,999.7000000000002,110.0,294.1,1649426418.4306347,1649426419.553189,d14fce1b-7528-483c-befd-c882c1ad0c91
0.050153572562214,0.0540324379618174,0.1081524711904356,-1.2013529118714177,-0.1883900854313665,0.992178697796774,0.1031428180244851,0.0757672327036298,-11.16017989382856,21.81663381537955,-8.075196472876991,5.082621236996947,0.508352309137634,-0.069826542459535,7485.9619140625,11.605666666666666,7.735555555555556,179.3514299770295,13.513446172235328,36.870944225796464,1553.0,1814.0,1350.0,1528.0,1471.0,999.7000000000002,110.0,294.1,1649426420.2602282,1649426421.606393,9e8832f8-52e3-460a-8e8f-02d1841fc1e0
0.0266700009592898,0.0565438389419743,0.1017096101295945,-1.2049293601660709,-0.1981990137536179,0.9864195692501964,0.0963449421379278,0.0798038823476613,-10.803301548270962,21.888129516172185,-9.065410507270624,5.077922237097885,0.5240550413574077,-0.0389092298263815,7485.9619140625,11.584,7.718888888888888,179.32596247834428,13.516524121093802,36.91566223320244,1553.0,1814.0,1350.0,1528.0,1471.0,999.7000000000002,110.0,294.1,1649426421.7152894,1649426422.828935,9e8832f8-52e3-460a-8e8f-02d1841fc1e0
0.0359135344609495,0.0547161701652385,0.1076922668240967,-1.2066518411278724,-0.1962793039272349,0.9975959603172552,0.1015781231630218,0.0750572031045995,-10.729030568882072,22.311063570850653,-7.919650680614671,5.110244179331473,0.5071181755525458,-0.0558717966387625,7483.058702256944,11.578,7.69888888888889,179.3021023508437,13.503433114912086,36.895896424654325,1553.0,1814.0,1350.0,1528.0,1471.0,999.7000000000002,110.0,294.1,1649426422.9370096,1649426424.0627997,9e8832f8-52e3-460a-8e8f-02d1841fc1e0
-0.0397309164560414,0.0734793596426943,0.1538573382762865,0.4184748346616586,0.0363211440249084,-0.5894911434519665,-0.2906212106626741,-0.3126058342957403,-12.26983241685911,23.84132324708522,-19.521730968360508,-2.112222126930419,0.4940905992269815,0.1212485270145059,7485.9619140625,11.607333333333331,7.734444444444445,179.28073751911992,12.96122888779812,36.90848598111447,1553.0,1349.0,1350.0,1528.0,1471.0,999.7000000000002,110.0,294.1,1649426425.7702506,1649426426.9284046,ca9f205c-8c3c-4032-8d49-9f4486b90784
-0.0409931913477492,0.0756883405953651,0.1480982094933396,0.4131364644233566,0.0306146098135849,-0.5863091579670894,-0.2963540430475095,-0.3105151916934803,-12.395599203787096,23.807111594813083,-19.50368878888105,-2.0936037164406427,0.5033974492440522,0.1452057070462251,7488.8701171875,11.634333333333334,7.727777777777779,179.26712115755453,12.962446274153931,36.9388575556238,1553.0,1349.0,1350.0,1528.0,1471.0,999.7000000000002,110.0,294.1,1649426427.0368931,1649426428.1558468,ca9f205c-8c3c-4032-8d49-9f4486b90784
-0.0391129277076561,0.0719146647980932,0.1480587633952102,0.4104278332204661,0.0296547549711579,-0.5818123024342525,-0.2941976565596609,-0.318049395262705,-12.227732752685572,23.85175012110044,-19.737775040325555,-2.0770475382275646,0.4904622005392492,0.1427851483791732,7492.50537109375,11.634444444444446,7.7444444444444445,179.280613057895,12.966269377678111,37.00275283694441,1553.0,1349.0,1350.0,1528.0,1471.0,999.7000000000002,110.0,294.1,1649426428.2644644,1649426429.413724,ca9f205c-8c3c-4032-8d49-9f4486b90784
-0.0565081055958884,0.0751569141319224,0.1693755386589925,0.7097595190541028,0.0763759077727542,-0.8711933118709924,-0.3608319727119866,-0.3846092033301571,-12.420512712556445,25.052516844403254,-21.42689530729785,-3.3938890870610585,0.4834752829789713,0.1449720991789448,7492.50537109375,11.613555555555555,7.728888888888889,179.2538417519882,12.854113782093224,37.07656631184979,1553.0,1264.0,1350.0,1528.0,1471.0,999.7000000000002,110.0,294.1,1649426431.3164184,1649426432.666319,ffc98d09-1cfc-4914-9344-871a2acac24a
-0.0517280064705693,0.0773483634824431,0.1644721708767075,0.7127179754277545,0.0744720861697614,-0.8786716368646488,-0.3681733293713295,-0.3922655812583319,-12.72744601154124,24.900718676116465,-21.840903301318143,-3.4188383756478964,0.4968586202053557,0.164256369496266,7492.50537109375,11.612111111111112,7.69888888888889,179.2363109331185,12.86055882448504,37.128582755838885,1553.0,1264.0,1350.0,1528.0,1471.0,999.7000000000002,110.0,294.1,1649426432.7795126,1649426433.8949091,ffc98d09-1cfc-4914-9344-871a2acac24a
-0.0471396591750609,0.0851554018158811,0.1715532914123846,0.7127316719833701,0.079074129817748,-0.8855473128594573,-0.3623385943780794,-0.3775280810862511,-12.533002105500753,24.87893017419985,-21.68024554390078,-3.4339881919361583,0.523786478202864,0.1413447413579985,7492.50537109375,11.599222222222224,7.720000000000001,179.23280173370495,12.857411055915048,37.16921327448157,1553.0,1264.0,1350.0,1528.0,1471.0,999.7000000000002,110.0,294.1,1649426434.0038593,1649426435.1174328,ffc98d09-1cfc-4914-9344-871a2acac24a
-0.04343884889144,0.0831830973936174,0.1786557785625791,0.8519478634798651,0.0948065446652849,-1.019979663232102,-0.3988875940116769,-0.4286168029343962,-12.546596857963896,25.8254939690683,-22.965441963234007,-4.043696421571614,0.5112018411874046,0.1610445004764645,7492.50537109375,11.603777777777776,7.71,179.2628469769539,12.796276309383988,37.31117723856046,1553.0,1178.0,1350.0,1528.0,1471.0,999.7000000000002,110.0,294.1,1649426436.7421875,1649426437.996956,2106bc87-1836-4f3f-9bde-daed9d55ed29
-0.0487246249966685,0.0908882333078444,0.1836259855645156,0.8377604214893105,0.0970681204009949,-1.020058555370435,-0.3909983746820934,-0.4182424790962886,-12.31478017535442,25.61082744656004,-23.709308245184857,-4.01304776271297,0.547111133940233,0.1399656316956817,7492.50537109375,11.583666666666666,7.708888888888889,179.27513372836086,12.816016030404016,37.36965466204944,1553.0,1178.0,1350.0,1528.0,1471.0,999.7000000000002,110.0,294.1,1649426438.109359,1649426439.222306,2106bc87-1836-4f3f-9bde-daed9d55ed29
-0.0446090829049649,0.0824204730173176,0.1830868889931665,0.8412711230495934,0.097672960375623,-1.0050164371076606,-0.3911824565333457,-0.4157047799804064,-12.56941120275533,25.87971055242825,-22.29637162309641,-3.985312726434065,0.5041694204066617,0.1408493396890401,7488.8701171875,11.581444444444443,7.7155555555555555,179.29070048838923,12.792936062288636,37.44778253978053,1553.0,1178.0,1350.0,1528.0,1471.0,999.7000000000002,110.0,294.1,1649426439.339309,1649426440.4456728,2106bc87-1836-4f3f-9bde-daed9d55ed29
-0.0526560853263149,0.0858785801028323,0.1788661576842334,0.908303170790979,0.0965027264550813,-1.079201430853637,-0.4212140848880705,-0.4443032011379106,-12.708400021349624,26.45633825281352,-23.7230729436201,-4.29990920690182,0.5222570985292823,0.1896152830396197,7488.14306640625,11.557666666666668,7.71,179.26850085576686,12.763105495679818,37.60080837467521,1553.0,1088.0,1350.0,1528.0,1471.0,999.7000000000002,110.0,294.1,1649426442.3758018,1649426443.7292657,c896cf54-4245-4d7e-9912-05db43cf2f52
-0.0450824359787994,0.0908093411379491,0.1789319011384584,0.9185460043390684,0.0949774776809265,-1.088379227474578,-0.426591902756164,-0.4490761784142544,-12.71305462874641,26.68072975914364,-23.02367780826004,-4.342038327714903,0.5333315342868858,0.2008374965923711,7485.9619140625,11.555333333333332,7.676666666666667,179.27793258810075,12.79144167381648,37.65717413134579,1553.0,1088.0,1350.0,1528.0,1471.0,999.7000000000002,110.0,294.1,1649426443.8422616,1649426444.9484797,c896cf54-4245-4d7e-9912-05db43cf2f52
