raw_voltage_G-,raw_voltage_G0,raw_voltage_G1,raw_voltage_G2,raw_voltage_G3,raw_voltage_G4,raw_voltage_G5,raw_voltage_G6,load_x,load_y,load_z,load_l,load_m,load_n,rpm,voltage,current,roll,pitch,yaw,aileron1_pwm,elevator_pwm,throttle_pwm,rudder_pwm,aileron2_pwm,pbaro,pdiff,Tt,sample_start_time,sample_end_time,uid
-0.0323282002234458,0.1136486261736067,0.0515341856582059,0.0549265492980015,-0.1354139838708481,-0.1475896774678408,-0.3370624128984624,-0.3551287246885109,-14.104644251450216,27.435184482346425,0.6846207782482904,-0.2781081250270067,0.5169825153936859,0.5881720989090631,4590.746256510417,11.939444444444446,0.13,178.99622826597272,5.806229170599896,79.19448538425718,1553.0,1435.0,1200.0,1528.0,1471.0,999.0,107.0,293.85,1649415508.360821,1649415509.602953,28e9fbfe-7319-4baf-96c4-62c8e09b7c60
-0.0140793265145497,0.1126033048400893,0.0497803518574743,0.0545467542645844,-0.137032285073642,-0.1462743020268876,-0.3387636521964073,-0.3615842299009617,-14.131278931645618,27.45769199476939,0.6628740912984062,-0.2742505741966284,0.513379137799041,0.5950008048244226,4600.598795572917,11.942555555555554,0.13,178.9812868477084,5.836210285961666,78.55910779562663,1553.0,1435.0,1200.0,1528.0,1471.0,999.0,107.0,293.85,1649415509.7124577,1649415510.8256476,28e9fbfe-7319-4baf-96c4-62c8e09b7c60
-0.0280943199178832,0.1137143696519037,0.0579244520372627,0.0540324379487826,-0.1287870404986923,-0.1480893279710246,-0.3287787328986447,-0.3561543236899305,-13.998311365063394,27.311871164273047,0.5631914005130588,-0.2776791078366006,0.5180658226349303,0.5585949517820479,4600.873046875,11.940333333333331,0.1233333333333333,178.96261311051754,5.849503636497542,78.07962168570258,1553.0,1435.0,1200.0,1528.0,1471.0,999.0,107.0,293.85,1649415510.933501,1649415512.0512574,28e9fbfe-7319-4baf-96c4-62c8e09b7c60
0.163921147834426,0.4732062781378069,0.0691493928310972,-0.1237318721919581,-0.2005632506602183,-0.3244897286470188,-0.3954547720852781,-0.4232819705348716,-13.841130159935378,26.433188368253973,2.085218619836125,-0.2780258566949241,1.874360160877426,0.780545525300482,4582.028591579861,11.929666666666668,0.1244444444444444,178.70452151126017,5.888233370412454,77.08464753873932,1658.0,1435.0,1200.0,1528.0,1551.0,999.0,107.0,293.85,1649415513.993162,1649415515.1246023,f9f3cb41-0de2-4e3d-889d-264c489c9bea
0.1582697372162114,0.4813862836339443,0.0615762495487629,-0.1226066471681664,-0.2119040023109099,-0.3313675093638406,-0.4071748142641374,-0.4295655315091516,-13.686104972139296,26.63075535491169,2.316551485750681,-0.2949718652967957,1.9012773417866748,0.8243551596697993,4562.777072482639,11.932777777777778,0.12,178.73310812966642,5.905901125088637,76.83831904305254,1658.0,1435.0,1200.0,1528.0,1551.0,999.0,107.0,293.85,1649415515.2332337,1649415516.3523104,f9f3cb41-0de2-4e3d-889d-264c489c9bea
0.1864635753131523,0.4704627523361265,0.073043429785738,-0.1224296454701374,-0.1964037107471967,-0.3185854573854797,-0.3911435160063677,-0.4225613211573812,-13.92250650588222,26.52401143204119,2.7434152864887973,-0.266835743575495,1.858900721888888,0.7639473661107326,4543.9619140625,11.931,0.12,178.74553148485677,5.9136907661095615,76.5977438433766,1658.0,1435.0,1200.0,1528.0,1551.0,999.0,107.0,293.85,1649415516.4624586,1649415517.5941632,f9f3cb41-0de2-4e3d-889d-264c489c9bea
0.3957933354810997,0.8571481723105764,0.0846370397351469,-0.3076239945156145,-0.2781532105567095,-0.5184836114790538,-0.4698460659645541,-0.4967376851691693,-13.66616556424277,26.05753141378333,3.690179032211272,-0.3005156209946797,3.3225291383132696,1.018416653978701,4542.3564453125,11.912,0.12,178.4024374224687,5.939817235754113,76.14031241428252,1767.0,1435.0,1200.0,1528.0,1630.0,999.0,107.0,293.85,1649415519.3615234,1649415520.3537824,8ec1760d-5e60-44cb-85e2-856f7f921310
0.3919670651638135,0.8632820385752622,0.0998424953273326,-0.3113830050369628,-0.2633113648442413,-0.5232611409889294,-0.4540463865383574,-0.4741375993436048,-13.65533663486794,25.86243128783912,3.495110233706196,-0.3033338171572793,3.34861056219108,0.9555011942091944,4542.3564453125,11.905111111111111,0.12,178.42364440093166,5.952097394131234,76.06209308790753,1767.0,1435.0,1200.0,1528.0,1630.0,999.0,107.0,293.85,1649415520.4628236,1649415521.5844622,8ec1760d-5e60-44cb-85e2-856f7f921310
0.376898660426917,0.8511720903902743,0.094924882989434,-0.3093055107642724,-0.2663224166786878,-0.5131760882914256,-0.4574518996590846,-0.4836441094930086,-13.792435205597032,26.02990616724783,3.480620272673146,-0.2845636500235834,3.303724973703224,0.9695221903995542,4542.3564453125,11.91,0.12,178.42593327321353,5.947409417903406,75.92920492741577,1767.0,1435.0,1200.0,1528.0,1630.0,999.0,107.0,293.85,1649415521.6918097,1649415522.9150302,8ec1760d-5e60-44cb-85e2-856f7f921310
0.4846481714308371,1.033087829301094,0.1235900517308528,-0.398931591588576,-0.2891146732745123,-0.6163655702440229,-0.4777605716192686,-0.493741299265281,-13.547982467339152,26.460669702216087,2.4442815634670128,-0.3100289437841418,4.0063338791226695,1.0101659764083324,4542.3564453125,11.844333333333331,0.11,178.32544753014432,5.962999609275176,75.80547605060099,1886.0,1435.0,1200.0,1528.0,1710.0,999.0,107.0,293.85,1649415524.0189142,1649415525.1575558,1669bb25-0df4-466d-abb1-a216fe861818
0.4959995410138934,1.031914055402673,0.1206174350081416,-0.4062903116310739,-0.2911340098896036,-0.6121989493008237,-0.4796206068856908,-0.5108224714935811,-13.726364673892482,26.38555296953882,1.89339586620908,-0.2848901024577324,4.008792838760631,1.018539241507609,4537.013671875,11.839222222222222,0.1,178.36115272348553,5.969810920561232,75.74794992068139,1886.0,1435.0,1200.0,1528.0,1710.0,999.0,107.0,293.85,1649415525.2667968,1649415526.3861248,1669bb25-0df4-466d-abb1-a216fe861818
0.4953441291289528,1.0474249645302245,0.1223004681030839,-0.4022061233391995,-0.2919972724674377,-0.6253041580899319,-0.4848532835493453,-0.5122126931673543,-13.84103096893885,26.46945123530563,2.710983161037212,-0.3228396009951997,4.060138770011039,1.0278222382425632,4529.288465711806,11.84477777777778,0.1044444444444444,178.36422630861202,5.975336875622856,75.70452206011866,1886.0,1435.0,1200.0,1528.0,1710.0,999.0,107.0,293.85,1649415526.4953735,1649415527.616151,1669bb25-0df4-466d-abb1-a216fe861818
-0.2663092680244805,-0.3291600451375344,0.0451965140270131,0.256049001199572,-0.0437675663507893,0.1055753267966583,-0.2379606754297747,-0.2588671053200808,-14.000234237129748,28.587799558155258,1.6652488329811836,-0.1553614075291994,-1.1783942031991357,0.2800521676966235,4530.619574652777,11.958888888888888,0.14,179.3270082561972,5.964303131905525,75.6436514142355,1449.0,1435.0,1200.0,1528.0,1386.0,999.0,107.0,293.85,1649415528.5249093,1649415529.662995,4149f7ce-acbd-497d-8c86-582c263cb13f
-0.2599584468594084,-0.332486665841459,0.027564112260981,0.2621762933246703,-0.0597695302647332,0.1056279215927434,-0.2556456740074789,-0.2792738849688992,-13.951846370169902,28.58622119881093,1.875110473545,-0.1698955184844192,-1.1949457570866429,0.3510436764882499,4539.9501953125,11.955,0.14,179.34492156566043,5.975053754795386,75.53308810650088,1449.0,1435.0,1200.0,1528.0,1386.0,999.0,107.0,293.85,1649415529.7721786,1649415530.8935988,4149f7ce-acbd-497d-8c86-582c263cb13f
-0.2621148333382112,-0.327739985717385,0.042461585226883,0.2614794124554605,-0.0458976551825409,0.0985276257268237,-0.2418526899288395,-0.2620359416382783,-13.932385092891527,28.53072305771297,1.546910673839362,-0.1839474686608443,-1.1733424561697132,0.2923462440032784,4547.445041232639,11.957333333333333,0.1344444444444444,179.34969055552088,5.98175222566453,75.44933329125855,1449.0,1435.0,1200.0,1528.0,1386.0,999.0,107.0,293.85,1649415531.001943,1649415532.12309,4149f7ce-acbd-497d-8c86-582c263cb13f
-0.4782283618241647,-0.7347670956118775,0.0397797568630435,0.4722327689800796,0.0386166029736796,0.3050041230240085,-0.1613447320551556,-0.1925981744930114,-13.90496211299882,30.291274375306447,2.070998839077661,-0.1837404305399832,-2.73086906694586,0.0188975960286065,4578.758409288194,11.911666666666669,0.1133333333333333,179.46425863083888,5.979709999102695,75.34704210151871,1353.888888888889,1435.0,1200.0,1528.0,1303.3333333333333,999.0,107.0,293.85,1649415533.0289462,1649415534.170129,676623a2-5b6c-4a2c-abf1-8ef2a41518c5
-0.5054486985478341,-0.7362842535158649,0.0347604949502827,0.4720684102885879,0.0336984848682469,0.3051305527810629,-0.1665536390126815,-0.1813206379198261,-13.907892813473936,30.323496734126625,1.8165333744690315,-0.1831639313849805,-2.734580679637716,0.0392952381645267,4599.229275173611,11.906222222222222,0.1177777777777777,179.48362904732505,5.9726918848667685,75.23740086932204,1342.0,1435.0,1200.0,1528.0,1293.0,999.0,107.0,293.85,1649415534.279443,1649415535.397617,676623a2-5b6c-4a2c-abf1-8ef2a41518c5
-0.5063589931641603,-0.7396346438510683,0.0242668237933581,0.4727258450442221,0.0234450302948237,0.3080384373467103,-0.1787793989913726,-0.1946716230717741,-14.064170054603048,30.49944933267465,1.76057601288127,-0.1775562278758957,-2.7462878428805864,0.0843116613985483,4605.8173828125,11.906333333333334,0.1133333333333333,179.50806746417533,5.981067167177151,75.20976061157081,1342.0,1435.0,1200.0,1528.0,1293.0,999.0,107.0,293.85,1649415535.5061147,1649415536.828894,676623a2-5b6c-4a2c-abf1-8ef2a41518c5
-0.6645226870842108,-1.0624479570662495,0.0326870466648909,0.6430393743327628,0.0960789339331076,0.4849642458446193,-0.1030226743670161,-0.1252111006645329,-13.663697178298628,32.267054502109104,4.541182595534198,-0.1513841359596789,-4.004918397029611,-0.1680481824534113,4607.743218315973,11.805555555555555,0.09,179.61992015984328,5.9917625319393535,75.11566109537554,1227.0,1435.0,1200.0,1528.0,1189.0,999.0,107.0,293.85,1649415538.9693058,1649415540.1092167,ad21c05d-17bb-4860-89ba-fdd7d7611c61
-0.6598068548299028,-1.071057830476423,0.0440025112814038,0.6509918061910607,0.1098471358562354,0.4866078327251609,-0.090278552692184,-0.1205331991585724,-13.703599473555697,32.27574219717011,4.709213213177266,-0.1650017890732284,-4.03867911668411,-0.2211366546472407,4612.428059895833,11.808444444444444,0.0911111111111111,179.63013508720198,5.98610234468779,75.10530728750372,1227.0,1435.0,1200.0,1528.0,1189.0,999.0,107.0,293.85,1649415540.2184036,1649415541.337991,ad21c05d-17bb-4860-89ba-fdd7d7611c61
-0.6623101652024579,-1.0746357954863606,0.0399567585767885,0.6567570032136809,0.1086207670884265,0.484142452405203,-0.0942610907093303,-0.116651804625276,-13.796796385582914,32.18017453969754,4.585869542984604,-0.1844482555051072,-4.051313763250629,-0.2088635060281798,4625.7021484375,11.813333333333333,0.09,179.63851041694423,5.990753656080698,75.11536739724124,1227.0,1435.0,1200.0,1528.0,1189.0,999.0,107.0,293.85,1649415541.447066,1649415542.571694,ad21c05d-17bb-4860-89ba-fdd7d7611c61
-0.0120185211828111,0.118912150317699,0.0570121347867779,0.0498688527055666,-0.1310142275261986,-0.1452122918916238,-0.3263356036270421,-0.3570833296986474,-13.693569205270173,27.122366484493952,1.157339043213072,-0.2628755621082917,0.5305894312329662,0.5611148622610125,4638.2177734375,11.9615,0.13,179.13833566402425,5.995389042223512,75.1155842557474,1553.0,1435.0,1200.0,1528.0,1471.0,999.0,107.0,293.85,1649415543.475015,1649415544.6117945,5bb7275f-d40c-4088-ad8c-7ffb0c6d9ade
-0.0035982982153159,0.1256508569972164,0.0666334403763923,0.0449254486319028,-0.1231755811664635,-0.1476903155957251,-0.3185348854957545,-0.3405336693274566,-13.795716987610293,27.142876596745,1.163958760773113,-0.256728226367679,0.5577469110413821,0.5269184078181749,4650.520616319444,11.96488888888889,0.13,179.18202914305465,6.003133658542563,75.16172465004803,1553.0,1435.0,1200.0,1528.0,1471.0,999.0,107.0,293.85,1649415544.7202828,1649415545.842913,5bb7275f-d40c-4088-ad8c-7ffb0c6d9ade
-0.035812604834517,0.1190001454384713,0.054926549250944,0.0478919968066458,-0.1331655566918576,-0.142146116825453,-0.3287392868600756,-0.3487121598708145,-13.792865224214356,27.16772273886859,1.3292934604772555,-0.2513519034607353,0.5302101790709641,0.5704580513453792,4648.279296875,11.964000000000002,0.1255555555555555,179.18151915559667,6.014775146800418,75.22080958091817,1553.0,1435.0,1200.0,1528.0,1471.0,999.0,107.0,293.85,1649415545.9549873,1649415547.0704243,5bb7275f-d40c-4088-ad8c-7ffb0c6d9ade
-0.0130653597343678,0.1117289165572399,0.0274326253375973,-0.2625355916448751,-0.1910198248436101,0.166151368926753,-0.2689653049477696,-0.288070363768925,-13.666783711866689,26.52153814626992,3.6369501195872713,1.1364609663816518,0.5180599266791317,0.6016359334703085,4616.296223958333,11.960777777777777,0.13,179.1729799013143,6.11245311293834,75.2903697452454,1553.0,1522.0,1200.0,1528.0,1471.0,999.0,107.0,293.85,1649415549.0044756,1649415550.1482255,ceadfc5f-ce4f-4876-b306-7aa13e455a1f
-0.0161158573355803,0.1059566390015257,0.0226727972343294,-0.2585778335858795,-0.1946620140659644,0.1682157141613319,-0.2725417508134913,-0.2967748018438744,-13.59672449469772,26.54568570077111,3.6117371265847735,1.1321264095579593,0.4953493536115007,0.6175167719796222,4598.679036458333,11.961444444444446,0.13,179.17154859722825,6.102185820795994,75.29336592156132,1553.0,1522.0,1200.0,1528.0,1471.0,999.0,107.0,293.85,1649415550.2567322,1649415551.3737376,ceadfc5f-ce4f-4876-b306-7aa13e455a1f
0.0002805672322897,0.1088756495238567,0.0469058445728805,-0.2639687997263401,-0.1707971282135344,0.1698724498334852,-0.2460208271254033,-0.2734227136118858,-13.615049361517135,26.39146622973747,3.7454227462102017,1.1482064050976923,0.5074396382832325,0.5147644426218985,4587.193901909723,11.961777777777778,0.13,179.15615942211832,6.110920446947711,75.29622701191364,1553.0,1522.0,1200.0,1528.0,1471.0,999.0,107.0,293.85,1649415551.482692,1649415552.8015718,ceadfc5f-ce4f-4876-b306-7aa13e455a1f
-0.0018662103156361,0.1069266081962857,0.0237990336110156,-0.5502680649695403,-0.2272020063647815,0.4497535575426445,-0.1945325500157614,-0.2131683003094082,-13.464052063174684,26.26074693396368,5.892056851281878,2.4213586982877056,0.5138177645990161,0.5502194676810421,4585.28515625,11.952333333333334,0.1233333333333333,179.1376845193233,6.20149928521705,75.2811520255055,1553.0,1613.0,1200.0,1528.0,1471.0,999.0,107.0,293.85,1649415554.0372837,1649415555.1611316,6687b895-054a-43f9-9b8b-ebeb54be0896
0.0073252342263082,0.0999982568168494,0.0155052405493513,-0.5486624063916902,-0.2334729236875488,0.4557969001083784,-0.2009172540486422,-0.2311719019970969,-13.505271480269233,26.25298515555973,5.940075060488069,2.430839399875792,0.4869747864205532,0.5783743274383674,4583.650390625,11.951,0.1277777777777777,179.1337381878029,6.208412337862619,75.24133961174341,1553.0,1613.0,1200.0,1528.0,1471.0,999.0,107.0,293.85,1649415555.2698145,1649415556.390404,6687b895-054a-43f9-9b8b-ebeb54be0896
0.0082228856207339,0.1016544867957044,0.021852015101599,-0.5458935936228917,-0.2274801518991278,0.4514350733617177,-0.1969600018741302,-0.2179599890987216,-13.599987158786378,26.33224380184891,5.952370061380882,2.4155877541083024,0.4938108555492842,0.5560695754090135,4590.196451822917,11.950333333333331,0.1266666666666666,179.1363366953271,6.213168521118409,75.20634096352637,1553.0,1613.0,1200.0,1528.0,1471.0,999.0,107.0,293.85,1649415556.499286,1649415557.6213064,6687b895-054a-43f9-9b8b-ebeb54be0896
0.0250132652030637,0.1086389729926981,0.0224229720007987,-0.8593813936254888,-0.266611688029873,0.7475340761431193,-0.117558053198124,-0.1353613891336991,-13.35637799014509,26.23494335116028,8.287370458311003,3.787991673618176,0.5362192734349276,0.4971384497379308,4591.015625,11.933666666666666,0.12,179.13439540378306,6.324820390252007,75.13472946571841,1553.0,1710.0,1200.0,1528.0,1471.0,999.0,107.0,293.85,1649415559.3771346,1649415560.4850092,6c088f82-5ffd-4350-aeae-2c1e7abd548c
0.0223309311605343,0.0906910028760245,0.0033836595692412,-0.8531752057947068,-0.2797998321375208,0.7601305259444344,-0.1317980921770281,-0.15492665056041,-13.459587871586066,26.16312904287832,8.263803395508342,3.8008181326797934,0.4678705183083281,0.5591354064543658,4591.015625,11.940666666666669,0.12,179.12294497109443,6.322376273462136,75.11117593782059,1553.0,1710.0,1200.0,1528.0,1471.0,999.0,107.0,293.85,1649415560.5927198,1649415561.6684809,6c088f82-5ffd-4350-aeae-2c1e7abd548c
-0.0017018516080209,0.0947767073226535,0.0032541954948173,-0.85357320693866,-0.2822368927189725,0.7554227874181495,-0.1342761158496932,-0.154783026380327,-13.381895396704945,26.281878355838444,8.099774258813996,3.7919307270101497,0.4841411009709245,0.5664245501704679,4593.47607421875,11.94077777777778,0.12,179.11584309217744,6.31734213945262,75.05984175383857,1553.0,1710.0,1200.0,1528.0,1471.0,999.0,107.0,293.85,1649415561.7851515,1649415562.7433462,6c088f82-5ffd-4350-aeae-2c1e7abd548c
0.0033836595989283,0.0977124065809511,0.0154804602565596,-0.9400223922080034,-0.2878336867068054,0.8349466007177678,-0.1076702330869872,-0.1187940311146914,-13.348261332747922,26.98592803205065,8.637546409919448,4.171018206732921,0.5015782087097582,0.5195910047976945,4595.93896484375,11.883777777777778,0.1,179.11714993503867,6.355680560446333,74.98175599560737,1553.0,1814.0,1200.0,1528.0,1471.0,999.0,107.0,293.85,1649415564.3824818,1649415565.6125553,3a3f319b-28ba-481d-9e9c-d1fa43d2fba0
0.0023186151987574,0.1036015052543242,0.0097653288217664,-0.9283311714479586,-0.2929707818844976,0.8192318872137714,-0.1182321768041609,-0.1317348776239785,-13.341410312657748,26.969285353400007,8.691766892617263,4.108949807527481,0.5213348340499929,0.5503194107987315,4595.93896484375,11.883555555555557,0.1022222222222222,179.11454687405495,6.334496491576193,74.95995782632622,1553.0,1814.0,1200.0,1528.0,1471.0,999.0,107.0,293.85,1649415565.7267866,1649415566.843113,3a3f319b-28ba-481d-9e9c-d1fa43d2fba0
0.0293654837072297,0.0961345630547339,0.0149545124224756,-0.9363013092417116,-0.287938876271033,0.8331320808185977,-0.1068418651551492,-0.1367420024960875,-13.162530541842202,26.915410353503944,8.64794280690906,4.158148377233015,0.4937609531006577,0.5192869806933917,4592.109157986111,11.875777777777778,0.0944444444444444,179.10040382901357,6.3293702923084885,74.92139609609214,1553.0,1814.0,1200.0,1528.0,1471.0,999.0,107.0,293.85,1649415566.9559083,1649415568.2726288,3a3f319b-28ba-481d-9e9c-d1fa43d2fba0
-0.0337614081511558,0.1206305837476951,0.0752938796809166,0.3403189901705146,-0.0883416484910608,-0.426105400776107,-0.3959817314915118,-0.4123255642808784,-14.07352660252191,28.464747225086235,-0.7239183187403347,-1.5399462638877923,0.5218184853181227,0.5765191082517244,4586.921061197917,11.962666666666664,0.13,179.1057602151427,6.096270544951679,74.86996553055184,1553.0,1349.0,1200.0,1528.0,1471.0,999.0,107.0,293.85,1649415570.6128998,1649415571.754493,0345b457-a9b5-4883-b95a-6546a49ad80b
-0.0310659253715221,0.1267447273710475,0.0842481417513973,0.338517618912436,-0.0808731886513706,-0.4299185235036065,-0.3878163895208654,-0.4106819769148409,-14.026423950212566,28.42388354908708,-0.5840848153000627,-1.5442304348037832,0.543966266272205,0.5434863954200193,4597.035427517361,11.965111111111112,0.13,179.121985708971,5.880267567429188,75.03711771446994,1553.0,1349.0,1200.0,1528.0,1471.0,999.0,107.0,293.85,1649415571.8670485,1649415572.9864757,0345b457-a9b5-4883-b95a-6546a49ad80b
-0.0579125296698379,0.1111240765419188,0.0663805808133904,0.3440329908754495,-0.0934645831295585,-0.4184523522149825,-0.4021049794606795,-0.4255703499474135,-14.1876640054765,28.38921920241921,-0.5304481580620971,-1.5320978383372057,0.4842328092091102,0.6034710663697388,4598.40478515625,11.96322222222222,0.1211111111111111,179.12277952873455,5.866813138265385,75.17748493210287,1553.0,1349.0,1200.0,1528.0,1471.0,999.0,107.0,293.85,1649415573.0949953,1649415574.4193146,0345b457-a9b5-4883-b95a-6546a49ad80b
-0.0305136800700587,0.131149540513849,0.0998556440242999,0.635625533249167,-0.0389156972455117,-0.7200445955205674,-0.4604103569797852,-0.4831444582692739,-14.331960551067857,29.5436996746236,-2.551472918246956,-2.8586519863622817,0.5445144979599098,0.5681123364713367,4609.670952690973,11.944666666666668,0.12,179.1368239154879,5.777083188159767,75.46894959455483,1553.0,1264.0,1200.0,1528.0,1471.0,999.0,107.0,293.85,1649415575.5266888,1649415576.66451,71eaec10-9f93-4098-9d93-8ec2e1445b50
-0.0494796635878926,0.1257393578494676,0.1024383513452221,0.626375932059279,-0.0355218163625388,-0.7068134617423899,-0.4521838227103617,-0.4807822439014811,-14.297920841172983,29.4133325870892,-2.5919352084204355,-2.808779960786125,0.5256410579795945,0.5475409090331183,4613.25439453125,11.932,0.12,179.1216836628277,5.769479148043165,75.6143946783807,1553.0,1264.0,1200.0,1528.0,1471.0,999.0,107.0,293.85,1649415576.7724855,1649415577.8181908,71eaec10-9f93-4098-9d93-8ec2e1445b50
-0.0430191020588504,0.1201385190869406,0.0963823653789858,0.6221784640497444,-0.0388595624337405,-0.6951313462918077,-0.454510131056663,-0.4817178246023348,-14.456442382497642,29.285834278140904,-2.2909127359342096,-2.774238788450908,0.5032192479089258,0.5633057122957686,4613.25439453125,11.9385,0.1112499999999999,179.13074049366716,5.760602997051617,75.73630928619721,1553.0,1264.0,1200.0,1528.0,1471.0,999.0,107.0,293.85,1649415577.9270914,1649415578.87071,71eaec10-9f93-4098-9d93-8ec2e1445b50
-0.035181467378679,0.1393148806770093,0.1300844961126892,0.8673975801534839,0.0064473058626474,-0.9526451475411004,-0.5041034854599965,-0.5358575961241321,-14.508123924898133,30.831937132911893,-4.205468199915554,-3.89446469322268,0.5644477434445961,0.5273662181631732,4605.8173828125,11.910625,0.10375,179.14489435317472,5.662706696090616,76.06794826757353,1553.0,1178.0,1200.0,1528.0,1471.0,999.0,107.0,293.85,1649415581.058984,1649415581.988268,595e13a7-dabc-4873-9ac9-dfd89fa5c354
-0.0453580528892758,0.1257772867738552,0.1318964875592696,0.8743299768107153,0.0122180664443409,-0.9446406212265476,-0.4977491234879645,-0.5243499545363298,-14.479450912580372,30.751011606894306,-4.013582029023905,-3.8925164612073946,0.5110298844380955,0.5067356695589026,4604.717990451389,11.904111111111112,0.1,179.13868172694214,5.663488272502907,76.19870446040687,1553.0,1178.0,1200.0,1528.0,1471.0,999.0,107.0,293.85,1649415582.096123,1649415583.2310362,595e13a7-dabc-4873-9ac9-dfd89fa5c354
-0.0733784314119795,0.1336477927389531,0.1122154182726774,0.8642813394141706,-0.0096861447354661,-0.9441905309052978,-0.5188826239902832,-0.5425371350769856,-14.491335870607324,30.757390846406373,-4.325696129429504,-3.869831216604664,0.5433890809288138,0.5939001482775791,4607.192979600694,11.910555555555554,0.11,179.136090808517,5.6462184237777455,76.32664149266029,1553.0,1178.0,1200.0,1528.0,1471.0,999.0,107.0,293.85,1649415583.3631413,1649415584.65326,595e13a7-dabc-4873-9ac9-dfd89fa5c354
-0.0654983162799256,0.1444636065580709,0.1481932846800867,0.9684442917372692,0.0282114327035512,-1.055785105683514,-0.5200260553733309,-0.5435419992833923,-14.463501093520298,31.603171725570967,-4.923635936348692,-4.348248289415817,0.5785279362665213,0.4959195132501162,4608.29345703125,11.898,0.1,179.1163970964101,5.614206323207149,76.54351214136672,1553.0,1088.0,1200.0,1528.0,1471.0,999.0,107.0,293.85,1649415586.3588333,1649415587.324549,b1edbeec-be5a-4c13-8a41-b21fc747e88d
-0.0416915893885753,0.1385340504208649,0.137497326250845,0.964107750553719,0.0179074061902359,-1.0420548217038512,-0.5302036547899253,-0.5525817306139791,-14.700070108872476,31.80328058371808,-4.4471671756485005,-4.306861506028941,0.5535991903663826,0.5386934218617858,4608.29345703125,11.898666666666664,0.1,179.1180682160271,5.619242449355173,76.63403946862606,1553.0,1088.0,1200.0,1528.0,1471.0,999.0,107.0,293.85,1649415587.4326303,1649415588.5442092,b1edbeec-be5a-4c13-8a41-b21fc747e88d
-0.0554962037971192,0.1366456953966826,0.1345024579072349,0.9582813613408848,0.0159275159476322,-1.0384535934833548,-0.5289676769078144,-0.5580131557283512,-14.562986908249515,31.57197903822701,-4.965362715747518,-4.287322208296698,0.5506627955323522,0.5428930194409844,4606.367621527777,11.890888888888888,0.1,179.1312793197017,5.601059347419737,76.73650065418525,1553.0,1088.0,1200.0,1528.0,1471.0,999.0,107.0,293.85,1649415588.6521895,1649415589.7713983,b1edbeec-be5a-4c13-8a41-b21fc747e88d
-0.0305151972341071,0.1177489964505723,0.0651036401503997,-0.0081876990554594,-0.1307107960553521,-0.088698180470055,-0.3029081633329754,-0.3260195291255078,-13.60785405361172,27.15708173643488,1.5496108722345094,-0.004180739251695,0.529805082146746,0.5162654546109274,4611.60009765625,11.964333333333334,0.12,179.11223523447586,5.876447736703989,76.86022345972076,1553.0,1435.0,1200.0,1528.0,1471.0,999.0,107.0,293.85,1649415591.910867,1649415593.0488312,94e51ae6-5bf8-4255-bdc8-86ab9198bf54
-0.0077957667263803,0.1161433383765731,0.0743456564043847,-0.0056591035423362,-0.1210262749088681,-0.0882683191961381,-0.2941465788886072,-0.3215818439245745,-13.703184621582976,27.20770077470051,1.7871447207496245,-0.008133047824452,0.5226277867408107,0.4780777365946903,4628.19970703125,11.961,0.12,179.08881679254162,5.88691699374554,76.76186645894285,1553.0,1435.0,1200.0,1528.0,1471.0,999.0,107.0,293.85,1649415593.1587183,1649415594.482447,94e51ae6-5bf8-4255-bdc8-86ab9198bf54
-0.0253856884127663,0.1114396452451484,0.0653271679938362,-0.0015996963720624,-0.1286292561414047,-0.0880392284465099,-0.3033622991291703,-0.3312638369702502,-13.732616012309904,27.246791433960816,1.6255107648538614,-0.0170057825467847,0.5055560824645292,0.5130495361728711,4628.19970703125,11.963666666666668,0.12,179.10171674315404,5.887242139209156,76.6793873712555,1553.0,1435.0,1200.0,1528.0,1471.0,999.0,107.0,293.85,1649415594.590412,1649415595.7286942,94e51ae6-5bf8-4255-bdc8-86ab9198bf54
0.0398429718064776,0.1338814349480344,0.1966538144814012,-0.0152298374550568,-0.012182879911985,-0.1041858282987828,-0.1685891585129505,-0.1965174977471071,-12.697599791312362,27.24960748326558,1.690723936205947,-0.0154538351475969,0.5918264842492452,-0.0130449668944422,4625.7021484375,11.961444444444444,0.12,179.03603612627538,5.884728961617676,76.45603335520693,1553.0,1435.0,1200.0,1424.0,1471.0,999.0,107.0,293.85,1649415597.3760085,1649415598.5775726,859def63-39a3-4610-b936-ccc87bb5891b
0.0261506274515236,0.1389386256904214,0.2095622936201264,-0.0187825141409815,-0.0013099193313956,-0.1054374831290735,-0.1556806777685582,-0.1786150404135403,-12.621088770537314,27.24000363086738,1.8511533384796053,-0.009609324425694,0.6100861927494681,-0.0629644468725804,4629.033365885417,11.956666666666663,0.12,179.02227708964736,5.885669488152761,76.4092033015276,1553.0,1435.0,1200.0,1424.0,1471.0,999.0,107.0,293.85,1649415598.686224,1649415599.8076918,859def63-39a3-4610-b936-ccc87bb5891b
0.0362159544903091,0.1464677712445506,0.2074777196391416,-0.0281600633883203,-0.0058204279420473,-0.1036730291070776,-0.1575169439220988,-0.1784496702729676,-12.56385286698275,27.196874091096603,1.9082361194397564,0.0151572945692736,0.6384357360626364,-0.0503979735443924,4625.7021484375,11.952333333333334,0.1133333333333333,179.01898493846738,5.886291319958446,76.35230099555221,1553.0,1435.0,1200.0,1424.0,1471.0,999.0,107.0,293.85,1649415599.9168289,1649415601.036381,859def63-39a3-4610-b936-ccc87bb5891b
0.104575014482027,0.1721770116399713,0.4134302871931202,-0.0318932817936876,0.1805466622060088,-0.1358564880956939,0.0503366428535412,0.0201325699945921,-11.170270114735692,27.358899533598017,2.009194568600503,-0.0366952723745479,0.7376214718164575,-0.876783379250809,4615.73876953125,11.951,0.1144444444444444,178.94651207791412,5.883569110119243,76.20038999931205,1553.0,1435.0,1200.0,1304.0,1471.0,999.0,107.0,293.85,1649415602.968641,1649415604.0264833,dcade1c8-9716-4479-9ba7-ab93e2a976f8
0.0879692227817068,0.1820218447433777,0.4276131778055063,-0.039954444271899,0.1907788760934752,-0.1402395557229919,0.0627500235300401,0.0441314695620128,-11.111703029505096,27.40272827538656,1.8038309247023747,-0.027367098699684,0.7778435555107452,-0.926873007985124,4615.73876953125,11.955888888888888,0.1188888888888888,178.96228829707704,5.883333184001661,76.15672459994816,1553.0,1435.0,1200.0,1304.0,1471.0,999.0,107.0,293.85,1649415604.1357815,1649415605.3472888,dcade1c8-9716-4479-9ba7-ab93e2a976f8
0.0849278282168978,0.1678531135977673,0.4159841683804413,-0.034232232640442,0.1828603269552832,-0.129901645454071,0.0540663211377295,0.0325100449426831,-11.191891837066809,27.450417696106943,1.97049694493826,-0.0173210470512591,0.7223516639969907,-0.8893771238224841,4616.843804253473,11.953444444444443,0.1155555555555555,178.97314222657806,5.890158914575967,76.1305065393641,1553.0,1435.0,1200.0,1304.0,1471.0,999.0,107.0,293.85,1649415605.460865,1649415606.5670884,dcade1c8-9716-4479-9ba7-ab93e2a976f8
0.1756159013103834,0.2096760804243404,0.6156294025166974,-0.021349038585715,0.3607975773751711,-0.1943934772364546,0.2437236162867977,0.2161239984084989,-9.808907615796269,27.75619898298028,1.8023596722868425,-0.1786667156914633,0.8819904239897062,-1.6681260420398716,4618.22509765625,11.931666666666668,0.11,178.9356702909716,5.871514205689124,76.02224576428969,1553.0,1435.0,1200.0,1166.0,1471.0,999.0,107.0,293.85,1649415608.399936,1649415609.535381,95a8a030-36bb-4f03-84ff-bb6c023134ae
0.1768043411223136,0.2111300227349433,0.6138593858850183,-0.0248637863082124,0.3593689210573093,-0.1921303840800414,0.2429397517238425,0.212937968252013,-9.847271589856222,27.667661358286416,1.857902745598468,-0.1663383526346997,0.88754187508189,-1.662418420087842,4618.22509765625,11.92722222222222,0.1055555555555555,178.95124919355848,5.876031379755833,76.00195706681512,1553.0,1435.0,1200.0,1166.0,1471.0,999.0,107.0,293.85,1649415609.6440897,1649415610.7646608,95a8a030-36bb-4f03-84ff-bb6c023134ae
0.1603937573179378,0.2056556138609541,0.6084987640884587,-0.0207674615977693,0.3542864446085266,-0.1891719271427089,0.2369975527693716,0.2127736095705567,-9.865893718873515,27.8375752107471,2.0066167053692983,-0.1680568215784002,0.8649819697106543,-1.6402278585031824,4620.71484375,11.932,0.11,178.95969586083206,5.883886808779386,75.99357111233417,1553.0,1435.0,1200.0,1166.0,1471.0,999.0,107.0,293.85,1649415610.87245,1649415611.9938004,95a8a030-36bb-4f03-84ff-bb6c023134ae
-0.0937457629276044,0.0766481954129456,-0.1349011847174421,0.026393878302934,-0.3105151909960582,-0.0699729189791882,-0.5151746906712426,-0.5432866110007938,-15.221458789850487,27.78599259088472,1.4273487528882538,-0.0467316582012981,0.3712300870686257,1.3297874636119216,4624.038736979167,11.963666666666668,0.12,179.13401898446875,5.89196834552359,76.07951007029106,1553.0,1435.0,1200.0,1623.0,1471.0,999.0,107.0,293.85,1649415612.9026222,1649415614.0441315,dfa2bdd2-4026-4585-abc5-a6e2db5c0167
-0.0903139530297242,0.0801457485912697,-0.1320347687294667,0.0283267366881391,-0.3096868229937358,-0.0754559255304222,-0.5148065270357596,-0.5392236631769473,-15.143165084875111,27.911254666493324,1.3986356151006982,-0.0624048211595172,0.3839942418143791,1.324630766576812,4623.20703125,11.961777777777778,0.1144444444444444,179.1261688203827,5.8950963824359786,75.99078363624288,1553.0,1435.0,1200.0,1623.0,1471.0,999.0,107.0,293.85,1649415614.1530385,1649415615.2659333,dfa2bdd2-4026-4585-abc5-a6e2db5c0167
-0.0891305702991047,0.085405227037384,-0.1239088739050642,0.0227779868206683,-0.3017187118759086,-0.0757057507825053,-0.505365760634572,-0.5259171785978316,-15.156685446914562,27.72563633477977,1.4392709518944318,-0.0512757909423771,0.4046511878677398,1.289971566408447,4629.589138454861,11.963444444444445,0.12,179.14454658270947,5.891601127991962,75.96031719799508,1553.0,1435.0,1200.0,1623.0,1471.0,999.0,107.0,293.85,1649415615.373932,1649415616.7067764,dfa2bdd2-4026-4585-abc5-a6e2db5c0167
-0.1597916685305608,0.0399238868438972,-0.3184570047602505,0.0714413117180146,-0.4768199338578701,-0.0668829752122269,-0.7122079694284735,-0.7311158026595108,-16.29948989038197,28.428927012021312,1.1810609701679062,-0.1468637925929991,0.2261326235577065,2.081626932407691,4635.708984375,11.941,0.1,179.16076600525852,5.888895614170729,75.8906826604969,1553.0,1435.0,1200.0,1712.0,1471.0,999.0,107.0,293.85,1649415618.3580606,1649415619.366951,a6fe7bc8-aad6-4c4b-ba1c-e67a42f5967e
-0.1590184239846351,0.0478586193499597,-0.2978889007013529,0.0697941846444261,-0.4573295156328964,-0.0730841029276227,-0.6951566322611888,-0.7182806466634081,-16.56128822566963,28.45328488783463,1.3349845239999831,-0.1560046601716229,0.2578885362300067,2.003735895431156,4627.089680989583,11.942111111111112,0.11,179.17677445085323,5.892757516963941,75.83118108808738,1553.0,1435.0,1200.0,1712.0,1471.0,999.0,107.0,293.85,1649415619.4761283,1649415620.6005166,a6fe7bc8-aad6-4c4b-ba1c-e67a42f5967e
-0.166755926634792,0.0463161761303791,-0.3239966525233683,0.0667851561302073,-0.4816293235822375,-0.0680648407573681,-0.718381790581655,-0.7400265764137194,-16.471154470020977,28.266258272325675,1.2516517612988354,-0.1404458032370524,0.250916279683906,2.105297767856833,4625.979654947917,11.943888888888887,0.1011111111111111,179.18184245121736,5.89249920300408,75.81225387498736,1553.0,1435.0,1200.0,1712.0,1471.0,999.0,107.0,293.85,1649415620.7084496,1649415622.0311031,a6fe7bc8-aad6-4c4b-ba1c-e67a42f5967e
-0.2096515292903527,0.0191620953166871,-0.4573993049947923,0.1342000379575536,-0.5993000741141535,-0.0972827623807682,-0.8747522277221469,-0.8934628324794199,-17.592299227435216,29.05724034120712,1.0216784958632292,-0.3601738915745001,0.1423015841443986,2.665922687213227,4633.203125,11.930333333333332,0.1022222222222222,179.20874428962833,5.879268936854288,75.79045039333687,1553.0,1435.0,1200.0,1801.0,1471.0,999.0,107.0,293.85,1649415623.9606905,1649415624.8971698,a1dcac3b-81b4-4ae5-be88-967526e07a38
-0.1972523074891873,0.0298388367724364,-0.4470249812066966,0.1257585751514952,-0.5920025452983145,-0.0986370781761453,-0.8665737342690583,-0.8933181966526028,-17.695580985566362,29.09280972818792,1.282683304624462,-0.3434333659813733,0.1824611846615562,2.6316965815965965,4633.203125,11.924333333333331,0.1,179.22672286534362,5.882032459851597,75.764387150374,1553.0,1435.0,1200.0,1801.0,1471.0,999.0,107.0,293.85,1649415625.005523,1649415626.128513,a1dcac3b-81b4-4ae5-be88-967526e07a38
-0.1994744373651004,0.0273405844651634,-0.4646705356343699,0.1301370909089467,-0.6079782163832234,-0.1021083341952063,-0.8837064944794978,-0.903587333935172,-17.573038256479535,28.99412567766149,0.8812789295442118,-0.3626457211402921,0.1741221324391738,2.7011984120247003,4627.368055555556,11.918444444444445,0.0988888888888889,179.22889486549968,5.862326083435642,75.76236010201033,1553.0,1435.0,1200.0,1801.0,1471.0,999.0,107.0,293.85,1649415626.2369068,1649415627.5583827,a1dcac3b-81b4-4ae5-be88-967526e07a38
-0.0362728092366681,0.0957663995616281,0.0054348562275795,-0.017391280917515,-0.1553868549778855,-0.0618733217161437,-0.327174591726575,-0.3576664234406666,-14.04917560329475,24.008612397399865,0.8137616849112581,0.052677186507413,0.4542994359434585,0.6629656017903645,7496.87939453125,11.652666666666669,7.52,178.41519166237882,5.548436724141805,66.03577836748985,1553.0,1435.0,1350.0,1528.0,1471.0,999.0,107.0,293.85,1649415632.5193331,1649415633.497345,1cc1841e-b5f5-47c5-b08d-040617949264
-0.032354497633069,0.0967657004640241,0.0074334580701327,-0.0214016333717074,-0.1542955131367652,-0.0616760912722871,-0.3247815286472869,-0.3431239629200303,-14.01436701505493,24.00355594594872,0.4730068233245481,0.062195962906507,0.461441532177776,0.6549791939341624,7504.897786458333,11.654,7.562222222222222,178.2588349718989,5.436774562292582,61.803699052921374,1553.0,1435.0,1350.0,1528.0,1471.0,999.0,107.0,293.85,1649415633.6059663,1649415634.9277823,1cc1841e-b5f5-47c5-b08d-040617949264
-0.0318285497995792,0.098843194439148,0.0005172437465363,-0.0195739645378342,-0.1614484044410876,-0.0629909609501727,-0.3345641602259794,-0.3627944159053203,-14.161230793428082,24.12142689438933,0.7496186006374104,0.0555256675590738,0.4671597829595205,0.6885840917504198,7509.281955295139,11.652444444444445,7.495555555555557,178.19918617096727,5.382784288497094,58.15505146161578,1553.0,1435.0,1350.0,1528.0,1471.0,999.0,107.0,293.85,1649415635.035657,1649415636.1592891,1cc1841e-b5f5-47c5-b08d-040617949264
0.1649958008470648,0.4722074830286369,0.0137352237038413,-0.2099569836383883,-0.2345602199045178,-0.2532718282610373,-0.4010935410514284,-0.4316010513198963,-13.87446360293922,23.045347107909883,0.5897981466597408,0.0510401782192228,1.891149610169384,0.9087957234816196,7512.937717013889,11.624333333333333,7.544444444444445,178.01479079503451,5.374966520377713,52.66104612765336,1658.0,1435.0,1350.0,1528.0,1551.0,999.0,107.0,293.85,1649415637.8889549,1649415639.0318096,6ad6bcd9-9704-4c7d-bc92-9d87f59573db
0.1797754406356132,0.4616000261176234,0.0090952510173801,-0.1876800557235375,-0.2356854449808441,-0.2564325729565664,-0.4103861311503617,-0.4401856347282832,-14.136895049330375,23.36122456831129,1.52251235618988,-0.0044341997193358,1.8419244411383124,0.9297979499080624,7523.929470486111,11.615777777777778,7.612222222222221,178.1293558347129,5.401475670343263,50.75344145599564,1658.0,1435.0,1350.0,1528.0,1551.0,999.0,107.0,293.85,1649415639.1442935,1649415640.255584,6ad6bcd9-9704-4c7d-bc92-9d87f59573db
0.1828239151807229,0.4703332882584671,0.0129164644920988,-0.1892053046056135,-0.2339108765119534,-0.2626933760187919,-0.4092356199776612,-0.4369530777093249,-14.135528730025278,23.37360024143329,1.668180607686791,-0.0147662534823391,1.873809004660708,0.9217787867556796,7525.396484375,11.617777777777778,7.572222222222223,178.232895431251,5.43078761689385,49.32489524852895,1658.0,1435.0,1350.0,1528.0,1551.0,999.0,107.0,293.85,1649415640.3641384,1649415641.4842036,6ad6bcd9-9704-4c7d-bc92-9d87f59573db
0.3760439952488393,0.8685941114020345,0.020345477964287,-0.3900385196218242,-0.3233614692247897,-0.4572546691341904,-0.4935976744714601,-0.5108619176389706,-14.041587607773922,22.95533529117381,2.901046915675692,-0.0010999287275512,3.381128210584403,1.2020056394776446,7526.865993923611,11.58211111111111,7.6,178.14726610853646,5.568049896934712,46.775012220449256,1767.0,1435.0,1350.0,1528.0,1630.0,999.0,107.0,293.85,1649415643.4039466,1649415644.4496224,86069174-4258-42f0-8623-598b8228eb6a
0.3755266446602351,0.869133713619324,0.028464292252427,-0.3938617566650644,-0.3143500594276358,-0.4602879729257567,-0.4836016285114458,-0.5011374423902552,-14.020683486797568,22.74548614172252,2.117151157438961,-0.0003931688215384,3.390933594014709,1.16345959474709,7532.00927734375,11.585,7.581111111111111,178.2678568928826,5.6114906589659,46.09875329345152,1767.0,1435.0,1350.0,1528.0,1630.0,999.0,107.0,293.85,1649415644.5591996,1649415645.793004,86069174-4258-42f0-8623-598b8228eb6a
0.3752105702595744,0.851345046302544,0.024557612274457,-0.3805486991941211,-0.3144764892237081,-0.4495667259098565,-0.4856877202482497,-0.5111759688230346,-14.11452847235324,22.95830584700523,2.880627653248545,-0.0050413468384964,3.31622963925271,1.1708153243098325,7532.00927734375,11.58625,7.60375,178.37610192057642,5.653971044224729,45.38281756040584,1767.0,1435.0,1350.0,1528.0,1630.0,999.0,107.0,293.85,1649415645.906031,1649415647.0162055,86069174-4258-42f0-8623-598b8228eb6a
0.5782188367035425,1.1796957858643724,0.035734004154749,-0.5519116525967065,-0.3867943311102704,-0.6079579875901431,-0.5539724584449721,-0.5758701014107773,-14.197189108742249,23.013705279304897,3.4473471938676803,0.0265576664787736,4.5651146894576335,1.3902498158948893,7525.396484375,11.529666666666666,7.576666666666666,178.4017149402365,5.777482517066868,44.25277020903069,1886.0,1435.0,1350.0,1528.0,1710.0,999.0,107.0,293.85,1649415648.948604,1649415650.0876074,94ba9158-8860-475c-919e-5bb3e11a974a
0.5262182765495851,1.1572797880315084,0.0358730769407034,-0.5390537412158902,-0.3847714543238352,-0.596212658080228,-0.5506599973955976,-0.5743276576531172,-14.026343469538912,23.356549555950657,3.6859836608322616,0.0263504126851501,4.476148383136763,1.3803045181516953,7525.396484375,11.520333333333332,7.597777777777777,178.49905424282807,5.815102629832865,43.96736050927796,1886.0,1435.0,1350.0,1528.0,1710.0,999.0,107.0,293.85,1649415650.1965778,1649415651.3161535,94ba9158-8860-475c-919e-5bb3e11a974a
0.5616115292078067,1.17562929879226,0.0364394822961736,-0.5520567940070847,-0.3853575828911457,-0.605151245739112,-0.5508339648541222,-0.5750801679282934,-14.095726515713082,22.95225708926173,3.276028067883321,0.0328437386935697,4.550724711779541,1.3822239485890588,7525.396484375,11.521,7.6,178.5460125522818,5.833461656571298,43.71758770097472,1886.0,1435.0,1350.0,1528.0,1710.0,999.0,107.0,293.85,1649415651.425516,1649415652.4714606,94ba9158-8860-475c-919e-5bb3e11a974a
-0.2656518330655493,-0.3605196910181265,0.0119040148584646,0.1854799517019668,-0.048974450254394,0.1942501317660382,-0.2138065177344524,-0.2322804380446378,-14.071162348203035,25.2744934026518,0.6708357570486018,0.1792729358350943,-1.2801746699916754,0.2936295311699999,7529.529479980469,11.64575,7.67375,179.6587687580225,5.883521589315253,43.18538690251454,1449.0,1435.0,1350.0,1528.0,1386.0,999.0,107.0,293.85,1649415654.481839,1649415655.6231573,d4616fab-648c-456b-a9bc-02080f27d569
-0.2913312403761529,-0.3665417949800016,-0.0131048058420618,0.1930930465418243,-0.0714587217271936,0.1936978865501972,-0.2391966529972316,-0.263653231119631,-14.058153103700084,25.28917439802379,0.5558830042662224,0.15969896453348,-1.304356985965754,0.3936728586417421,7532.00927734375,11.644666666666668,7.652222222222223,179.71167236769378,5.885799404042597,42.98784080367672,1449.0,1435.0,1350.0,1528.0,1386.0,999.0,107.0,293.85,1649415655.7327833,1649415657.047884,d4616fab-648c-456b-a9bc-02080f27d569
-0.2802994826733159,-0.3572588137877184,-0.005255034007967,0.1870446465061689,-0.0656601464171225,0.1909366604562576,-0.2325565606084136,-0.2577100201253807,-14.088129119856813,25.23532915989709,0.7211105421311343,0.1671829981326283,-1.2695509991148115,0.3669251933757904,7532.00927734375,11.641444444444444,7.664444444444445,179.72294673328375,5.9151016744918605,42.84440834892626,1449.0,1435.0,1350.0,1528.0,1386.0,999.0,107.0,293.85,1649415657.1563923,1649415658.2793703,d4616fab-648c-456b-a9bc-02080f27d569
-0.5040579707098498,-0.7730879759169618,-0.0212605377224052,0.3949336130972135,0.0079573830859916,0.409435106746345,-0.1611045153958587,-0.1781346071165311,-14.08008679212913,26.923500247425405,1.26801089876804,0.1997169560462657,-2.860648879541255,0.1383317728952048,7532.00927734375,11.593333333333332,7.63,179.88803999462206,5.95886720253171,42.68697931874663,1342.0,1435.0,1350.0,1528.0,1293.0,999.0,107.0,293.85,1649415659.3940222,1649415660.4644554,f85517e6-2880-4e37-a046-15126f1d7f28
-0.5136666358869572,-0.7637448116653895,-0.0053556720929386,0.3817975608431015,0.0214221539331691,0.4080443793611917,-0.1430503426242199,-0.1625078859985917,-13.964001570889666,26.69709478575367,0.7852873629762023,0.2254960938375837,-2.819527815963412,0.0731154993643738,7532.00927734375,11.593444444444444,7.635555555555555,179.89793921545913,6.007770550647224,42.65705398326308,1342.0,1435.0,1350.0,1528.0,1293.0,999.0,107.0,293.85,1649415660.5728347,1649415661.555938,f85517e6-2880-4e37-a046-15126f1d7f28
-0.5142608559679063,-0.7693456530087249,-0.0216018981485649,0.3862858173975251,0.0081849566418625,0.4044158452170991,-0.1589931380829307,-0.1787288271184691,-13.988646793029565,26.59310473638891,-0.0451914570318965,0.2055747808699952,-2.8345837187840006,0.1342053571832814,7532.00927734375,11.593555555555556,7.637777777777777,179.9008792324418,6.042635820447985,42.623407712501695,1342.0,1435.0,1350.0,1528.0,1293.0,999.0,107.0,293.85,1649415661.6647117,1649415662.7845888,f85517e6-2880-4e37-a046-15126f1d7f28
-0.675483646564783,-1.098819299392556,-0.0103304308895098,0.5555894268996452,0.0808426294457713,0.5981254551915707,-0.081543772198707,-0.1006619775690022,-13.728920629267163,28.896098506461787,4.072440339533339,0.2755738572145773,-4.128734245598152,-0.123730542454357,7532.00927734375,11.48942857142857,7.581428571428572,-128.5658587148918,6.1669691419003865,42.634971168558685,1227.0,1435.0,1350.0,1528.0,1189.0,999.0,107.0,293.85,1649415664.9273198,1649415665.8518708,5dfbf213-c247-4ca9-876e-be118933055d
-0.6943125867604345,-1.106734820243486,-0.0108037839585922,0.5557866573264131,0.0839720191204137,0.6010050193924282,-0.0786642075889647,-0.103515244757911,-13.805047802532473,28.70170014374643,3.417464505340904,0.2801447314666783,-4.152136005890394,-0.1333008264676892,7532.00927734375,11.491333333333332,7.585555555555555,19.995485042599423,6.173226997808251,42.6700298248663,1227.0,1435.0,1350.0,1528.0,1189.0,999.0,107.0,293.85,1649415665.9594228,1649415667.295802,5dfbf213-c247-4ca9-876e-be118933055d
-0.6766801784126514,-1.0941646575753414,-0.0031117964982507,0.5560759286101346,0.0885214679652249,0.58927638347005,-0.0737728923553881,-0.1013457098219563,-13.6099660268084,28.654650652743527,3.5867800750917342,0.2533326973115528,-4.107420416191056,-0.1550284891845892,7532.00927734375,11.497555555555556,7.607777777777778,179.98594696182465,6.2009480320327865,42.7129750187277,1227.0,1435.0,1350.0,1528.0,1189.0,999.0,107.0,293.85,1649415667.425988,1649415668.5203946,5dfbf213-c247-4ca9-876e-be118933055d
-0.0188963009124126,0.1008074073484865,-0.0021190699398462,-0.0194778779057744,-0.1604091516786584,-0.0635892266558876,-0.334224822706835,-0.3660724878599323,-14.223133255851687,23.71613051794513,0.9469893987898896,0.0511468091914314,0.4730297814960605,0.6909189711892538,7532.00927734375,11.649666666666668,7.680000000000001,179.48976711065916,6.254965294561871,42.880739263486426,1553.0,1435.0,1350.0,1528.0,1471.0,999.0,107.0,293.85,1649415670.6079314,1649415671.795997,85078060-b04b-4651-9773-5d94f3b23163
-0.0189468728260607,0.0993534649901874,0.0029760499949341,-0.0154447680954541,-0.1571725492212946,-0.0649673112120397,-0.3312790085040981,-0.3621152354253814,-14.167116645815002,23.96396807336164,1.1040993860769968,0.0409022512045481,0.46561832446947,0.6753896624822912,7532.00927734375,11.650333333333332,7.676666666666667,179.46918092050072,6.254645983218172,42.8501923807884,1553.0,1435.0,1350.0,1528.0,1471.0,999.0,107.0,293.85,1649415671.9072697,1649415673.022066,85078060-b04b-4651-9773-5d94f3b23163
-0.0362465118246732,0.1052597581142986,0.00810404159677,-0.0282652529824724,-0.1538747548043355,-0.0622677826121779,-0.3236638892750726,-0.3417039035262579,-14.079907287633835,23.796531812412283,0.6831491908270175,0.0750105069008902,0.4927848630551585,0.6532038673179233,7537.897298177083,11.652666666666669,7.687777777777778,179.45580437446625,6.253041173354436,42.84228112445476,1553.0,1435.0,1350.0,1528.0,1471.0,999.0,107.0,293.85,1649415673.1311386,1649415674.4689438,85078060-b04b-4651-9773-5d94f3b23163
-0.018863934900653,0.0983172465976818,-0.0098176317324188,-0.3188909117758472,-0.1996190730815679,0.2243474961715665,-0.2603923539432631,-0.2893720847278639,-14.074032327929263,23.16683999670537,2.5974637764066,1.3698950176858886,0.4843735419126981,0.6494275512784387,7532.00927734375,11.646666666666668,7.690000000000001,179.44800429843403,6.348406076957184,42.86499833363423,1553.0,1522.0,1350.0,1528.0,1471.0,999.0,107.0,293.85,1649415675.5734837,1649415676.5188768,e1c41fec-88cf-42f5-b5c8-0d567df85ee5
-0.030526828793814,0.0925186716286454,-0.0218881351535913,-0.315840413772574,-0.2095726371332452,0.2286734170243024,-0.269188832844987,-0.288438526820565,-13.926197792241494,23.045116545164834,2.7243278503041903,1.3714214523847026,0.4593117791873889,0.6916197931388145,7532.00927734375,11.647444444444444,7.668888888888889,179.42919243964002,6.338318172144292,42.8453873427073,1553.0,1522.0,1350.0,1528.0,1471.0,999.0,107.0,293.85,1649415676.627137,1649415677.939812,e1c41fec-88cf-42f5-b5c8-0d567df85ee5
-0.0303690444370103,0.0853000374732212,-0.0228348413382541,-0.3103442579400955,-0.2084155517645283,0.2306062752787053,-0.2698988625681969,-0.2876890510307847,-14.025723512580091,23.09918781808885,2.706601524621673,1.3636252429314617,0.4323632452381789,0.6914031381423598,7532.00927734375,11.645555555555555,7.668888888888889,179.40769859323188,6.341443458008264,42.84851063643276,1553.0,1522.0,1350.0,1528.0,1471.0,999.0,107.0,293.85,1649415678.0484836,1649415679.173869,e1c41fec-88cf-42f5-b5c8-0d567df85ee5
-0.0120058782119936,0.0854335473111687,-0.0353953866041868,-0.6784805390155493,-0.2625012028060351,0.5881056438996709,-0.1851514600731361,-0.200146032512236,-13.886237947820772,22.713560886863192,5.635820643588845,2.994754663656963,0.4504377928189012,0.6627044329254541,7538.63330078125,11.640333333333333,7.67,179.3772511277318,6.458330904300023,42.90146433415797,1553.0,1613.0,1350.0,1528.0,1471.0,999.0,107.0,293.85,1649415680.8983738,1649415682.0327692,15122378-d7a0-4c2c-af0c-f2beb0c2a7fe
0.0049862834223456,0.0814257235891531,-0.0308944865973747,-0.6732716304724308,-0.2580003023453395,0.5867528454732848,-0.1812827086906878,-0.2052790816047725,-13.844608342228527,22.831419629148023,5.597737407371188,2.9809850226893406,0.4350949075063053,0.6444182972246464,7538.63330078125,11.635,7.663333333333333,179.3520917464691,6.459846826840813,42.87862683775811,1553.0,1613.0,1350.0,1528.0,1471.0,999.0,107.0,293.85,1649415682.141824,1649415683.2723968,15122378-d7a0-4c2c-af0c-f2beb0c2a7fe
-0.0317921379570521,0.0775190436794032,-0.0485946551820165,-0.6722349060013961,-0.2736902390406179,0.5894963712514341,-0.1978450103045206,-0.2164301886559775,-13.862249594578238,22.764808532501725,5.44837373810391,2.983455882204677,0.4206402805252444,0.7128377435058124,7539.370659722223,11.630555555555556,7.651111111111111,179.34286643763014,6.467360604110258,42.88860232904092,1553.0,1613.0,1350.0,1528.0,1471.0,999.0,107.0,293.85,1649415683.3913682,1649415684.4997952,15122378-d7a0-4c2c-af0c-f2beb0c2a7fe
-0.0004881257870022,0.0820705154208511,-0.0476211459950476,-1.0406767357313522,-0.3181935251772932,0.9427411206442996,-0.1039582547895803,-0.1261846100131566,-13.752071711207622,22.701240061420023,8.43168809069226,4.608516588694328,0.4559139275796833,0.6400821305103602,7545.26953125,11.621111111111112,7.66,179.33390978289856,6.562616414413763,42.92248841533317,1553.0,1710.0,1350.0,1528.0,1471.0,999.0,107.0,293.85,1649415686.4280405,1649415687.7774098,1348c21c-abf7-415e-a820-52b55f65a036
-0.0102515386503579,0.0767007901998945,-0.0490270450324947,-1.0426743274651302,-0.3182860716851731,0.946973483365915,-0.1019111037427721,-0.1167165368768046,-13.659123137610628,22.585448561815497,8.027518807845333,4.621678111179747,0.4388533242864194,0.6380850970841034,7545.26953125,11.611222222222224,7.649999999999999,179.31363778144194,6.55357855632202,42.92363361038401,1553.0,1710.0,1350.0,1528.0,1471.0,999.0,107.0,293.85,1649415687.8860064,1649415688.9982967,1348c21c-abf7-415e-a820-52b55f65a036
-0.010343579534467,0.0805796555668207,-0.0498554129433991,-1.0413726056268615,-0.31975872591544,0.942844793044238,-0.1054875493489958,-0.120700592193716,-13.7531758701639,22.6521277092208,8.133957898230472,4.609834427400919,0.4529120897961907,0.6468498985137934,7545.26953125,11.614666666666668,7.653333333333334,179.30853031776255,6.553215465363018,42.92979937392976,1553.0,1710.0,1350.0,1528.0,1471.0,999.0,107.0,293.85,1649415689.1078403,1649415690.2302592,1348c21c-abf7-415e-a820-52b55f65a036
0.02379043645477,0.0692980742661706,-0.0561536386913803,-1.2516598661512974,-0.3554048473752013,1.1579968976400172,-0.059519705084092,-0.0817147052869463,-13.605136789200488,23.260103926503863,9.764155263643977,5.571717593274819,0.4206050181323363,0.637482325214579,7543.794813368056,11.567,7.614444444444445,179.28749029947932,6.614139472099061,42.92750215363891,1553.0,1814.0,1350.0,1528.0,1471.0,999.0,107.0,293.85,1649415691.8556874,1649415692.9039724,19fb624f-6862-45a1-9ecb-20d51b876cef
0.0165192073437588,0.0661818332673331,-0.0573764674431947,-1.2565774828245206,-0.3568380554613046,1.1644134612042685,-0.0589411623607797,-0.0860406266142721,-13.608959194074949,23.28659043147473,9.595842561840811,5.597315346163537,0.4109644172400493,0.6396064175840876,7542.320095486111,11.556777777777777,7.614444444444445,179.2785442694864,6.615104283751196,42.952629660685474,1553.0,1814.0,1350.0,1528.0,1471.0,999.0,107.0,293.85,1649415693.0138257,1649415694.1169446,19fb624f-6862-45a1-9ecb-20d51b876cef
0.0215359407183013,0.071640059340316,-0.0378354812837031,-1.2540397822329543,-0.3383337909488807,1.1591635915491758,-0.0412111562807993,-0.0696957849443345,-13.650866702127802,23.293789167694136,10.08534470313759,5.580871423522101,0.4283207206483025,0.5638635092547367,7545.26953125,11.56388888888889,7.602222222222222,179.28835242113456,6.61774201743129,42.97554039189143,1553.0,1814.0,1350.0,1528.0,1471.0,999.0,107.0,293.85,1649415694.2316988,1649415695.344926,19fb624f-6862-45a1-9ecb-20d51b876cef
-0.0567240897927887,0.0961800777704893,0.0279206442170796,0.3714808922641615,-0.0945898081569632,-0.4336492140497088,-0.4152536783809654,-0.4401729917990264,-14.514803576830902,25.19773307581251,-1.3373452014154124,-1.6515280497423803,0.4317789449764821,0.6745251880876738,7538.63330078125,11.652111111111113,7.684444444444444,179.2637698114018,6.078580165273869,43.06534941092306,1553.0,1349.0,1350.0,1528.0,1471.0,999.0,107.0,293.85,1649415697.491621,1649415698.6212451,89e2f13b-b687-4b57-8d66-a771c693f343
-0.0628200278889035,0.1026037215158539,0.0259731199964527,0.3585825279301795,-0.0961914205890817,-0.4302735383883406,-0.4132065271051633,-0.4435011297939982,-14.476495157565084,24.82582871016842,-1.6463332703978122,-1.6174392496630583,0.4597972252701399,0.6768544183021996,7520.26318359375,11.650888888888888,7.717777777777779,179.25875341691133,6.0759251663933735,43.08897996817655,1553.0,1349.0,1350.0,1528.0,1471.0,999.0,107.0,293.85,1649415698.7289035,1649415699.780595,89e2f13b-b687-4b57-8d66-a771c693f343
-0.046607684844292,0.0968971874265964,0.0239219233755306,0.354125120234014,-0.0985450373355964,-0.4216874378812532,-0.4133643114661048,-0.4376894050863968,-14.483441050912331,24.928280557368133,-1.813709791811926,-1.5875434630926062,0.44034737298549,0.6820682379144631,7505.62744140625,11.650333333333332,7.713333333333334,179.25406183586148,6.072466766511753,43.15391609443567,1553.0,1349.0,1350.0,1528.0,1471.0,999.0,107.0,293.85,1649415699.892533,1649415701.0791523,89e2f13b-b687-4b57-8d66-a771c693f343
-0.0487716568326942,0.1061174576722356,0.0556087643173002,0.703232582726977,-0.0371021885734295,-0.7670572731524424,-0.486168153481338,-0.5115679011691089,-14.805241909480351,26.23176943342264,-4.097535332695347,-3.1414437640303152,0.4564963899552267,0.6590408698165839,7499.060546875,11.632888888888887,7.705555555555555,179.24113304667253,5.938288696336108,43.16640851042762,1553.0,1264.0,1350.0,1528.0,1471.0,999.0,107.0,293.85,1649415701.9927227,1649415703.1285515,28e8b2b2-78b8-4318-911c-52daf2e02577
-0.0761689894601826,0.1088736266500721,0.0638266994596651,0.7007545594457084,-0.0311599891204981,-0.7648194652434744,-0.4786202942333536,-0.5009225115627086,-14.777273355549486,26.35864498442722,-3.661131146444766,-3.12949138178815,0.4635961282160276,0.6298936516377065,7504.168131510417,11.614444444444445,7.684444444444444,179.24278291681205,5.919339949167462,43.21481937344485,1553.0,1264.0,1350.0,1528.0,1471.0,999.0,107.0,293.85,1649415703.243359,1649415704.359846,28e8b2b2-78b8-4318-911c-52daf2e02577
-0.0627542843949413,0.0988300457490191,0.0452228114365514,0.709560645042573,-0.0471073353051627,-0.7602533256221389,-0.4989754925969922,-0.5276265096046345,-14.995397220519544,26.58189407415003,-3.4099001903806228,-3.1386111825429466,0.422983948098998,0.7049272387495392,7512.20556640625,11.61111111111111,7.688888888888889,179.23991271954085,5.901855850688959,43.18367446973949,1553.0,1264.0,1350.0,1528.0,1471.0,999.0,107.0,293.85,1649415704.468707,1649415705.5893776,28e8b2b2-78b8-4318-911c-52daf2e02577
-0.0896084748373423,0.1139687463506956,0.0703884045700222,0.9825285668699072,-0.0034845114699812,-1.0455569282274193,-0.561292744324282,-0.5831651014238148,-15.061004006991938,27.84694394845025,-6.282770246735686,-4.386326955978625,0.4736984282019786,0.6995425727339541,7518.794921875,11.591,7.67,179.23410402310665,5.808398846594368,43.28496921077042,1553.0,1178.0,1350.0,1528.0,1471.0,999.0,107.0,293.85,1649415707.5230074,1649415708.659763,589e8068-8bba-4265-85f8-aa2204764acb
-0.0661992429501963,0.1160153914551145,0.0767533849591791,0.9970831611658372,0.0034231056672815,-1.05834758397859,-0.5603141775972305,-0.5824171426858389,-15.157114069273751,27.98390882843461,-5.883822491487158,-4.446660760635279,0.4771328177653704,0.6808792249945185,7525.396484375,11.601,7.66,179.24546035096668,5.794441355025446,43.36742553116054,1553.0,1178.0,1350.0,1528.0,1471.0,999.0,107.0,293.85,1649415708.7680857,1649415709.8904808,589e8068-8bba-4265-85f8-aa2204764acb
-0.0908924956577716,0.1152133209993425,0.073952712657785,0.9954790203284386,0.0015033959584519,-1.0577558922334531,-0.5635093117862254,-0.5850600315842411,-15.301109670974173,27.97037148300409,-6.143414960101596,-4.4420556613076085,0.4774642196695794,0.6912883621797458,7532.00927734375,11.598222222222224,7.67111111111111,179.25756648181562,5.805478845860447,43.4327695714951,1553.0,1178.0,1350.0,1528.0,1471.0,999.0,107.0,293.85,1649415709.998789,1649415711.1176074,589e8068-8bba-4265-85f8-aa2204764acb
-0.0481647939159799,0.1412902193678214,0.0932089780963907,1.067565226031982,0.0155431694081124,-1.1535280312631504,-0.5777286197423424,-0.6028375802560122,-15.035878952760594,28.76393734670044,-6.680753441046483,-4.81360993128374,0.5705124708033887,0.6690518239970593,7532.00927734375,11.564,7.65,179.25326042699885,5.760345691018978,43.53544818474285,1553.0,1088.0,1350.0,1528.0,1471.0,999.0,107.0,293.85,1649415712.028792,1649415713.1685436,3989c96e-7bdc-415d-89a1-497452cc6f52
-0.0932329637234746,0.1164887444984661,0.0874038288042716,1.0837330644752552,0.015677690729748,-1.1434723056772131,-0.5824697375535246,-0.6034945094731438,-15.32406287969546,29.03424330193637,-6.631749800426645,-4.826118475442805,0.4767431995669209,0.6804294230355507,7532.00927734375,11.552444444444443,7.638888888888889,179.23759197304284,5.7458259657880655,43.59943643252716,1553.0,1088.0,1350.0,1528.0,1471.0,999.0,107.0,293.85,1649415713.276818,1649415714.3971376,3989c96e-7bdc-415d-89a1-497452cc6f52
-0.0582286041024663,0.1256887859416509,0.0893022982301723,1.0682353040068284,0.0158339579108329,-1.1395575314339286,-0.5766539663031437,-0.6014342092846519,-15.1720064642444,28.72508777302363,-6.789786328691784,-4.784265853225211,0.5135966201814856,0.6703359830402855,7532.00927734375,11.559666666666669,7.643333333333334,179.26130183638168,5.750654292916964,43.660570420148325,1553.0,1088.0,1350.0,1528.0,1471.0,999.0,107.0,293.85,1649415714.5053968,1649415715.6239033,3989c96e-7bdc-415d-89a1-497452cc6f52
-0.0388499538053305,0.0988168970538026,0.0018847081398703,-0.0156162068828761,-0.1578588101227029,-0.0677902352818734,-0.3327101937976865,-0.3597570666376068,-14.185827700863095,23.935664164900267,0.5966524103619346,0.0346132075803044,0.4681872329825852,0.6790660908038345,7535.689290364583,11.653111111111109,7.667777777777776,179.27389518739133,6.064049269837751,43.75133870130339,1553.0,1435.0,1350.0,1528.0,1471.0,999.0,107.0,293.85,1649415717.561868,1649415718.6983938,fac3f067-1781-4d85-9e5d-d56eba924140
-0.0335247316533892,0.0916377089945053,-0.0026778895138652,-0.0116321518192682,-0.1604228060604251,-0.0660940533882378,-0.336247193629469,-0.3615584388594606,-14.20770960126304,23.94197978951622,0.3283394575945078,0.0291985973576579,0.443014178787244,0.6925835266412199,7538.63330078125,11.650777777777778,7.67,179.26903361052211,6.083385203354974,43.69674196362784,1553.0,1435.0,1350.0,1528.0,1471.0,999.0,107.0,293.85,1649415718.806445,1649415719.925702,fac3f067-1781-4d85-9e5d-d56eba924140
