raw_voltage_G-,raw_voltage_G0,raw_voltage_G1,raw_voltage_G2,raw_voltage_G3,raw_voltage_G4,raw_voltage_G5,raw_voltage_G6,load_x,load_y,load_z,load_l,load_m,load_n,rpm,voltage,current,roll,pitch,yaw,aileron1_pwm,elevator_pwm,throttle_pwm,rudder_pwm,aileron2_pwm,pbaro,pdiff,Tt,sample_start_time,sample_end_time,uid
0.008919260785027,0.1409584676677685,0.1238125681473941,-0.0224272316792832,-0.0832268053771111,-0.0967436658105381,-0.2402485488004467,-0.2600504880639971,-12.636848144283608,26.987912884855863,2.2384230729770302,0.0122613300256628,0.6093493994045183,0.2867533528876616,4580.386935763889,11.961555555555556,0.1622222222222222,178.5186007264128,6.017618497633651,78.53619326987116,1553.0,1435.0,1200.0,1528.0,1471.0,999.0,110.0,293.85,1649416149.4445505,1649416150.3971546,c43e762b-c056-488e-bc41-010dc5369716
0.0207399388803298,0.1336740901287569,0.1131752731053618,-0.0229137334597288,-0.0923520010302208,-0.0899720868907813,-0.2498076521065691,-0.2775382561347171,-12.741401404023389,27.057675258711463,2.044807598102178,0.0284247048922342,0.5838713002303918,0.3260316275712096,4591.015625,11.960333333333333,0.1533333333333333,178.47651765420665,5.988792111128436,77.99466779280596,1553.0,1435.0,1200.0,1528.0,1471.0,999.0,110.0,293.85,1649416150.5058758,1649416151.6559415,c43e762b-c056-488e-bc41-010dc5369716
0.0061580345362189,0.1306893361540402,0.1147794140216233,-0.023097815192,-0.0906295217330109,-0.0875132805548831,-0.2460997193189182,-0.2752766801267104,-12.611682412377988,27.023274164398373,1.9747186516465631,0.0342711654724691,0.5725035105015267,0.3158628322151362,4595.93896484375,11.967,0.16,178.46558935153462,5.972570981032086,77.53962009973219,1553.0,1435.0,1200.0,1528.0,1471.0,999.0,110.0,293.85,1649416151.764425,1649416152.886865,c43e762b-c056-488e-bc41-010dc5369716
0.2218097979191073,0.5066631327283736,0.1463625816534875,-0.1804482721064535,-0.1457225624861797,-0.3058868491927928,-0.307964343527065,-0.3372859414439053,-12.558673166396884,26.47395552461257,2.592004574399533,-0.1034431075415735,1.9981537593383296,0.4811786077761411,4597.034884982639,11.933333333333334,0.15,178.19112654774665,5.922728813928781,76.9248886551428,1658.0,1435.0,1200.0,1528.0,1551.0,999.0,110.0,293.85,1649416153.9962628,1649416155.1361978,0a66122b-276e-48ec-9d45-7b9d6d448d5d
0.2028888248295696,0.49701199056181,0.1319253135582237,-0.1762538376238732,-0.1576615795709252,-0.2992730539918904,-0.3206133912277225,-0.347370992544239,-12.582339735922506,26.514047328579053,2.632306320515524,-0.0985012381560763,1.9603354306263416,0.5340219400643931,4598.40478515625,11.932444444444446,0.1477777777777777,178.22789725059835,5.927174033849857,76.7194441540079,1658.0,1435.0,1200.0,1528.0,1551.0,999.0,110.0,293.85,1649416155.245139,1649416156.362033,0a66122b-276e-48ec-9d45-7b9d6d448d5d
0.2115275179155131,0.5048880588976089,0.13195161095334,-0.1751756444357569,-0.157924553524914,-0.3087006705938546,-0.3227434803675976,-0.351249858847768,-12.581422112172014,26.391801073347168,2.523725923798478,-0.1229444133258297,1.990698171335505,0.5382371964747417,4608.019856770833,11.93222222222222,0.14,178.26013877912047,5.9152175979802735,76.51644637841567,1658.0,1435.0,1200.0,1528.0,1551.0,999.0,110.0,293.85,1649416156.4706202,1649416157.5870965,0a66122b-276e-48ec-9d45-7b9d6d448d5d
0.4103620897463647,0.8936292269309402,0.1638634958370923,-0.3410333198227592,-0.2202625282587937,-0.532596717915509,-0.3895388690469675,-0.4171774341480876,-12.353986309436166,26.197688448309343,2.9978404739802302,-0.2514421816681182,3.4653424852782524,0.7212376423502747,4629.867513020833,11.903,0.14,177.92209753889836,5.917972440945513,76.28825658843473,1767.0,1435.0,1200.0,1528.0,1630.0,999.0,110.0,293.85,1649416158.4846344,1649416159.4444425,d7f1db6e-692a-47a2-b070-2f142821db84
0.4362387218261869,0.8921039782966039,0.1624302880019098,-0.3404810744882915,-0.2213275727545201,-0.530598115503536,-0.3916295121419763,-0.4133511627202855,-12.463153770290024,26.266609892560627,3.1279051156877595,-0.2478454800284082,3.4590840942767285,0.7275176233422233,4635.708984375,11.899333333333333,0.1366666666666666,177.97294602053938,5.922562185772153,76.2112621426509,1767.0,1435.0,1200.0,1528.0,1630.0,999.0,110.0,293.85,1649416159.5550487,1649416160.663231,d7f1db6e-692a-47a2-b070-2f142821db84
0.4267306980754716,0.8996032860053218,0.169926561767977,-0.3387636521931408,-0.215102675865498,-0.5404318259105876,-0.3860104663125019,-0.4095516944667266,-12.363351528564282,26.190932141538628,3.0502826014014466,-0.2739077723979597,3.487455137273205,0.7017343679132504,4635.987738715277,11.90611111111111,0.1311111111111111,178.00195459285433,5.920608135055229,76.15526293946579,1767.0,1435.0,1200.0,1528.0,1630.0,999.0,110.0,293.85,1649416160.771859,1649416161.895423,d7f1db6e-692a-47a2-b070-2f142821db84
0.5314145396698987,1.1202232235127647,0.203101732525518,-0.4505908074970846,-0.2421586500774831,-0.6597057113403888,-0.4108412785418717,-0.4339526455947745,-12.299134767470564,26.573845837089245,2.213669274453358,-0.2855882068598573,4.337752350337092,0.7531402675369594,4643.24267578125,11.843666666666667,0.12,178.01451455182809,5.903989763054027,75.95992028811332,1886.0,1435.0,1200.0,1528.0,1710.0,999.0,110.0,293.85,1649416164.0307825,1649416165.1681871,accfb88b-927d-4418-9d08-3ea54e00e003
0.5415036345168674,1.071775337123157,0.2054153972876591,-0.4428027315557621,-0.2306156105509519,-0.6265937421991551,-0.3941399022537273,-0.4253807057359713,-12.252247729082953,26.629963966638783,1.2648467328289963,-0.2283896093911212,4.163309602515393,0.7033628635338995,4633.759982638889,11.840222222222224,0.1222222222222222,178.07351827933812,5.926440073105297,75.90363952935242,1886.0,1435.0,1200.0,1528.0,1710.0,999.0,110.0,293.85,1649416165.2768786,1649416166.397588,accfb88b-927d-4418-9d08-3ea54e00e003
0.5549304749847814,1.108844544506025,0.195301015952637,-0.4414246468733166,-0.2466974793896293,-0.656481750829946,-0.4179339901717218,-0.4418545080653515,-12.380088775164309,26.64664184241783,2.2291446830423056,-0.2989642831751005,4.293889360465712,0.778692947808586,4632.090928819444,11.845,0.12,178.0949711446112,5.930780800618448,75.86968514116845,1886.0,1435.0,1200.0,1528.0,1710.0,999.0,110.0,293.85,1649416166.5057025,1649416167.552328,accfb88b-927d-4418-9d08-3ea54e00e003
-0.2472042099472107,-0.3344852679932996,0.1043787954668612,0.1723181072530625,-0.002020454647578,0.1827187256100015,-0.1482865584415606,-0.1729272172182601,-12.695817222968156,28.56363190718153,1.4958111092888635,0.2102827656879051,-1.1920371508961365,0.0141469319441368,4631.534830729167,11.952666666666667,0.1533333333333333,179.1049223786045,5.96262053377624,75.77789574673248,1449.0,1435.0,1200.0,1528.0,1386.0,999.0,110.0,293.85,1649416168.5365837,1649416169.677639,10379082-e77d-4518-8908-05688fb14cfa
-0.2672559742055785,-0.3473709924794576,0.0927027533596037,0.1771436786118443,-0.0096466986270426,0.1911207421926523,-0.1566359811931572,-0.172453864227915,-12.75928647742337,28.5214818479312,1.450835551161056,0.2173779871406513,-1.2408536599235709,0.0507302981557829,4643.802300347223,11.95188888888889,0.1488888888888888,179.1764132097371,5.964989376189633,75.62666397485978,1449.0,1435.0,1200.0,1528.0,1386.0,999.0,110.0,293.85,1649416169.7907743,1649416170.9030006,10379082-e77d-4518-8908-05688fb14cfa
-0.2544491424604271,-0.3376935504144641,0.1065483303013554,0.1724627429074848,-0.0001007449694145,0.1865318473762036,-0.1456173729059954,-0.1741106005142383,-12.695684027150143,28.65685138850165,1.6273561530534513,0.2192721244752935,-1.2051156735898751,0.0045349841997673,4648.279296875,11.952333333333334,0.15,179.18613636347558,5.964049845723803,75.48482447200576,1449.0,1435.0,1200.0,1528.0,1386.0,999.0,110.0,293.85,1649416171.0123985,1649416172.131819,10379082-e77d-4518-8908-05688fb14cfa
-0.4676815877612195,-0.73575729401352,0.0902176497801579,0.3604101965782258,0.0687458289978667,0.4076666072424109,-0.0741279071716422,-0.0976640746445399,-12.65554453615136,30.178168605272912,2.4137187889881755,0.3016454409148446,-2.729500174355289,-0.21476681433204,4643.24267578125,11.906,0.14,179.34768096208506,5.972153058832246,75.19963827122086,1342.0,1435.0,1200.0,1528.0,1293.0,999.0,110.0,293.85,1649416173.8617814,1649416174.8085315,2f7cbc27-f89b-409e-96b7-fb959aa00aeb
-0.4785191503850192,-0.7316822079062495,0.0834233139469449,0.3536922247323583,0.0626003306981461,0.4091696042434924,-0.0785964412075974,-0.0986482040139642,-12.624044416280915,29.92718930517575,2.2751582905374583,0.3181686587775593,-2.7128188707054592,-0.1904089654772243,4640.72900390625,11.910666666666668,0.1366666666666666,179.38262420987886,5.973499317576777,75.1145637116489,1342.0,1435.0,1200.0,1528.0,1293.0,999.0,110.0,293.85,1649416174.918116,1649416176.0233586,2f7cbc27-f89b-409e-96b7-fb959aa00aeb
-0.4402008062355155,-0.7075007342451187,0.081776186889189,0.3402795440856344,0.0551369284347729,0.4009870700881504,-0.0852385560060929,-0.1060529432722561,-12.64459962899496,29.9037341515428,2.692624446394249,0.3298558299651677,-2.6241315783119616,-0.1651489620244167,4633.206380208333,11.91,0.1366666666666666,179.38810657505266,5.972323955857104,75.04703135459526,1342.0,1435.0,1200.0,1528.0,1293.0,999.0,110.0,293.85,1649416176.1319425,1649416177.2585204,2f7cbc27-f89b-409e-96b7-fb959aa00aeb
-0.6201933592176166,-1.0260280669488602,0.0854972679058873,0.4988922539506711,0.1217087768094759,0.5846611915326249,-0.0155899094630808,-0.0344451404379421,-12.548210133224575,31.76612832652716,5.4567418846163935,0.3978251496088872,-3.8632444010647577,-0.394008820385253,4540.756727430556,11.816222222222224,0.11,179.51696947739356,5.982963540741084,74.9750388840136,1227.0,1435.0,1200.0,1528.0,1189.0,999.0,110.0,293.85,1649416177.8654406,1649416178.8979113,29777df5-fb1b-43ba-a778-261367d350cd
-0.5995104532494783,-1.0086191818218309,0.0900204193561075,0.4901878178102206,0.1225108472580133,0.5759567554470122,-0.0130653597318842,-0.0357994561295744,-12.42909178960444,31.61132447826955,5.533083443948126,0.3971713345806,-3.798114380283156,-0.402576578236925,4515.23779296875,11.817,0.11,179.526841377474,5.996778309815474,74.93083162297555,1227.0,1435.0,1200.0,1528.0,1189.0,999.0,110.0,293.85,1649416179.0286207,1649416179.9891212,29777df5-fb1b-43ba-a778-261367d350cd
-0.6377574948157528,-1.0287038283559076,0.0834106709630588,0.50170354609721,0.1179259981046355,0.5849448999130856,-0.0181377222975979,-0.0375320498454649,-12.36470946651083,31.949629060367844,5.471337984330509,0.3933283401117325,-3.875183567966562,-0.382610252013416,4504.429253472223,11.82422222222222,0.1144444444444444,179.54389104746213,5.987043535269042,74.8711896522331,1227.0,1435.0,1200.0,1528.0,1189.0,999.0,110.0,293.85,1649416180.0982573,1649416181.1442688,29777df5-fb1b-43ba-a778-261367d350cd
0.0100763461069612,0.1369875614968663,0.123036795091535,-0.0283046990557992,-0.0861589647806683,-0.0920232835998264,-0.2405772662374561,-0.2574338970197697,-12.56547673697387,27.185707295363056,1.5803498476755196,0.0373303861395699,0.6004612407136722,0.2907811123981591,4595.119845920139,11.96,0.1577777777777777,179.05413916321555,5.971679736209138,74.81051784074579,1553.0,1435.0,1200.0,1528.0,1471.0,999.0,110.0,293.85,1649416183.487363,1649416184.4350214,46e6e771-146f-4311-a343-3fedc502bc53
-0.0115254450587876,0.133186071215198,0.1105677855354072,-0.0218547576527048,-0.0951840280619541,-0.0895579029278469,-0.2519696014593476,-0.2748028211219447,-12.652212418648531,27.06425017883346,2.155351010810949,0.0269429087795848,0.580134359510824,0.3366872187057323,4607.471082899306,11.958,0.1544444444444444,179.0911071826433,5.985356241384704,74.85213342444877,1553.0,1435.0,1200.0,1528.0,1471.0,999.0,110.0,293.85,1649416184.543134,1649416185.6499932,46e6e771-146f-4311-a343-3fedc502bc53
-0.010001713420672,0.1354097179880892,0.1155814844601803,-0.0173386861060762,-0.0911160235245969,-0.1004778957524805,-0.2505965739884643,-0.2776434456588776,-12.653883750879718,27.16280384821722,1.527685777300415,-0.0069808459825767,0.5938126853960064,0.3217391026711136,4613.25439453125,11.957,0.15,179.1128727187984,6.0003672896331,74.85913968071738,1553.0,1435.0,1200.0,1528.0,1471.0,999.0,110.0,293.85,1649416185.7619498,1649416186.8775797,46e6e771-146f-4311-a343-3fedc502bc53
0.0291975849799586,0.126346220731469,0.0968754414826132,-0.2860930012916468,-0.1369564271925408,0.1701920642811275,-0.1920924551366671,-0.2155451801036512,-12.39975134742561,26.65914459584,3.718494150550404,1.2037014817479217,0.5704982976030867,0.3263976127347466,4616.567545572917,11.962666666666667,0.15,179.10742222784071,6.04355699478042,74.8484481579366,1553.0,1522.0,1200.0,1528.0,1471.0,999.0,110.0,293.85,1649416187.9928358,1649416189.1368878,2518a37e-2dfa-4e27-9687-3925ec2e36a6
0.0330734160789496,0.1306630387590319,0.1030376284555189,-0.2854669209736402,-0.1295233675567131,0.1646918636761206,-0.1860233198302613,-0.2121629306455833,-12.465648915867428,26.453453403509915,3.6697922321351166,1.1888318622632017,0.587897117993344,0.2997300930563405,4623.20703125,11.964,0.15,179.12565883292467,6.09846886979517,74.85057462349819,1553.0,1522.0,1200.0,1528.0,1471.0,999.0,110.0,293.85,1649416189.250883,1649416190.3594449,2518a37e-2dfa-4e27-9687-3925ec2e36a6
0.0250395626021637,0.1233786611974739,0.0968840387005184,-0.2800496573904924,-0.1332050027595975,0.1677686584929714,-0.1912039066214923,-0.2244043684227882,-12.526522294380843,26.460686678719448,3.758234754172212,1.1832508103400277,0.5591662930365233,0.3197539753771869,4621.268663194444,11.962222222222222,0.1422222222222222,179.12846376394384,6.103223677526753,74.84194581784674,1553.0,1522.0,1200.0,1528.0,1471.0,999.0,110.0,293.85,1649416190.4680548,1649416191.5856235,2518a37e-2dfa-4e27-9687-3925ec2e36a6
0.0182866955789503,0.1309482643115705,0.0931078343378182,-0.5770206126578293,-0.1737348506452085,0.4460238795927121,-0.1200654085827585,-0.1428480549657127,-12.2970472284019,26.263230054592675,5.753168934240316,2.477357684546271,0.6045724285744661,0.2801856618413276,4624.871256510417,11.950333333333331,0.1433333333333333,179.10857425308075,6.195036076419318,74.83755400621041,1553.0,1613.0,1200.0,1528.0,1471.0,999.0,110.0,293.85,1649416193.521098,1649416194.657276,2e6e2b14-b770-4c48-97ae-fc0680a99d2a
0.0084722051444931,0.1205779889608611,0.0788440276490675,-0.5631017020059427,-0.1848925318421722,0.4451272397349093,-0.1354139838775945,-0.1545584871773427,-12.33546794530824,26.39260429089109,5.887836946713742,2.444094684734893,0.5621401931239729,0.3356562756382971,4625.7021484375,11.95,0.15,179.11773581348746,6.226338975681093,74.7890960907789,1553.0,1613.0,1200.0,1528.0,1471.0,999.0,110.0,293.85,1649416194.7663498,1649416195.8905156,2e6e2b14-b770-4c48-97ae-fc0680a99d2a
0.0242415378711431,0.1263967926437553,0.0856105489616246,-0.5687394600518255,-0.1798287661683826,0.4439125025953118,-0.1277649821678137,-0.1520647860358077,-12.21754977416582,26.292480247628603,5.843747273797323,2.4538079311426606,0.5846418065862838,0.309361196343046,4630.70068359375,11.950666666666669,0.14,179.11695261846265,6.236663660385215,74.75377794149068,1553.0,1613.0,1200.0,1528.0,1471.0,999.0,110.0,293.85,1649416195.999318,1649416197.1195328,2e6e2b14-b770-4c48-97ae-fc0680a99d2a
0.0253814286921856,0.1103614521697856,0.0704157134205395,-0.8669550465520498,-0.2274285684905561,0.7485070795708547,-0.0622677826212949,-0.0781514086946661,-12.259533576989838,26.289498674737448,8.065459019497618,3.8105305692017737,0.5408591058672855,0.3002023568286058,4630.70068359375,11.933666666666666,0.14,179.1084513096757,6.3712844121964425,74.65307970364728,1553.0,1710.0,1200.0,1528.0,1471.0,999.0,110.0,293.85,1649416198.028346,1649416198.9838605,6cb7e89b-7b0d-405c-96df-d57d6dbfe760
0.0536642744727693,0.1183953054270371,0.0738212257310522,-0.8693218130987822,-0.2265081596521711,0.7428005459463429,-0.0593356232410788,-0.0868426971390854,-12.038038196577196,26.224382436384467,8.087432572915883,3.802898977877285,0.5697346858342898,0.2912958271363079,4625.7021484375,11.934125,0.14,179.11921113434818,6.384715054277822,74.57582172639795,1553.0,1710.0,1200.0,1528.0,1471.0,999.0,110.0,293.85,1649416199.0964425,1649416200.1866767,6cb7e89b-7b0d-405c-96df-d57d6dbfe760
0.043142788847638,0.1178627832388685,0.0702746177970533,-0.8687700734045496,-0.2307420403201128,0.7434246032435772,-0.0640570168325516,-0.0832617000338004,-12.058747507029675,26.34364227741073,8.141007812538678,3.803668834538118,0.5671183988409877,0.3085717377981257,4625.7021484375,11.933444444444444,0.1377777777777778,179.11259951123162,6.392365506478472,74.51802030190935,1553.0,1710.0,1200.0,1528.0,1471.0,999.0,110.0,293.85,1649416200.2952688,1649416201.4193733,6cb7e89b-7b0d-405c-96df-d57d6dbfe760
0.0550651163411039,0.1189121503192283,0.0712986989190463,-0.928773676030196,-0.2425252964125201,0.8004444248867404,-0.0550552167711422,-0.0768390673070602,-12.16404050929069,27.000928077632583,8.569228797755631,4.071576892210374,0.5754678858167904,0.310269806087793,4619.331651475694,11.900777777777778,0.1244444444444444,179.09314865029523,6.477912724627366,74.29430428583474,1553.0,1814.0,1200.0,1528.0,1471.0,999.0,110.0,293.85,1649416203.559169,1649416204.6968784,b7cb2c15-3d76-433a-8137-9f8a5b550914
0.046366748042319,0.1156077818706388,0.068272475934049,-0.9346051260150604,-0.2461654628186824,0.8092146044763093,-0.0565612482466418,-0.0791901554690079,-12.200854734176596,27.091093213809607,8.574008056420583,4.104868239593102,0.5638203577306651,0.3209902178847313,4615.73876953125,11.90277777777778,0.12,179.09539502362225,6.473665200737263,74.19750988055696,1553.0,1814.0,1200.0,1528.0,1471.0,999.0,110.0,293.85,1649416204.822155,1649416205.9244645,b7cb2c15-3d76-433a-8137-9f8a5b550914
0.0485286971295717,0.1241210568069485,0.0809200044734777,-0.9368399000480588,-0.2363428798657239,0.8024925869996464,-0.045724699303362,-0.0734128205032401,-12.098874994489597,27.09856100063905,8.60145660688758,4.095539048285882,0.5958623124650869,0.2760600726521837,4610.77294921875,11.902,0.1244444444444444,179.09945215598924,6.488443737962663,74.11288307783059,1553.0,1814.0,1200.0,1528.0,1471.0,999.0,110.0,293.85,1649416206.0326393,1649416207.161066,b7cb2c15-3d76-433a-8137-9f8a5b550914
-0.0033090268996668,0.1324907074985435,0.1359356658127307,0.320885218455064,-0.0397177677506662,-0.4244355159861739,-0.3261226958398061,-0.3470159776785323,-12.802661127305337,28.361807783823338,-0.8815175561678015,-1.489404224930995,0.5649384182762468,0.3301392077142441,4606.092502170139,11.96288888888889,0.15,179.1024710996024,6.113404359075872,73.97907056507114,1553.0,1349.0,1200.0,1528.0,1471.0,999.0,110.0,293.85,1649416209.4970467,1649416210.6316702,29416d9b-d189-4b98-b686-41078e813af8
-0.0062153945455864,0.1282805961936466,0.1369663212846209,0.3252075991976518,-0.0378354812392984,-0.420753374533975,-0.3260448150816942,-0.3559707476715523,-12.95477845251893,28.50771300321026,-0.3756588598178464,-1.4898575855029943,0.545276812259118,0.3261353656878503,4612.151529947917,11.96411111111111,0.1455555555555555,179.1223621282853,6.105284971700019,74.07559252169204,1553.0,1349.0,1200.0,1528.0,1471.0,999.0,110.0,293.85,1649416210.739746,1649416211.872017,29416d9b-d189-4b98-b686-41078e813af8
-0.0094014248859722,0.1268898687339753,0.1366249608881365,0.3252581710991202,-0.0375194068269167,-0.4216383831249498,-0.3241862971783634,-0.3479803846761025,-12.799193918970026,28.36990533499287,-0.6817104911656862,-1.492861406054284,0.5416418734957854,0.3230899084542192,4615.73876953125,11.963666666666668,0.1455555555555555,179.13186216251086,6.114583942231907,74.18837032853757,1553.0,1349.0,1200.0,1528.0,1471.0,999.0,110.0,293.85,1649416211.9843686,1649416213.089555,29416d9b-d189-4b98-b686-41078e813af8
-0.0478487194718456,0.1257267148684337,0.1530608307679687,0.6269322230000876,0.0054793595220863,-0.7125154467184804,-0.3986281599827037,-0.4213728805528748,-13.269035924261509,29.737273978828537,-2.939542680835421,-2.817717326487554,0.5245384786309839,0.3465396114882177,4623.20703125,11.933333333333334,0.1366666666666666,179.16468198038265,6.023452190662881,74.41242709516077,1553.0,1264.0,1200.0,1528.0,1471.0,999.0,110.0,293.85,1649416214.932902,1649416216.1651194,b8db9175-bdef-46c4-8250-94e6fd17a9af
-0.0401744320775185,0.1265611513410649,0.1569548676091506,0.6249219898273011,0.0098411867117454,-0.7109603599061102,-0.3933939664083231,-0.4179592761377533,-13.27788944456125,29.634680869857554,-2.82903521885303,-2.8101612914393974,0.5272439849191641,0.3281133845838569,4623.20703125,11.937333333333337,0.1377777777777778,179.1577015270509,6.011180854613437,74.55060561661965,1553.0,1264.0,1200.0,1528.0,1471.0,999.0,110.0,293.85,1649416216.2730896,1649416217.3940742,b8db9175-bdef-46c4-8250-94e6fd17a9af
-0.020615745846724,0.1345641557018869,0.1628970666864658,0.6184614291260314,0.0140007262499645,-0.710264995904229,-0.386693187212945,-0.4075920326817469,-13.209291714652531,29.52307670825285,-2.4117618020011,-2.7943681830680687,0.5542465597293936,0.3064016094793454,4620.71484375,11.940111111111111,0.13,179.1592026508485,6.006663775410466,74.6913545659362,1553.0,1264.0,1200.0,1528.0,1471.0,999.0,110.0,293.85,1649416217.5018852,1649416218.6250126,b8db9175-bdef-46c4-8250-94e6fd17a9af
-0.0480277440583563,0.1399854641724928,0.1809830977464944,0.8585485083600972,0.0491279742206795,-0.947201584174412,-0.4433433453843311,-0.4607916698032936,-13.349168352431372,30.784310951115923,-4.072399643452364,-3.859447650119846,0.5618960557374207,0.3143649798182768,4623.20703125,11.919000000000002,0.1244444444444444,179.1719978718937,5.927100324725065,74.87830595043835,1553.0,1178.0,1200.0,1528.0,1471.0,999.0,110.0,293.85,1649416219.5327704,1649416220.667837,cc865325-3d4f-4c96-a12e-0ad9cb87d065
-0.0450824359931146,0.1334242649042179,0.1824031569064299,0.8622301429846874,0.0523099587415812,-0.9457157806162356,-0.4417523527852215,-0.4573598592239385,-13.46083996893598,30.83565706800421,-4.281449138809043,-3.864092164112402,0.5395683609092865,0.3046744316556074,4623.484266493056,11.907888888888888,0.1211111111111111,179.18150397739848,5.915119224283478,75.01515562064873,1553.0,1178.0,1200.0,1528.0,1471.0,999.0,110.0,293.85,1649416220.7767284,1649416221.9026744,cc865325-3d4f-4c96-a12e-0ad9cb87d065
-0.0509968209035769,0.1346526565327668,0.1797375117069033,0.862926012388776,0.0487689137008849,-0.9480415840499514,-0.4447750364011005,-0.4670772532723927,-13.34376667058579,30.854936979445508,-4.372588189317294,-3.8708487847081017,0.5439003863169812,0.3175348409684262,4624.766479492188,11.9195,0.12375,179.16861389261487,5.91348456198704,75.10721642024046,1553.0,1178.0,1200.0,1528.0,1471.0,999.0,110.0,293.85,1649416222.0112553,1649416223.135259,cc865325-3d4f-4c96-a12e-0ad9cb87d065
-0.0372063667128973,0.138762635443073,0.1919096638929182,0.9508654972719538,0.0626711313374085,-1.0344169413238118,-0.4644996025933586,-0.4919803844212177,-13.408822590693068,31.77326784366305,-4.606992268006743,-4.256691972822188,0.5518132643125503,0.3106064821602685,4625.7021484375,11.899888888888889,0.1255555555555555,179.17096423659925,5.834859378893951,75.34623689810655,1553.0,1088.0,1200.0,1528.0,1471.0,999.0,110.0,293.85,1649416225.03641,1649416226.200492,a0156914-0cfd-4239-89b0-37f37f08a3db
-0.0449903950987704,0.144508615554645,0.1889906534433845,0.9414773288581564,0.0591078346589959,-1.033286152773776,-0.4665507996756458,-0.4843541387414414,-13.45018884646496,31.62470815054972,-4.891795699532127,-4.234169921558023,0.5771494843782681,0.3226025221589018,4625.7021484375,11.888777777777776,0.1188888888888888,179.1695147186754,5.87670600323198,75.42170214042622,1553.0,1088.0,1200.0,1528.0,1471.0,999.0,110.0,293.85,1649416226.309296,1649416227.4369576,a0156914-0cfd-4239-89b0-37f37f08a3db
-0.0503267430943077,0.1403040671837328,0.197956041053295,0.9520842801881167,0.0688080324223135,-1.0409675250987112,-0.4590742469219536,-0.4748526865774692,-13.375571653703576,31.703046829048017,-5.118815250934174,-4.2743905691109045,0.5621275616536018,0.2858087647115004,4619.331651475694,11.890555555555556,0.12,179.15564791684045,5.875419081755863,75.50751511933845,1553.0,1088.0,1200.0,1528.0,1471.0,999.0,110.0,293.85,1649416227.5497105,1649416228.653169,a0156914-0cfd-4239-89b0-37f37f08a3db
-0.0027699303646528,0.1229447542365373,0.1187240228032835,-0.0159580729699849,-0.0877762545212152,-0.0887361093734361,-0.2436672102473642,-0.2668089185940881,-12.50331994361244,27.328264590249795,1.6772505799952528,0.0176431589762821,0.5447022932575933,0.301792829506395,4623.20703125,11.964,0.14,179.14476970222236,6.1530916001350535,75.62528199991772,1553.0,1435.0,1200.0,1528.0,1471.0,999.0,110.0,293.85,1649416230.3882563,1649416231.3229246,6de62869-a9b8-403d-86f4-605196d619e3
-0.001126343305626,0.1257717238680029,0.1187634689077428,-0.0177462956921689,-0.0873817935937646,-0.0885651763143749,-0.2429045857435881,-0.2729625091545875,-12.511570187151626,27.211088370995856,1.8656603352276164,0.0213121302075852,0.5539143523801582,0.3007504166439329,4636.545247395833,11.962,0.14,179.1273390594605,6.153103268374886,75.53907135221381,1553.0,1435.0,1200.0,1528.0,1471.0,999.0,110.0,293.85,1649416231.432204,1649416232.548578,6de62869-a9b8-403d-86f4-605196d619e3
-0.0003505702178953,0.1208541115781365,0.1127282174347794,-0.0156162068435683,-0.0924834880104907,-0.0866454665554126,-0.2493474476952822,-0.2717133829596815,-12.593165142303144,27.30394929772646,1.68381271445528,0.0210660264797876,0.5370162488885577,0.3241710756157506,4640.72900390625,11.96288888888889,0.14,179.1087670161973,6.151610397722545,75.45549108625028,1553.0,1435.0,1200.0,1528.0,1471.0,999.0,110.0,293.85,1649416232.6570098,1649416233.776458,6de62869-a9b8-403d-86f4-605196d619e3
0.0401605633941618,0.1523189409090546,0.2797823965788443,-0.0373772997332002,0.0546898727606987,-0.1060397945781178,-0.0774282300563505,-0.1012142227718973,-11.244886128665732,27.273044042549174,1.7590727894338962,0.0353760702618054,0.6580877501194867,-0.3440957717436527,4644.361924913194,11.962777777777776,0.14,179.06141862705095,6.143397569564297,75.3047677840158,1553.0,1435.0,1200.0,1424.0,1471.0,999.0,110.0,293.85,1649416234.8920472,1649416236.0302346,6802dbe9-109c-4bc7-a9d5-d155a2972c1f
0.0476184027805574,0.1635292155520938,0.2883912520719273,-0.0451557652556736,0.060931457717565,-0.1117842580169096,-0.0702394329177059,-0.0919094967979105,-11.251159526263043,27.169134163138946,1.5479265035871963,0.0397168229616089,0.7035505704761589,-0.3735384708922865,4645.759765625,11.957,0.14,179.06560780974192,6.1408971511456425,75.25060514280749,1553.0,1435.0,1200.0,1424.0,1471.0,999.0,110.0,293.85,1649416236.138932,1649416237.4690018,6802dbe9-109c-4bc7-a9d5-d155a2972c1f
0.0438507955806679,0.1551216360033031,0.2864063047758546,-0.0365206115671142,0.0608808858059971,-0.1072833578749528,-0.0721990944735358,-0.0939450162597914,-11.332453753825986,27.310076021830987,2.1302558449318694,0.0312395441610664,0.6662446286624635,-0.3682087240832974,4642.405924479167,11.964666666666668,0.14,179.07013850189136,6.1320765310150005,75.24716955765497,1553.0,1435.0,1200.0,1424.0,1471.0,999.0,110.0,293.85,1649416237.5777037,1649416238.6899078,6802dbe9-109c-4bc7-a9d5-d155a2972c1f
0.1400891365776042,0.1908506882190823,0.5012736849119934,-0.0497325231827504,0.2528518453141685,-0.1429871277805131,0.144994611580439,0.1204545934796376,-9.755280177860843,27.36241617380737,1.956416296308088,-0.0073766302025199,0.8058771891460877,-1.2267618968275005,4645.200412326389,11.952444444444446,0.14,179.00916919772018,6.128031446342799,75.10499689335144,1553.0,1435.0,1200.0,1304.0,1471.0,999.0,110.0,293.85,1649416239.3437586,1649416240.5370462,aff150ad-f614-47d8-a24c-e3a8cfebaefe
0.1409453189739754,0.1912259317619428,0.4994576478357113,-0.0486983275767788,0.2515127012425797,-0.1442630570767723,0.1423127833297773,0.121117085425436,-9.83011737652344,27.36452160492239,1.9457450802994336,-0.0126925471618964,0.8076664156160382,-1.2186579016867165,4643.24267578125,11.953444444444449,0.14,179.02287207501502,6.149142659861793,75.06893121780405,1553.0,1435.0,1200.0,1304.0,1471.0,999.0,110.0,293.85,1649416240.644982,1649416241.760822,aff150ad-f614-47d8-a24c-e3a8cfebaefe
0.1441854610700788,0.1930252801974316,0.5046114305778258,-0.0467614234264031,0.2551149381053749,-0.1463880888513967,0.1470554167969101,0.125916359512948,-9.676410845753262,27.42350500563965,2.1842639522703395,-0.0210739332148707,0.8113024307657313,-1.2366875543060778,4643.24267578125,11.956,0.14,179.00715808646456,6.1491406202914165,74.99727722104126,1553.0,1435.0,1200.0,1304.0,1471.0,999.0,110.0,293.85,1649416241.868543,1649416242.994703,aff150ad-f614-47d8-a24c-e3a8cfebaefe
0.2091607527033874,0.2274637370357068,0.7127031831406443,-0.0232424508731598,0.443036597207588,-0.2153054692478676,0.3451314126461907,0.3167828254026626,-8.211436538562543,27.78318605884225,1.8146541362376587,-0.2155690668898479,0.9436770153064208,-2.0535847825319724,4643.24267578125,11.913222222222222,0.1211111111111111,178.95214015379022,6.123530968294061,74.94725139774027,1553.0,1435.0,1200.0,1166.0,1471.0,999.0,110.0,293.85,1649416243.9047143,1649416244.8508854,0ad297c4-1b3c-4c79-91b4-0a1ac24e08ec
0.1859831421877193,0.2237097844331961,0.7145986180939337,-0.0188330860447562,0.4443676497225292,-0.214622242690986,0.3443996371672292,0.3302395037159992,-8.331491957851345,28.053333957349658,1.9678768072623225,-0.2221309975388573,0.9286709795520728,-2.057333809513787,4642.12548828125,11.92588888888889,0.1244444444444444,178.97453406734897,6.127411511811883,74.96095731067476,1553.0,1435.0,1200.0,1166.0,1471.0,999.0,110.0,293.85,1649416244.959338,1649416246.0659564,0ad297c4-1b3c-4c79-91b4-0a1ac24e08ec
0.1918439204628245,0.2327100665780216,0.7147806769461421,-0.0272528033199683,0.4431023406866737,-0.2181587366208454,0.3452760482955346,0.3183475201541428,-8.235435084243493,27.847811531864348,1.6228478829768336,-0.2124451669655242,0.9658503288806024,-2.056426299405599,4635.708984375,11.929,0.13,178.97268991627303,6.116292248434316,74.9398110450044,1553.0,1435.0,1200.0,1166.0,1471.0,999.0,110.0,293.85,1649416246.174286,1649416247.5074167,0ad297c4-1b3c-4c79-91b4-0a1ac24e08ec
-0.0702358928746323,0.0949511804058526,-0.0656207003173463,0.0131531410631354,-0.255934945307787,-0.078335490135892,-0.4407267542028342,-0.4697853797685843,-13.831181076411788,27.839020757685184,1.5998940413723628,-0.0311270421436759,0.4345312312552842,1.0583046886080931,4627.3671875,11.962666666666667,0.14,179.1712480689048,6.131394650462863,75.11246229011425,1553.0,1435.0,1200.0,1623.0,1471.0,999.0,110.0,293.85,1649416248.4102552,1649416249.5482414,a6537313-c501-43a5-a2a3-501407a27108
-0.066120350804347,0.0927421994682583,-0.0682109935745237,0.0158486238326317,-0.2578546551938492,-0.0793873858779843,-0.4436983602007731,-0.4720864020450147,-13.846626718478124,27.86292828620683,1.4739782107035122,-0.0395694811285804,0.4269758420310308,1.0682393320291697,4630.979383680556,11.961222222222222,0.14,179.15696993789982,6.13596656090667,75.07822710526443,1553.0,1435.0,1200.0,1623.0,1471.0,999.0,110.0,293.85,1649416249.6569357,1649416250.773133,a6537313-c501-43a5-a2a3-501407a27108
-0.0529848027185985,0.0941622586411952,-0.0636483957910689,0.0136790889281888,-0.2532920570372167,-0.0783091927335151,-0.4380707169690288,-0.4664061639671988,-13.834450623787731,27.78367802041329,1.5811071376541324,-0.0325276645369092,0.4318212834574517,1.0481379618620377,4635.152126736111,11.963555555555557,0.1322222222222222,179.1591252420379,6.139389956068793,75.04176983220464,1553.0,1435.0,1200.0,1623.0,1471.0,999.0,110.0,293.85,1649416250.88263,1649416252.0072892,a6537313-c501-43a5-a2a3-501407a27108
-0.1312291581353978,0.0696298259704884,-0.22338382681,0.0524733060187056,-0.397819009269061,-0.082199689857636,-0.612812892402345,-0.6298935605381312,-14.99490383795836,28.289229931137577,1.4017122122297427,-0.1339955126751437,0.3347189214169467,1.707621179217085,4635.708984375,11.951222222222222,0.14,179.18833264874868,6.130663772789801,74.96321203201077,1553.0,1435.0,1200.0,1712.0,1471.0,999.0,110.0,293.85,1649416253.9380045,1649416255.086252,43a51b5b-4643-4587-a491-58ee3eba8926
-0.1196987622006632,0.07324571742813,-0.2249768420983282,0.0500837833291325,-0.3974397198730642,-0.0831731991480556,-0.6137105440661874,-0.6409940980923566,-15.145841453220442,28.05312829927923,1.448207717495018,-0.1325059745526235,0.3491261322570179,1.711027588923748,4640.72900390625,11.956,0.13125,179.1874396015147,6.126415602640481,74.93277936525388,1553.0,1435.0,1200.0,1712.0,1471.0,999.0,110.0,293.85,1649416255.2012756,1649416256.242341,43a51b5b-4643-4587-a491-58ee3eba8926
-0.1230997232850556,0.0618291091017668,-0.2306535394837299,0.0517400133252257,-0.4030784888397302,-0.0763712771120439,-0.6172379358848351,-0.6397930148504826,-14.993460580655572,28.235789955727,1.0035636615865846,-0.1200231462473463,0.3086085726019409,1.7295055897019342,4637.103407118056,11.955,0.14,179.18915834272838,6.117483689557662,74.89733485746599,1553.0,1435.0,1200.0,1712.0,1471.0,999.0,110.0,293.85,1649416256.3528528,1649416257.535319,43a51b5b-4643-4587-a491-58ee3eba8926
-0.175727889717761,0.0406339164569068,-0.3696054418564087,0.1120313365631714,-0.5266535056104604,-0.1011353305923652,-0.778740400797665,-0.7945582901504159,-16.2257731027252,28.930769875826616,1.2645770786219814,-0.3145642136261657,0.2193021877478334,2.3143562038858767,4635.708984375,11.939,0.13,179.197554921948,6.100910947014665,74.86453856580133,1553.0,1435.0,1200.0,1801.0,1471.0,999.0,110.0,293.85,1649416258.446249,1649416259.3996727,e9a815d7-09ea-4c18-be73-ef8bf00629e2
-0.1617245270450509,0.0376754597876209,-0.3709466090928634,0.1148846035817856,-0.5276922528769722,-0.1006225314314509,-0.7803050963642183,-0.809810784340883,-16.2206748302146,28.99999694472126,1.2868367921461026,-0.3194499086842692,0.2075376578658744,2.3195005596654084,4635.708984375,11.94111111111111,0.13,179.21873002619492,6.101220961711992,74.88293302414607,1553.0,1435.0,1200.0,1801.0,1471.0,999.0,110.0,293.85,1649416259.5098848,1649416260.608209,e9a815d7-09ea-4c18-be73-ef8bf00629e2
-0.1767797855115487,0.0467612089281291,-0.36996045672386,0.1099669912889005,-0.5283628365943794,-0.1072626233997363,-0.780318245073158,-0.7969776509867605,-16.14602457911047,28.874465953799536,0.9697594980715624,-0.3240741766459951,0.2445624843714342,2.319801179555544,4637.939019097223,11.938333333333333,0.13,179.21365595455148,6.107050006418037,74.84793892938848,1553.0,1435.0,1200.0,1801.0,1471.0,999.0,110.0,293.85,1649416260.7173865,1649416261.833228,e9a815d7-09ea-4c18-be73-ef8bf00629e2
-0.0136833484694456,0.1055884755158003,0.0503902490602772,-0.0339849360273774,-0.1219102719588317,-0.0587044857949498,-0.2742379328739996,-0.2934087348307062,-12.828474282354074,24.005878195735445,0.8305645838738833,0.1000667059012933,0.4872423649403703,0.4826410781367054,7508.553548177083,11.657111111111114,7.582222222222223,178.3363727971767,5.773148524879147,65.2980428050476,1553.0,1435.0,1350.0,1528.0,1471.0,999.0,110.0,293.85,1649416265.9770043,1649416266.9698708,5bce840c-b272-426b-a0e9-a09a0d97514f
-0.0110536091863847,0.1182375210677155,0.0714281629958234,-0.0406644739070823,-0.1063290659537835,-0.0655549568097588,-0.2548567521261559,-0.2768808215540888,-12.58796889407336,24.05337397531844,0.897939160091057,0.1012343909065568,0.5345414902720848,0.4068629409770526,7518.794921875,11.656,7.616666666666666,178.1457179323246,5.59860062161414,61.21030663711892,1553.0,1435.0,1350.0,1528.0,1471.0,999.0,110.0,293.85,1649416267.0782287,1649416268.1905844,5bce840c-b272-426b-a0e9-a09a0d97514f
-0.017654254822165,0.1123206078786336,0.0676939332885274,-0.0353786978635379,-0.1074992999921792,-0.0645819532553458,-0.2581439265841124,-0.2858350845500337,-12.687156979402172,24.033452901729465,0.8777744215957375,0.0911263020348265,0.5123423565459866,0.4174680140571156,7518.794921875,11.65688888888889,7.616666666666666,178.09253656162704,5.497272393683539,57.81134078492763,1553.0,1435.0,1350.0,1528.0,1471.0,999.0,110.0,293.85,1649416268.3102758,1649416269.4138005,5bce840c-b272-426b-a0e9-a09a0d97514f
0.2196261030038764,0.5014633295561605,0.0797947795244771,-0.2004494638663677,-0.1830906545858344,-0.287433157068471,-0.3403566675814056,-0.3717744717874103,-12.591803246776903,23.246263382366195,1.531465715179651,-0.0417545352385617,1.9864731432788127,0.6679355000035556,7525.396484375,11.62275,7.62875,178.02286161217629,5.450597839458515,51.626328912320815,1658.0,1435.0,1350.0,1528.0,1551.0,999.0,110.0,293.85,1649416271.458298,1649416272.6880963,32dd4cec-83d5-4371-a7a0-44f5c339a225
0.218470029224936,0.5034679998338024,0.0813422799109837,-0.206324908776478,-0.1826572532967395,-0.285835084503437,-0.3386139593568734,-0.363622783954436,-12.611720324416169,23.25225679799818,1.281603663063794,-0.0248429575232057,1.997168962835845,0.6625767853876581,7531.274522569444,11.625111111111112,7.594444444444444,178.02755414186356,5.457741867520314,49.902113396921855,1658.0,1435.0,1350.0,1528.0,1551.0,999.0,110.0,293.85,1649416272.797004,1649416273.9237769,32dd4cec-83d5-4371-a7a0-44f5c339a225
0.214827840523138,0.5077676231127212,0.0838799782663367,-0.2116501313054935,-0.1810005174096051,-0.2843098355244925,-0.3361420040286464,-0.3593494568929011,-12.67499926468268,23.218274059146324,1.4201781844260566,-0.0095118007470439,2.0133308036705886,0.6539802559546182,7529.529479980469,11.62,7.645,178.14646242294415,5.492555104560521,48.40158657684082,1658.0,1435.0,1350.0,1528.0,1551.0,999.0,110.0,293.85,1649416274.0368063,1649416275.154575,32dd4cec-83d5-4371-a7a0-44f5c339a225
0.4327280202292866,0.8892112653631575,0.1000397257534506,-0.3787963821636421,-0.2563425549703874,-0.4964377935462998,-0.4171774341683338,-0.4377157021075589,-12.70374641574372,23.05643359415548,2.267348166604642,-0.1092982945814818,3.4582723751777023,0.8958788496783869,7525.396484375,11.593,7.66,177.92909165260846,5.575783094031243,46.8949279544324,1767.0,1435.0,1350.0,1528.0,1630.0,999.0,110.0,293.85,1649416275.8406012,1649416276.7907038,37ab82c1-5d01-4cff-b9b2-d52747672eae
0.4310581359426434,0.8941288773479914,0.1066535198681468,-0.3811631479619636,-0.2510304810319353,-0.5003561060547993,-0.4098273114334749,-0.4319171258324554,-12.530373152405303,22.941949585387377,2.1397737525622618,-0.113127092138402,3.4773287427131487,0.8697258523958269,7525.396484375,11.588,7.66,178.0684806353703,5.603254589191727,45.99145936959961,1767.0,1435.0,1350.0,1528.0,1630.0,999.0,110.0,293.85,1649416276.8994758,1649416278.2250535,37ab82c1-5d01-4cff-b9b2-d52747672eae
0.3909020208569325,0.8817428065245021,0.094214853385308,-0.3709597577681354,-0.2593273094075928,-0.4961748195465879,-0.4213850178633609,-0.4435011297388825,-12.651535389384367,22.990487068391484,2.2522001519865613,-0.1270882017665204,3.428690592953998,0.9130820791336728,7525.396484375,11.589555555555554,7.662222222222222,178.16887682707036,5.641433733968544,45.23425549129311,1767.0,1435.0,1350.0,1528.0,1630.0,999.0,110.0,293.85,1649416278.3344142,1649416279.38956,37ab82c1-5d01-4cff-b9b2-d52747672eae
0.5757463763208486,1.172591950135079,0.1242727724866271,-0.5039194038105625,-0.3039276932325659,-0.6564706248709986,-0.4669321119350539,-0.4962142663182432,-12.557487795188187,23.213308783490767,2.509221302669168,-0.1843077856110127,4.534887567559024,1.032070317983064,7525.396484375,11.537,7.633333333333334,178.27009567711053,5.726510854861438,43.95783277484075,1886.0,1435.0,1350.0,1528.0,1710.0,999.0,110.0,293.85,1649416281.3839562,1649416282.5222464,23d47070-94ed-422e-9806-1b8e63b94410
0.5634139118569466,1.1852713387750142,0.1257140718460991,-0.5119219047553092,-0.3051838995995156,-0.6656605554967042,-0.4675071146764113,-0.4878623128360058,-12.494886472130624,23.088300297218545,1.926203171736164,-0.187725459102185,4.588241711955528,1.0333721775750817,7525.396484375,11.529555555555556,7.602222222222222,178.32906904822426,5.753711798639799,43.65403430856757,1886.0,1435.0,1350.0,1528.0,1710.0,999.0,110.0,293.85,1649416282.6312149,1649416283.7457027,23d47070-94ed-422e-9806-1b8e63b94410
0.5565361329346915,1.1777199415622288,0.1259426568353505,-0.5089553558626269,-0.3034806375214782,-0.6608622910400463,-0.4662089335861889,-0.4869575812831587,-12.558620653131008,23.16129699706748,1.9501416392946287,-0.1831679059708482,4.559808793408944,1.027963877471136,7518.794921875,11.537,7.639999999999999,178.42754519785765,5.77000421883561,43.376414060108274,1886.0,1435.0,1350.0,1528.0,1710.0,999.0,110.0,293.85,1649416283.854392,1649416284.979065,23d47070-94ed-422e-9806-1b8e63b94410
-0.2523584995202039,-0.3461350148165942,0.058555589413305,0.1520428182801483,-0.017719998349778,0.2092527935582347,-0.1551107323386994,-0.1766877447741569,-12.626113556272536,25.24821712662081,0.8282475433036991,0.2913131423785246,-1.23077238298272,0.1065890389778826,7525.396484375,11.642777777777775,7.704444444444444,179.5342498559937,5.816404634643399,42.95539436947952,1449.0,1435.0,1350.0,1528.0,1386.0,999.0,110.0,293.85,1649416285.8872254,1649416287.0235682,7696795a-3eba-4a2b-bc95-4a4502f08d50
-0.2660033079089666,-0.349661900332606,0.0557225511161722,0.1527700423002535,-0.0188330860598163,0.2144804115249989,-0.1560093952069754,-0.1726728404916181,-12.672079465256362,25.18013972253495,1.16182819938917,0.3008575356221145,-1.2469018204427262,0.113292256297807,7529.805013020833,11.645666666666664,7.680000000000001,179.5808317461332,5.862690028168291,42.68941314282088,1449.0,1435.0,1350.0,1528.0,1386.0,999.0,110.0,293.85,1649416287.132518,1649416288.2571585,7696795a-3eba-4a2b-bc95-4a4502f08d50
-0.2605036120971768,-0.348132099825213,0.0529790250690167,0.1477128515806784,-0.0220191163907468,0.2161492844360086,-0.1585253478685652,-0.1804988443351274,-12.716397631725735,25.15958452665753,0.9305211088232398,0.3156834466476933,-1.2383520215368051,0.1247456226123809,7532.00927734375,11.645,7.690000000000001,179.61819743435262,5.885999613962644,42.48373565634429,1449.0,1435.0,1350.0,1528.0,1386.0,999.0,110.0,293.85,1649416288.3666108,1649416289.4585702,7696795a-3eba-4a2b-bc95-4a4502f08d50
-0.4808707447033624,-0.7498628167362072,0.0537249607358734,0.3247777379937548,0.0613613189282445,0.4474778218491484,-0.0642466614885346,-0.0896337608142817,-12.370911990293182,26.660114822951662,1.3829664490353086,0.4463249254180294,-2.7732694753107765,-0.1708641397080161,7532.00927734375,11.592666666666666,7.667777777777776,179.80881131806967,5.960917065624491,42.14103546819834,1342.0,1435.0,1350.0,1528.0,1293.0,999.0,110.0,293.85,1649416291.4185855,1649416292.556672,09be202f-3783-4674-80be-fda9ea3e3dbe
-0.4675956154733048,-0.7552107983776636,0.0541927508740621,0.3298981433834079,0.0638519854081108,0.4482616863677574,-0.0649420252866323,-0.0913911348063349,-12.587147297591004,26.743564125757093,1.4190168040856657,0.4370093812271701,-2.7927160719056565,-0.1746409490416865,7532.00927734375,11.591111111111111,7.66,179.81429671888316,5.984350638325027,42.05533215176779,1342.0,1435.0,1350.0,1528.0,1293.0,999.0,110.0,293.85,1649416292.6653607,1649416293.7845786,09be202f-3783-4674-80be-fda9ea3e3dbe
-0.4733481714637294,-0.744363119299567,0.0526755936101385,0.3226916468989768,0.0592499417289787,0.446302025073885,-0.0666993991972445,-0.0852340046189265,-12.4153928235311,26.66688847459502,1.6952750405244157,0.4484085086387343,-2.7549049918383663,-0.1620120187462123,7532.00927734375,11.581,7.663333333333333,179.84350716123356,6.028163029051682,42.02806413932634,1342.0,1435.0,1350.0,1528.0,1293.0,999.0,110.0,293.85,1649416293.8968658,1649416295.0175006,09be202f-3783-4674-80be-fda9ea3e3dbe
-0.6421193234756075,-1.0913751090933128,0.0554949775128226,0.487151480695303,0.1305436890169281,0.651497525228334,0.0114468448031092,-0.0135736074492262,-12.22460773152402,28.530367186028904,4.3454132365287785,0.5515411992049359,-4.101287561385405,-0.4116634978708732,7532.00927734375,11.502,7.604444444444444,179.95394221319373,6.170630909309347,42.0352988274772,1227.0,1435.0,1350.0,1528.0,1189.0,999.0,110.0,293.85,1649416296.947078,1649416298.0864277,be8a5fe3-d921-4ad0-952a-9443a871f6b9
-0.6357351235345655,-1.0857100398504498,0.0653271679854219,0.481102069523821,0.1389730145634128,0.6532184871112525,0.0229094737715661,0.0045275961770981,-12.141414410497802,28.410183333300044,4.670045858102393,0.5688409097101994,-4.082140057796464,-0.4516694405551953,7532.00927734375,11.497555555555556,7.622222222222224,179.9462665983865,6.206275864176612,42.09652426374223,1227.0,1435.0,1350.0,1528.0,1189.0,999.0,110.0,293.85,1649416298.194523,1649416299.323882,be8a5fe3-d921-4ad0-952a-9443a871f6b9
-0.6620062279372576,-1.0906145070732145,0.0567147719733236,0.4827588051020569,0.1319121648580265,0.6524558628034621,0.0150465533383904,-0.0084896133634724,-12.127118978644164,28.37265153675664,4.032692376803476,0.562617956990405,-4.09573771960881,-0.4205699855219922,7532.00927734375,11.501444444444443,7.63,179.95398015868918,6.240340104569713,42.14129767157149,1227.0,1435.0,1350.0,1528.0,1189.0,999.0,110.0,293.85,1649416299.4391634,1649416300.5464776,be8a5fe3-d921-4ad0-952a-9443a871f6b9
-0.0041242460965002,0.1210644907117544,0.0691665872680812,-0.041479693120763,-0.1064737016151564,-0.0674483691654582,-0.2571051794486951,-0.2754607617741682,-12.76579400467272,23.856636357680912,0.9017790092909396,0.0973128660000897,0.5463225777033026,0.4136407169317099,7532.00927734375,11.647666666666666,7.699999999999999,179.39555603470745,6.239414661369044,42.25005439427064,1553.0,1435.0,1350.0,1528.0,1471.0,999.0,110.0,293.85,1649416301.454609,1649416302.5908191,0557c98a-8e04-4d1a-adac-6c2234c1b9f1
-0.0143802293660617,0.1300187526636013,0.0674572567723912,-0.0472782683424183,-0.1101947828542431,-0.0704199746370986,-0.2592747145883228,-0.2740407026696432,-12.67133361525072,23.76256357036513,0.9531820309771244,0.1030624465445614,0.5793863239396433,0.4253377167328189,7538.63330078125,11.648999999999996,7.71,179.38433023935156,6.258394286684564,42.249514429871255,1553.0,1435.0,1350.0,1528.0,1471.0,999.0,110.0,293.85,1649416302.700061,1649416303.650554,0557c98a-8e04-4d1a-adac-6c2234c1b9f1
-0.0180487157073156,0.1223267655303774,0.0662607254204309,-0.046910104850348,-0.109629388884896,-0.0631618940039575,-0.2582885622393511,-0.2730939965029423,-12.743026081564356,23.7796533919032,0.9611157968227806,0.1185607239497619,0.5508529077057016,0.4238210993145912,7532.00927734375,11.652,7.699999999999999,179.37377228471453,6.275336618352649,42.22837195875044,1553.0,1435.0,1350.0,1528.0,1471.0,999.0,110.0,293.85,1649416303.7611058,1649416304.8447616,0557c98a-8e04-4d1a-adac-6c2234c1b9f1
-6.129889251573484e-05,0.1145558861993146,0.0479971863565589,-0.3351952977386028,-0.1563467098699447,0.2246367674782126,-0.1949512854165495,-0.2225635505621049,-12.61353304629577,23.202802780876908,3.2320780898647774,1.411277281997969,0.534989867872153,0.4222305179505256,7538.63330078125,11.65277777777778,7.702222222222223,179.362264174873,6.3718887416423815,42.21619486982516,1553.0,1522.0,1350.0,1528.0,1471.0,999.0,110.0,293.85,1649416305.958423,1649416307.0988142,9edb47a0-5f1f-43d2-b055-6ed61929776f
0.005395410117318,0.1090597312673321,0.0526386761328588,-0.3327627885320508,-0.1496934690639255,0.227411142255118,-0.1897575499099123,-0.2191711863738195,-12.778225335280592,23.21052506670985,3.218007052596266,1.4122216900208742,0.5156611907445013,0.3986650337989747,7537.897298177083,11.655666666666669,7.699999999999999,179.33380201769162,6.377078831637943,42.20410429662939,1553.0,1522.0,1350.0,1528.0,1471.0,999.0,110.0,293.85,1649416307.2078094,1649416308.3308764,9edb47a0-5f1f-43d2-b055-6ed61929776f
0.0077358781028528,0.1146479270730445,0.0508504534505087,-0.3369966694390851,-0.1536643756258531,0.2258201500735481,-0.1911513118332707,-0.2084549978090874,-12.579602844494923,23.166545490413704,3.203205838320242,1.417914150803835,0.5357528759507639,0.4092706413678752,7532.00927734375,11.652555555555557,7.695555555555556,179.309135927869,6.37704117073377,42.21864463100748,1553.0,1522.0,1350.0,1528.0,1471.0,999.0,110.0,293.85,1649416308.4390638,1649416309.555483,9edb47a0-5f1f-43d2-b055-6ed61929776f
0.0373598910782683,0.1091780695288992,0.0347038543945055,-0.6931686497821155,-0.2100196928353996,0.5748522650732598,-0.111180935141531,-0.1330209209858995,-12.286858166604643,22.830711968026,5.681084993853626,3.003184716413984,0.5340273196832562,0.3942300189631081,7537.897298177083,11.632444444444443,7.690000000000001,179.27617647057411,6.478696915721447,42.25358977607603,1553.0,1613.0,1350.0,1528.0,1471.0,999.0,110.0,293.85,1649416311.8989277,1649416312.8457267,9ac1ebb5-5ce4-44c2-af6b-b83cfbcad71a
0.0291288071752139,0.1054964346393223,0.0300886619888121,-0.6931686497694258,-0.213293718534842,0.580677136952799,-0.113613444084953,-0.1432111615069032,-12.287217365402345,22.7763087949618,5.969669942715066,3.0157293515695405,0.5173702703996043,0.4084273723331646,7538.63330078125,11.636333333333331,7.683333333333334,179.2608965784909,6.482646804632092,42.27216143988425,1553.0,1613.0,1350.0,1528.0,1471.0,999.0,110.0,293.85,1649416312.9538414,1649416314.0678966,9ac1ebb5-5ce4-44c2-af6b-b83cfbcad71a
0.0411957703743002,0.1127550205665167,0.0420934217042161,-0.6959910690708667,-0.2026493421380971,0.5766890366203884,-0.1029468165029872,-0.1264627554399825,-12.335757309254989,22.73066814737316,6.132307716001128,3.0134309352201045,0.5446042440623993,0.3634462482999457,7538.63330078125,11.635,7.690000000000001,179.26347383653774,6.477985247955427,42.28667521241558,1553.0,1613.0,1350.0,1528.0,1471.0,999.0,110.0,293.85,1649416314.1802108,1649416315.28695,9ac1ebb5-5ce4-44c2-af6b-b83cfbcad71a
0.0244084251817208,0.0981463135525462,0.0230804068210151,-1.0565067652096942,-0.2621279820572236,0.9367175010668882,-0.026108866745079,-0.0502235767544172,-12.27992318795222,22.702913346786577,8.3064861410173,4.634942021217392,0.5133292462230516,0.3591625037433628,7538.63330078125,11.616666666666667,7.674444444444445,179.22925610661576,6.582038673932996,42.30120643987478,1553.0,1710.0,1350.0,1528.0,1471.0,999.0,110.0,293.85,1649416317.429036,1649416318.568425,398a8e9b-9943-4c94-aee4-5b7c42cda762
0.0450518784108795,0.1009864319022125,0.028313587975458,-1.055323381731993,-0.2576705734568427,0.933482922042043,-0.02115180812754,-0.0495266955266149,-12.185755855693664,22.67610284318731,8.436150846519972,4.625154985221783,0.522351309825989,0.339513923140734,7538.63330078125,11.613,7.690000000000001,179.2203480221183,6.573811900805191,42.32279590893128,1553.0,1710.0,1350.0,1528.0,1471.0,999.0,110.0,293.85,1649416318.678572,1649416319.677808,398a8e9b-9943-4c94-aee4-5b7c42cda762
0.0520940167004451,0.0987339591181417,0.0245955412135305,-1.0531680055313466,-0.2603266104447633,0.9320451627909954,-0.0248511433523907,-0.049201518110666,-12.199923355240823,22.65062756444218,8.172147953025368,4.616658919820293,0.51584178313035,0.3528412578261443,7538.63330078125,11.626875,7.6625,179.23758343530636,6.593776152436217,42.3579261331536,1553.0,1710.0,1350.0,1528.0,1471.0,999.0,110.0,293.85,1649416319.7854493,1649416320.8308194,398a8e9b-9943-4c94-aee4-5b7c42cda762
0.0398844407610922,0.0895602150154019,0.0150071072195114,-1.2722638914123516,-0.3005221803839685,1.154538790639672,0.0184257682969409,-0.0015996965182739,-12.145815709562816,23.301741144183605,9.963367539749452,5.615010086942956,0.4915547504798473,0.3583079569470885,7538.63330078125,11.583111111111112,7.67111111111111,179.21752335944151,6.658879630187976,42.3799611771897,1553.0,1802.4444444444443,1350.0,1528.0,1471.0,999.0,110.0,293.85,1649416321.841386,1649416322.863958,2ac71833-5c71-4ab2-b33b-93661066252f
0.0527701631156066,0.0956743586859397,0.0264201756769842,-1.2731711524451388,-0.2908841846447415,1.148148524547431,0.0290236175739446,0.001963600046476,-12.026506843994383,23.25275095688231,9.872566528024786,5.602985979981059,0.5152812349600994,0.3152416427345107,7538.63330078125,11.57633333333333,7.65888888888889,179.20702459977733,6.655128196218216,42.39267860996931,1553.0,1814.0,1350.0,1528.0,1471.0,999.0,110.0,293.85,1649416322.97277,1649416324.0993388,2ac71833-5c71-4ab2-b33b-93661066252f
0.0382014076106722,0.0847740896285018,0.0248554807913177,-1.26359889273727,-0.2883596346311584,1.150396951447969,0.0289841714507162,0.01302165396659,-12.123771473555266,23.219689801711656,9.92166623908438,5.586107611246856,0.4733735402617004,0.3127719256088132,7538.63330078125,11.574666666666666,7.66,179.19648334115826,6.663888103556235,42.42129216967727,1553.0,1814.0,1350.0,1528.0,1471.0,999.0,110.0,293.85,1649416324.2087448,1649416325.3336685,2ac71833-5c71-4ab2-b33b-93661066252f
-0.0332966522950322,0.125916359522015,0.0974570184113577,0.3716073220310587,-0.0404272916758336,-0.4684806240620243,-0.3492320390849138,-0.3753397915792416,-13.171689434534574,25.2870848737748,-1.616555089969343,-1.7253977205480795,0.5406706639976008,0.4160754044643415,7538.63330078125,11.650333333333332,7.692222222222223,179.17799022452547,6.088966985726689,42.47809088445023,1553.0,1349.0,1350.0,1528.0,1471.0,999.0,110.0,293.85,1649416327.4641583,1649416328.6022236,1268a9a4-6dce-4c5e-bc37-ca90a12bf9b6
-0.0181013105038432,0.1199731489477816,0.0941228125065537,0.3766882813091746,-0.0423212097313639,-0.4697853796409705,-0.3521702675011194,-0.3787700850509302,-13.134204483355711,25.304702048677328,-1.98908116164856,-1.739880828490605,0.520579743868224,0.4262022799638779,7539.370659722223,11.653,7.708888888888889,179.1631626427473,6.068453888078764,42.52951044579686,1553.0,1349.0,1350.0,1528.0,1471.0,999.0,110.0,293.85,1649416328.7103207,1649416329.7770004,1268a9a4-6dce-4c5e-bc37-ca90a12bf9b6
-0.0224666778033875,0.1261924821375346,0.0966605108460264,0.3703769075911483,-0.0418347079472945,-0.4679051156208688,-0.3488042006840987,-0.3771659435913332,-13.029842745326953,25.251122870160646,-1.6590664484568274,-1.7215423944862027,0.5411794989174531,0.4185455532991696,7538.63330078125,11.651666666666666,7.696666666666668,179.17150761609324,6.06626452785856,42.54406216382356,1553.0,1349.0,1350.0,1528.0,1471.0,999.0,110.0,293.85,1649416329.8849533,1649416331.0602052,1268a9a4-6dce-4c5e-bc37-ca90a12bf9b6
-0.0303558957125236,0.1244437055772326,0.1088362034028147,0.7518205507113653,0.0052770718612124,-0.8377517773641814,-0.4493128548200606,-0.4738746251786794,-13.470973889891663,26.7656276807338,-4.900495620431407,-3.403173283978351,0.5203051284592004,0.4785148114591767,7571.93115234375,11.632555555555554,7.627777777777778,179.1501200170722,5.9176997076974045,42.71029113383885,1553.0,1264.0,1350.0,1528.0,1471.0,999.0,110.0,293.85,1649416332.9925911,1649416334.135559,97ceb6cd-8e8b-4172-91a1-cd7d1dd6bc7e
-0.0406776226067743,0.1382892824011506,0.1211828289409499,0.7435763189519927,0.0135081558357726,-0.8421039979733339,-0.4392146538311409,-0.4619224576277524,-13.439194087612869,26.768108948029955,-4.583833163843832,-3.3936586346910564,0.5710007522895979,0.4381671418105866,7578.6259765625,11.625888888888888,7.63,179.16860402678608,5.922332757820658,42.77496961018428,1553.0,1264.0,1350.0,1528.0,1471.0,999.0,110.0,293.85,1649416334.243913,1649416335.360541,97ceb6cd-8e8b-4172-91a1-cd7d1dd6bc7e
-0.0413613548141729,0.1429176233561117,0.1285986934724717,0.7173446724651501,0.0182416865463151,-0.8227491075779777,-0.4238569732676635,-0.441594568449343,-13.312146039888226,26.515776135210075,-4.531541115109248,-3.2922246397341364,0.5906926909318111,0.4003413887277589,7578.6259765625,11.622111111111112,7.604444444444444,179.16480947724716,5.929425387523153,42.82716477745666,1553.0,1264.0,1350.0,1528.0,1471.0,999.0,110.0,293.85,1649416335.4704964,1649416336.5954754,97ceb6cd-8e8b-4172-91a1-cd7d1dd6bc7e
-0.0415717339734935,0.1450740094848694,0.1389730145542935,1.0024083828107089,0.0512449143213519,-1.0961501122464288,-0.5017498682371312,-0.5194874647642527,-13.73545927209974,28.026191819064767,-6.056044769244188,-4.539553891670946,0.5808740424677713,0.4518456178052592,7562.285698784723,11.590555555555556,7.653333333333332,179.14271153855248,5.818056402057681,42.9609583174684,1553.0,1178.0,1350.0,1528.0,1471.0,999.0,110.0,293.85,1649416337.3610575,1649416338.4315364,f00de8e9-48de-4713-828f-c24e8a796b49
-0.0371274745021154,0.1415370102856584,0.1418920250423883,1.0031841558270298,0.055281564063617,-1.09395427843575,-0.4972398643002118,-0.5233137359368549,-13.733255644127096,27.97616819270216,-6.105782848740439,-4.536562598481271,0.5681220626687277,0.4354780829514134,7548.224175347223,11.594111111111111,7.655555555555556,179.15217818074208,5.808623151903985,43.038053318815024,1553.0,1178.0,1350.0,1528.0,1471.0,999.0,110.0,293.85,1649416338.5401964,1649416339.6611404,f00de8e9-48de-4713-828f-c24e8a796b49
-0.0470415918013027,0.1483480347601137,0.1410636572135719,1.005287947087877,0.0522836613333946,-1.1031715210649344,-0.5014080020339884,-0.5234189259421376,-13.636708402310898,28.0473658407546,-6.2125283280424535,-4.561558296828634,0.5936199619912521,0.4473553541845117,7545.26953125,11.581777777777775,7.657777777777778,179.1401494587038,5.811114510835617,43.11214834929618,1553.0,1178.0,1350.0,1528.0,1471.0,999.0,110.0,293.85,1649416339.7703054,1649416340.8857987,f00de8e9-48de-4713-828f-c24e8a796b49
-0.0310133305618801,0.1576441627299267,0.1590905192349563,1.0851925695724434,0.07073128210811,-1.1882830973468552,-0.5152141367845389,-0.5380139824129432,-13.776047133298402,28.917452975144656,-6.550331700755168,-4.926519081864173,0.623785835662121,0.4182078836187607,7538.63330078125,11.56522222222222,7.644444444444444,179.1171028826244,5.768263516666512,43.25043235923224,1553.0,1088.0,1350.0,1528.0,1471.0,999.0,110.0,293.85,1649416343.0284595,1649416344.173193,08e07557-c763-4042-bce3-36f1f9d01df4
-0.0658776055995013,0.1474094201559662,0.1440211023214747,1.0763900236452169,0.0567339892532611,-1.1697742699195932,-0.5243752405348918,-0.5471831776846466,-13.722447301705664,28.90763344630908,-6.590481741072535,-4.865865758876871,0.5855041053044513,0.4695267355301871,7538.63330078125,11.564666666666668,7.651111111111111,179.12703245985773,5.7523331439285785,43.28327077039681,1553.0,1088.0,1350.0,1528.0,1471.0,999.0,110.0,293.85,1649416344.282498,1649416345.3956225,08e07557-c763-4042-bce3-36f1f9d01df4
-0.0555103639161332,0.1615821971328192,0.146992201871095,1.086011328747233,0.0580615018551565,-1.1935177998397972,-0.5302036546331175,-0.5531885935750386,-13.819325216873532,28.96812202899629,-6.743331499547953,-4.940448151938272,0.6397058066881994,0.4734582116173448,7538.63330078125,11.574666666666666,7.643333333333334,179.13876824267166,5.755542716224185,43.3156481437924,1553.0,1088.0,1350.0,1528.0,1471.0,999.0,110.0,293.85,1649416345.5045826,1649416346.624933,08e07557-c763-4042-bce3-36f1f9d01df4
0.0082355286051199,0.1177869253815051,0.0757490268659715,-0.0315139924954231,-0.0986734899732174,-0.0746644751281541,-0.2511983797663843,-0.2784313563603705,-12.672032548325772,23.84946158547949,0.7717274817452172,0.0589237986690461,0.5337089166793875,0.3852098153137357,7533.481282552083,11.653,7.678888888888888,179.12120403176598,6.078856787935255,43.3825134190371,1553.0,1435.0,1350.0,1528.0,1471.0,999.0,110.0,293.85,1649416348.3548365,1649416349.492978,98af6c1f-a1c8-4f33-97d4-9a18bb3e6c4c
-0.0172466452292994,0.1136223287850479,0.0695610481474522,-0.0245310231470506,-0.1034100552180924,-0.0755611150988152,-0.2585252388266675,-0.2772226874704429,-12.733975200106409,23.92759291989676,0.925544535008778,0.0413602219233876,0.5159135728008363,0.4102268422675312,7538.63330078125,11.652,7.686666666666667,179.1080232844877,6.099298026301288,43.28497604095959,1553.0,1435.0,1350.0,1528.0,1471.0,999.0,110.0,293.85,1649416349.6015596,1649416350.7216446,98af6c1f-a1c8-4f33-97d4-9a18bb3e6c4c
0.002594737808744,0.1162389192851727,0.0676150411199873,-0.0289621339169563,-0.1066446346726727,-0.0752061002881632,-0.2599847442881736,-0.2869395751723326,-12.645133582567473,23.907066801659155,0.7471925266969418,0.0519368098642832,0.5271011582716655,0.4194598619265028,7538.63330078125,11.652111111111113,7.69888888888889,179.1050013052349,6.104508322273145,43.193670072134864,1553.0,1435.0,1350.0,1528.0,1471.0,999.0,110.0,293.85,1649416350.831135,1649416351.9288225,98af6c1f-a1c8-4f33-97d4-9a18bb3e6c4c
