raw_voltage_G-,raw_voltage_G0,raw_voltage_G1,raw_voltage_G2,raw_voltage_G3,raw_voltage_G4,raw_voltage_G5,raw_voltage_G6,load_x,load_y,load_z,load_l,load_m,load_n,rpm,voltage,current,roll,pitch,yaw,aileron1_pwm,elevator_pwm,throttle_pwm,rudder_pwm,aileron2_pwm,pbaro,pdiff,Tt,sample_start_time,sample_end_time,uid
-0.0488448807427643,0.0351492665207645,-0.0492283844027511,-0.0333677690575283,-0.0828739819916204,-0.1135679714841337,-0.234309994226821,-0.2581830987969993,-12.001875798860388,9.575699784631372,-16.74935207170013,-0.1276170401688314,0.3663763984464173,0.4816023366154524,1927.8722534179688,11916.0,34.75,0.0026875451439991,-0.0155416948255151,-1.7248993515968325,1500.0,1000.0,1200.0,1500.0,0.0,1021.7000000000002,250.0,289.15,1635949600.4750664,1635949602.1641018,21a67865-9b42-43fc-acb3-77937dd012e1
-0.0482970183796183,0.0351150251237215,-0.0487216117185307,-0.0319912648681841,-0.082312423063937,-0.1142391028902228,-0.2344401115502061,-0.2581488574042249,-12.031155940414465,9.605823559297963,-16.668142239732536,-0.1320070837775087,0.3655986097781175,0.4804215711959531,1965.3602752685547,11905.125,35.0,0.0024519331200281,-0.0155109611805528,-1.7101801931858065,1500.0,1000.0,1200.0,1500.0,0.0,1021.7000000000002,250.0,289.15,1635949602.2732372,1635949603.894355,21a67865-9b42-43fc-acb3-77937dd012e1
-0.0484545288087222,0.0354505908117901,-0.0488585773073681,-0.032641851425158,-0.0819837056404935,-0.1139103854653785,-0.2337484352578997,-0.2571627050436962,-12.018158217626256,9.530549239308858,-16.656870981898198,-0.1302983310623576,0.3667354352092604,0.4792665254856987,1967.5314712524407,11908.3125,35.0,0.0025317445688415,-0.0155585974571295,-1.698962263762951,1500.0,1000.0,1200.0,1500.0,0.0,1021.7000000000002,250.0,289.15,1635949604.0039015,1635949605.648906,21a67865-9b42-43fc-acb3-77937dd012e1
-0.048297018379354,0.0356354943535776,-0.0516184339650226,-0.0380040542807756,-0.0842436379192071,-0.1086098169786852,-0.2343647804716564,-0.2588679268007041,-12.04494264993332,9.422265691284064,-16.591128189918454,-0.107149680012679,0.367519238162461,0.4870779596703281,1960.051490783692,11896.8125,34.0,0.0025530921266181,-0.0156992379925213,-1.673780545592308,1500.0,1250.0,1200.0,1500.0,0.0,1021.7000000000002,250.0,289.15,1635949610.4926493,1635949612.001457,c312ee0c-8a00-4861-9498-c743daf639a3
-0.0477583356256185,0.0360296346854787,-0.0516539867328455,-0.0389319232962799,-0.0844697768529453,-0.1078646658619792,-0.2343019802836143,-0.2611519011579506,-12.047477225628494,9.424655335016432,-16.55169586994505,-0.1033630999439362,0.3687779826958172,0.4874374352679379,1965.219627380371,11903.6875,34.1875,0.0023610450152773,-0.0156480076839216,-1.6695347353816032,1500.0,1250.0,1200.0,1500.0,0.0,1021.7000000000002,250.0,289.15,1635949612.1343153,1635949613.5776556,c312ee0c-8a00-4861-9498-c743daf639a3
-0.0479888457997236,0.0355738598400309,-0.0515978891239121,-0.0381615647033864,-0.0838532859776119,-0.108746782566267,-0.2336457110620117,-0.2575188156105656,-12.017919851756377,9.363469229149858,-16.636364649028067,-0.1074845092729514,0.3675174383247332,0.4854648676750935,1966.3466033935547,11900.3125,34.625,0.0024145292991306,-0.0159218506887555,-1.666317991912365,1500.0,1250.0,1200.0,1500.0,0.0,1021.7000000000002,250.0,289.15,1635949613.687167,1635949615.2709117,c312ee0c-8a00-4861-9498-c743daf639a3
-0.0482166559143827,0.0352373158275586,-0.0544220357536596,-0.04815627925755,-0.0871193563211615,-0.098852555784572,-0.2337206228520508,-0.2606888704800364,-12.059952217324264,9.317384625350233,-16.595462414038316,-0.0631659953039268,0.3672409188212216,0.4937885069893948,1967.9546508789065,11898.0,35.0,0.0027323520043864,-0.0160850137472152,-1.6603190898895264,1500.0,1500.0,1200.0,1500.0,0.0,1021.7000000000002,250.0,289.15,1635949619.4248316,1635949620.8932593,886baeaa-98e8-4f9e-9f4e-b00306ff812d
-0.0483175632178192,0.0352519907114107,-0.0546933114815228,-0.0479066664529486,-0.0874965707465096,-0.0989879840068795,-0.2341456354995624,-0.2606553279044259,-12.05536054297418,9.330604015210966,-16.5828670416911,-0.0639549416143028,0.3671041214269442,0.4952967073413764,1967.0233154296875,11898.375,34.125,0.0028201428212923,-0.0160682769492268,-1.6597030013799667,1500.0,1500.0,1200.0,1500.0,0.0,1021.7000000000002,250.0,289.15,1635949621.003255,1635949622.571864,886baeaa-98e8-4f9e-9f4e-b00306ff812d
-0.0484545288084826,0.0353684114605145,-0.0548919115865536,-0.0481942941974209,-0.0878047433282767,-0.0989468943311199,-0.2343579321808379,-0.256635387514723,-12.05103647021896,9.334306609520842,-16.60010067794744,-0.0631997044316336,0.3676857923163066,0.4962781913482647,1968.916488647461,11899.8125,34.0,0.0027224607329117,-0.0160019254544749,-1.659337356686592,1500.0,1500.0,1200.0,1500.0,0.0,1021.7000000000002,250.0,289.15,1635949622.6804812,1635949624.2837954,886baeaa-98e8-4f9e-9f4e-b00306ff812d
-0.0485024667659876,0.0348068525545123,-0.0565012572838986,-0.0554877119142222,-0.0897565030276295,-0.0914822694986929,-0.2339744285040986,-0.2590596786476609,-12.087150202435938,9.311410871538664,-16.576173606475418,-0.0302198101726397,0.3664187076784675,0.5004702370384505,1970.329818725586,11887.0625,34.0,0.002592928125523,-0.0161186556797474,-1.6602675840258598,1500.0,1750.0,1200.0,1500.0,0.0,1021.7000000000002,250.0,289.15,1635949628.0128949,1635949629.6076834,62b15e0e-507c-4d4f-8eb9-49098dcf7b33
-0.0483107149387985,0.0351561148003308,-0.0558095810482493,-0.0557821879407308,-0.0894551787226669,-0.0917972903666519,-0.2332279659775047,-0.2571627050702295,-12.048699604729752,9.318605373924957,-16.605593071947464,-0.0301666388535124,0.3677974804528605,0.4980763098907912,1972.1430053710933,11894.25,34.0,0.0027722052764147,-0.0161563816945999,-1.66060309112072,1500.0,1750.0,1200.0,1500.0,0.0,1021.7000000000002,250.0,289.15,1635949629.7179654,1635949631.338424,62b15e0e-507c-4d4f-8eb9-49098dcf7b33
-0.0488740907507359,0.0351501050858502,-0.0565821787914499,-0.0563742147305553,-0.0899973109015302,-0.0917146917362317,-0.2335529098801131,-0.2572876511957962,-12.038389467324803,9.28020142469505,-16.6759633136577,-0.0289446435035839,0.3683489187150791,0.5002483028433388,1973.8460693359373,11886.0625,34.5,0.0027515518304426,-0.0159913427196443,-1.6608855053782463,1500.0,1750.0,1200.0,1500.0,0.0,1021.7000000000002,250.0,289.15,1635949631.4491842,1635949633.0894184,62b15e0e-507c-4d4f-8eb9-49098dcf7b33
-0.0485641012811768,0.0343685626771401,-0.0566793125531765,-0.0610348183719507,-0.0904276344335742,-0.0869007704233815,-0.2325773793684911,-0.2570805256942275,-12.073836924127264,9.291299675002934,-16.707126154253988,-0.0075680154422866,0.3665125938839228,0.4993691475248219,1974.6987762451167,11876.625,37.375,0.0026416083564981,-0.0160765552427619,-1.6645279079675674,1500.0,2000.0,1200.0,1500.0,0.0,1021.7000000000002,250.0,289.15,1635949638.0486972,1635949639.643243,97a75c1f-e2ea-4455-b640-18fc18e6ac8f
-0.0488243359038424,0.0341905074140746,-0.0567340987874646,-0.0612608115948216,-0.0906399311012005,-0.0866336875156751,-0.2328033726096306,-0.2573065189953311,-12.082248474607482,9.314538854033367,-16.72484822000378,-0.0063137909682218,0.3660861290678667,0.4999908073153569,1973.7040100097656,11876.375,37.6875,0.0027954831602983,-0.0162161169573664,-1.6658890694379809,1500.0,2000.0,1200.0,1500.0,0.0,1021.7000000000002,250.0,289.15,1635949639.7519062,1635949641.2846746,97a75c1f-e2ea-4455-b640-18fc18e6ac8f
-0.0486599771953209,0.0339165762404852,-0.0572545680363319,-0.0606650112829345,-0.0905782965862118,-0.0871815498932602,-0.2331457866176109,-0.2550808278768611,-12.099041627135742,9.274243164377282,-16.76561690865258,-0.0091968833132012,0.3654318761479607,0.5010232122789784,1974.130256652832,11875.5625,37.4375,0.0026153625076403,-0.0161368873668834,-1.666666030883789,1500.0,2000.0,1200.0,1500.0,0.0,1021.7000000000002,250.0,289.15,1635949641.3931904,1635949643.1284916,97a75c1f-e2ea-4455-b640-18fc18e6ac8f
-0.045730079231461,0.0390440432298407,-0.055724487778614,0.0216709783412755,-0.0627394574021687,-0.1746082922988807,-0.2352181929816083,-0.2590397167851485,-12.002006374545925,7.269679101802968,-17.67957047548794,-0.4046954210579338,0.3820022307692479,0.4649145763114947,4965.1685791015625,11473.75,369.8125,0.0018139785752282,-0.0145006910315714,-1.5533385127782822,1500.0,1000.0,1275.0,1500.0,0.0,1021.7000000000002,250.0,289.15,1635949646.908541,1635949648.54566,58bf9f2e-c1af-43a6-be86-5c17b6cd1116
-0.0472903213024753,0.0372996262034718,-0.0571997820119323,0.0231579291938219,-0.0629660334302308,-0.1742094892922613,-0.2358440091963834,-0.2585186646766166,-12.014965639182767,7.199253242462926,-17.67838172244038,-0.4077001094747786,0.3752629972841168,0.4679486795029914,4980.314392089844,11473.0,371.125,0.0019342469313414,-0.0144590847194194,-1.4926632717251778,1500.0,1000.0,1275.0,1500.0,0.0,1021.7000000000002,250.0,289.15,1635949648.6538455,1635949650.2923572,58bf9f2e-c1af-43a6-be86-5c17b6cd1116
-0.0473040178557927,0.037977605859126,-0.0575558925332505,0.0226032185057578,-0.0631372404242152,-0.173736958099972,-0.2359467333936999,-0.2588473820821193,-12.026958535374709,7.165776554189329,-17.590738700943188,-0.4056186964366666,0.3771590915915754,0.4690196819683681,4989.190673828125,11473.75,372.75,0.0019026122172363,-0.0143816033378243,-1.4460159242153168,1500.0,1000.0,1275.0,1500.0,0.0,1021.7000000000002,250.0,289.15,1635949650.401022,1635949652.0240448,58bf9f2e-c1af-43a6-be86-5c17b6cd1116
-0.0472149902232991,0.0376694332850052,-0.0696362577279595,-0.0198903552241838,-0.0764845373411712,-0.1330102379327774,-0.234220966833443,-0.2583953956162169,-12.051202671219562,6.786358952210797,-17.441910725196426,-0.2213504334505065,0.3793153955568575,0.5011477242666805,4988.826171875,11479.75,374.0,0.0018943036557175,-0.0160592893371358,-1.3456607162952423,1500.0,1250.0,1275.0,1500.0,0.0,1021.7000000000002,250.0,289.15,1635949657.299596,1635949658.7891169,29872454-39c1-4adc-9b26-0d5f0290d856
-0.0465301622720151,0.037881729950857,-0.0699992165988288,-0.0225474876704363,-0.0772720895306369,-0.1295724014859,-0.2343853256285576,-0.2561697046732245,-12.097136064314949,6.823353738683564,-17.273787236821384,-0.207400467992603,0.3792514357855309,0.5031413712347164,4995.367980957031,11490.0625,371.75,0.0021490653743967,-0.0163103877566754,-1.3323237597942352,1500.0,1250.0,1275.0,1500.0,0.0,1021.7000000000002,250.0,289.15,1635949658.9229195,1635949660.5336895,29872454-39c1-4adc-9b26-0d5f0290d856
-0.0462014448558782,0.0390801788276673,-0.0708004652474305,-0.0198766588299928,-0.078162365832856,-0.1336265832899724,-0.2360220645260791,-0.2594774238714392,-12.044228706489465,6.814670692173017,-17.34308785103539,-0.2226173638368186,0.3836063137001067,0.5078877684740224,4994.458435058594,11499.5625,372.0625,0.0023126498272176,-0.0164403612725436,-1.3225937485694883,1500.0,1250.0,1275.0,1500.0,0.0,1021.7000000000002,250.0,289.15,1635949660.6437924,1635949662.170776,29872454-39c1-4adc-9b26-0d5f0290d856
-0.0456946721670641,0.0384706819754738,-0.0833533617187135,-0.0940777678827907,-0.0961870378238808,-0.0612950533241832,-0.2273315970061594,-0.254731565706614,-12.097978205671778,6.502586464967912,-16.869878324145716,0.1046552462285593,0.3858413768553622,0.5372091946836065,4995.369476318359,11488.125,373.625,0.0017368335466017,-0.0180645802756771,-1.298698917031288,1500.0,1500.0,1275.0,1500.0,0.0,1021.7000000000002,250.0,289.15,1635949666.9248688,1635949668.5198252,f10ebfe7-692e-409d-854b-5e9b4f67c1fc
-0.0452824640194318,0.0372046245353454,-0.0838892761264704,-0.0944292157154045,-0.0960378328682901,-0.0601446879624518,-0.227692661704434,-0.2517519810025635,-12.169633669087256,6.491018572448969,-16.931594453764287,0.1078837736408839,0.3821561404040633,0.5379618791886748,5000.833984375,11501.125,372.0,0.001879261159047,-0.0182174755027517,-1.2949036732316015,1500.0,1500.0,1275.0,1500.0,0.0,1021.7000000000002,250.0,289.15,1635949668.6289606,1635949670.3654528,f10ebfe7-692e-409d-854b-5e9b4f67c1fc
-0.0457289135845897,0.0366969776058183,-0.08499010070966,-0.094255823047316,-0.0967280520726276,-0.0593022039164358,-0.2280438183757535,-0.2532386407741224,-12.145790051494991,6.448249624886524,-16.865083887203074,0.1090700866079624,0.3794020549436936,0.5409706299241422,5009.9678955078125,11506.5,375.5,0.0017990734049817,-0.0185332878027111,-1.2916644662618637,1500.0,1500.0,1275.0,1500.0,0.0,1021.7000000000002,250.0,289.15,1635949670.4735806,1635949672.093192,f10ebfe7-692e-409d-854b-5e9b4f67c1fc
-0.0452152926111255,0.0365942534173091,-0.0933929398559046,-0.1493159921530526,-0.1114929431349203,-0.0066663276309352,-0.22261313236844,-0.2492666382571559,-12.126062620983737,6.427922597176359,-16.615879436820116,0.3510486796672564,0.3829145035154051,0.5646812173067334,5025.755859375,11545.0,375.5,0.0008494716894347,-0.0189763056114316,-1.2874568700790403,1500.0,1750.0,1275.0,1500.0,0.0,1021.7000000000002,250.0,289.15,1635949676.9607377,1635949678.558911,d3082c6f-a602-4c34-a065-95f2b58b466e
-0.0444893749726111,0.0373064744805435,-0.0921465527711516,-0.1537331327605798,-0.1108286597457122,-0.0020711321402721,-0.2211681450153138,-0.2457397739114948,-12.21784963998298,6.470324714174787,-16.43142497016348,0.3716650348735644,0.3852241741617992,0.5602461366160612,5024.2822265625,11552.375,375.375,0.0008616392042313,-0.0192603485193103,-1.287989892065525,1500.0,1750.0,1275.0,1500.0,0.0,1021.7000000000002,250.0,289.15,1635949678.6678874,1635949680.289025,d3082c6f-a602-4c34-a065-95f2b58b466e
-0.0447975475680576,0.0364778326750314,-0.0943585474112772,-0.1523840214901559,-0.1126845438555607,-0.0031942499138545,-0.2225651946143389,-0.2448221046100616,-12.121656420873826,6.415008903625708,-16.543576923470855,0.3656516805732388,0.3821221602973342,0.5676215668189052,5027.2294921875,11554.8125,374.625,0.0010035562590928,-0.0189303285442292,-1.288411282002926,1500.0,1750.0,1275.0,1500.0,0.0,1021.7000000000002,250.0,289.15,1635949680.3971264,1635949682.0412755,d3082c6f-a602-4c34-a065-95f2b58b466e
-0.0437703056295505,0.0357039771071995,-0.0967006589836938,-0.1935969699207113,-0.1209709622890787,0.038429592060433,-0.2160798732178604,-0.2397064393904172,-12.189195070786228,6.586718844279278,-16.11519313813979,0.5532082796646686,0.380829629472817,0.5728983059776729,5039.05126953125,11538.6875,382.3125,0.0004645304088626,-0.0191996307112276,-1.2917891591787338,1500.0,2000.0,1275.0,1500.0,0.0,1021.7000000000002,250.0,289.15,1635949687.0008638,1635949688.593787,94e996a5-3bd0-4aa1-b692-f8f18c4bb7bd
-0.0431471121884546,0.0367038258961499,-0.0948447750802001,-0.1933572801073475,-0.1195191268861808,0.036210749535725,-0.2147718516090303,-0.2391654250673178,-12.169281815234877,6.595080770409319,-16.247919214375205,0.5478182721205943,0.3857033610815621,0.5664751144863304,5055.033447265625,11545.875,385.75,0.0003873953046422,-0.0189798476640135,-1.2934678196907043,1500.0,2000.0,1275.0,1500.0,0.0,1021.7000000000002,250.0,289.15,1635949688.7026188,1635949690.4379222,94e996a5-3bd0-4aa1-b692-f8f18c4bb7bd
-0.0428594844551394,0.0357998529958159,-0.0952830648775224,-0.1928025702002146,-0.118861691893133,0.037196901218129,-0.214436285831504,-0.240596715550916,-12.207998184828773,6.524351289265027,-16.160420425399906,0.5482867577750409,0.3817141570573643,0.5657201729955741,5053.348449707031,11563.0625,380.6875,0.0006207986043591,-0.0196102173067629,-1.294875629246235,1500.0,2000.0,1275.0,1500.0,0.0,1021.7000000000002,250.0,289.15,1635949690.546653,1635949692.1638858,94e996a5-3bd0-4aa1-b692-f8f18c4bb7bd
-0.0444688301449093,0.0423468080533124,-0.0658765523784544,0.0703973590801509,-0.0459138175182068,-0.2284204748861701,-0.23789849349906,-0.2591624031221244,-12.081768455786772,4.910252187975431,-18.51092244077548,-0.6518524609953009,0.3956395333153715,0.4602189016604699,6679.793060302734,11064.25,795.1875,-1.7243678485101555e-05,-0.0161706676008179,-1.2215233892202375,1500.0,1000.0,1350.0,1500.0,0.0,1021.7000000000002,250.0,289.15,1635949696.0993576,1635949697.6011405,2aa74402-4e29-4505-9152-b50e7c4bdf6c
-0.0444598854634748,0.0416707850440928,-0.0642634331802256,0.07995629984681,-0.043755491341784,-0.2368937527064283,-0.2389264343853025,-0.2603869874063016,-12.064000956862222,4.978186367080329,-18.5569498309536,-0.6919234029219751,0.3923127266876287,0.4564655341913288,6675.56591796875,11071.25,795.375,0.0003022394121217,-0.0153473893878981,-1.1823837608098984,1500.0,1000.0,1350.0,1500.0,0.0,1021.7000000000002,250.0,289.15,1635949697.709979,1635949699.3318424,2aa74402-4e29-4505-9152-b50e7c4bdf6c
-0.0443524093876001,0.0431480567561235,-0.0648287656393717,0.0768484384462564,-0.0452700792069543,-0.2346044711006409,-0.2390627012876907,-0.2629905918203271,-12.027701174773211,4.992479180136783,-18.43571536660337,-0.679664310731703,0.3968690224408776,0.4598350928315655,6681.419982910156,11075.25,796.0,0.0004971341404598,-0.0144389570923522,-1.1515319347381592,1500.0,1000.0,1350.0,1500.0,0.0,1021.7000000000002,250.0,289.15,1635949699.4418724,1635949701.0978673,2aa74402-4e29-4505-9152-b50e7c4bdf6c
-0.0450029959462632,0.0402854759825069,-0.0884210888015878,-0.0068854728108992,-0.0710127620324966,-0.1507198896426593,-0.2352413607520674,-0.260648480052387,-12.149615730702678,4.299577038716506,-17.938186708154266,-0.3080313988055776,0.3913879594749985,0.5214359993018297,6654.833984375,11042.375,790.125,0.0010600674286251,-0.0143998157000169,-1.0883754342794418,1500.0,1250.0,1350.0,1500.0,0.0,1021.7000000000002,250.0,289.15,1635949706.041212,1635949707.5289009,d05c08fa-c76e-4e0f-a81d-d60d19aeaf75
-0.0435922503676916,0.0415181662745114,-0.0865720536084337,-0.0111040127741956,-0.0703073894968134,-0.1487544332230551,-0.2329197942388336,-0.2591281619730579,-12.1181022355511,4.318741339676566,-18.023597280289582,-0.2938774029634238,0.3971821810621097,0.5146552776311694,6669.3984375,11050.25,791.5,0.0010216002701781,-0.0146517991670407,-1.0796565264463425,1500.0,1250.0,1350.0,1500.0,0.0,1021.7000000000002,250.0,289.15,1635949707.637881,1635949709.252321,d05c08fa-c76e-4e0f-a81d-d60d19aeaf75
-0.0447016716496714,0.0414017454913138,-0.0865652050297915,-0.0073853980015425,-0.0697595268929057,-0.1522059675989065,-0.2341387876361566,-0.2601485554173249,-12.155192179739998,4.332907310978628,-18.04831642234968,-0.3099501069823356,0.3967699643188356,0.5155872226528326,6672.643829345703,11054.25,791.5625,0.0012608758188434,-0.0143669434473849,-1.07233177870512,1500.0,1250.0,1350.0,1500.0,0.0,1021.7000000000002,250.0,289.15,1635949709.3659544,1635949710.9127915,d05c08fa-c76e-4e0f-a81d-d60d19aeaf75
-0.043653884914603,0.03930617201779,-0.1112190126147527,-0.1352222326018082,-0.1040214706491256,-0.0248211166957095,-0.2221885398973274,-0.2453425742867518,-12.258910116187186,3.856089847914022,-17.009141423311448,0.2603942062990358,0.3946026420574282,0.5790588527863787,6675.56591796875,11055.5,791.5,0.0014331085549201,-0.0156751275062561,-1.05580273270607,1500.0,1500.0,1350.0,1500.0,0.0,1021.7000000000002,250.0,289.15,1635949714.956833,1635949716.647917,99699fbb-5ea2-4b99-9091-b4fe49d486b0
-0.0440647816483442,0.0400457862181269,-0.1128968404483103,-0.1360029364870932,-0.1059184434122223,-0.0252731030688963,-0.2240649677757267,-0.2491981555333444,-12.254249642322373,3.855561347226612,-17.08622821148816,0.2610426190245862,0.3980166246182817,0.5865786958569258,6675.56591796875,11059.75,790.125,0.0011315210940665,-0.0157932371366769,-1.052233450114727,1500.0,1500.0,1350.0,1500.0,0.0,1021.7000000000002,250.0,289.15,1635949716.757489,1635949718.3120642,99699fbb-5ea2-4b99-9091-b4fe49d486b0
-0.0430512362822153,0.0400252413459719,-0.1124996400303315,-0.1382286271621692,-0.1056239671898227,-0.02199962533054,-0.2224693183036369,-0.2462054571175991,-12.233757904249051,3.8260808324383135,-16.907282571262353,0.2732823614737306,0.3965072532563108,0.5836211316136843,6675.56591796875,11057.0625,791.875,0.0006748408941348,-0.0152811641455627,-1.050206258893013,1500.0,1500.0,1350.0,1500.0,0.0,1021.7000000000002,250.0,289.15,1635949718.4220989,1635949720.1362686,99699fbb-5ea2-4b99-9091-b4fe49d486b0
-0.0411337180292942,0.0383200198119113,-0.1292505328217679,-0.2433154829659511,-0.1335307076583923,0.0814984204704341,-0.2125735542677036,-0.2383436317566881,-12.314866121585814,3.783649360644682,-16.213975734909653,0.7418608132685724,0.3964167430951471,0.6301857708334939,6678.492401123047,11052.0,791.5625,0.0007994141669769,-0.0162705652182921,-1.0489304587244987,1500.0,1750.0,1350.0,1500.0,0.0,1021.7000000000002,250.0,289.15,1635949723.9542265,1635949725.3953085,09ef286b-caeb-4288-843e-667a0e15a55b
-0.043140263906698,0.0374434400743552,-0.1290108428942954,-0.2373437832845754,-0.132407589714106,0.076718321213092,-0.2140390859578907,-0.2375560794226737,-12.365177550151492,3.813471908822743,-16.238674391905487,0.7178289702142594,0.3929844884058496,0.6302799598828115,6680.7685546875,11052.875,791.0625,0.0012211239081807,-0.0169806655030697,-1.049411579966545,1500.0,1750.0,1350.0,1500.0,0.0,1021.7000000000002,250.0,289.15,1635949725.5054083,1635949727.092572,09ef286b-caeb-4288-843e-667a0e15a55b
-0.0434689813513991,0.037888578188489,-0.1326746726171776,-0.240945978534275,-0.1365918886321818,0.0804506333619962,-0.2163880462238601,-0.2410144610324266,-12.305282769255443,3.7899843979489134,-16.140884082559012,0.7340492459409408,0.3935742351318508,0.6445294759627845,6680.7685546875,11051.1875,791.1875,0.0007286620366357,-0.0159822106361389,-1.050519272685051,1500.0,1750.0,1350.0,1500.0,0.0,1021.7000000000002,250.0,289.15,1635949727.202285,1635949728.7314084,09ef286b-caeb-4288-843e-667a0e15a55b
-0.0407159729653757,0.0384638336713556,-0.1378588199844722,-0.311592837160303,-0.1527949182457885,0.1484198043603725,-0.2072318952868287,-0.2342072702971606,-12.35168290453457,4.096564336148212,-15.63486723851083,1.0479785779361537,0.3999500796886319,0.6606343285976656,6675.56591796875,11004.25,795.1875,0.0006992973176238,-0.0166969653218984,-1.0561418235301971,1500.0,2000.0,1350.0,1500.0,0.0,1021.7000000000002,250.0,289.15,1635949732.9044435,1635949734.3664265,e5094722-4f41-4726-9050-29f1a63df22c
-0.0428135864235963,0.0361974903510389,-0.1402678123928123,-0.3071093992845959,-0.1542907581734451,0.1462059158973269,-0.2102146861940932,-0.2377640052242354,-12.356646850355574,4.112975276552331,-15.699255571408491,1.0328662133286857,0.3913512739503437,0.669866359780715,6675.56591796875,11006.25,795.9375,0.0004920212850265,-0.0164485683199018,-1.0571835935115814,1500.0,2000.0,1350.0,1500.0,0.0,1021.7000000000002,250.0,289.15,1635949734.476964,1635949735.9963405,e5094722-4f41-4726-9050-29f1a63df22c
-0.0417295183418422,0.0350602388476702,-0.1377218549063234,-0.3099081611551046,-0.1517402836112903,0.1499743631136357,-0.2062936816062401,-0.2322144211483308,-12.359467451933025,4.09295348672755,-15.663187180751583,1.0476461129869723,0.3872918277208635,0.6572343945765619,6671.669799804688,11001.1875,794.875,0.0004642340700229,-0.0169898503227159,-1.0586470365524292,1500.0,2000.0,1350.0,1500.0,0.0,1021.7000000000002,250.0,289.15,1635949736.105052,1635949737.744035,e5094722-4f41-4726-9050-29f1a63df22c
-0.047716371785066,0.0385544640642654,-0.070593706282597,0.1209156580370183,-0.0283220449767851,-0.2759371933786124,-0.2385053685405185,-0.2665232849500428,-12.10884879647689,3.2037062898983195,-19.18035971794148,-0.884253902818628,0.3809929431247792,0.4432736853341897,7680.48974609375,10544.375,1183.875,-0.0002360105336265,-0.0143812939058989,-1.0174483805894852,1500.0,1000.0,1425.0,1500.0,0.0,1021.7000000000002,250.0,289.15,1635949740.9688692,1635949742.5066,49e01707-510a-4e1c-9a74-265e359a49e6
-0.0479272113260075,0.0393678065238421,-0.0722112113274794,0.1270463246854955,-0.0293409812654823,-0.2817754256412206,-0.2423224829486785,-0.2670858636043766,-12.147872056345308,3.231679997138078,-19.115577919384027,-0.9111068887724452,0.3828886263864254,0.4525058753763031,7680.48974609375,10538.75,1185.0,-0.0004851102421525,-0.0134824744891375,-0.9974864721298218,1500.0,1000.0,1425.0,1500.0,0.0,1021.7000000000002,250.0,289.15,1635949742.6148417,1635949744.1888752,49e01707-510a-4e1c-9a74-265e359a49e6
-0.0474204386739927,0.0398745791278793,-0.0683282370256085,0.1292377734335331,-0.0254511588544391,-0.2840764490951524,-0.239398267572114,-0.263250826796829,-12.17824559300594,3.2570643329697635,-19.059196026280578,-0.9208656468179908,0.3844813730169285,0.4378798125144449,7676.621734619141,10545.0,1186.0625,-0.0006423381855711,-0.0138945568469353,-0.97994127497077,1500.0,1000.0,1425.0,1500.0,0.0,1021.7000000000002,250.0,289.15,1635949744.2981322,1635949746.029168,49e01707-510a-4e1c-9a74-265e359a49e6
-0.0452964520646435,0.0422682713547297,-0.1020176939154823,0.0031648864168185,-0.0653062524128686,-0.1628164298200857,-0.234574747786028,-0.2607462508849859,-12.262883264897315,2.3382013189613526,-18.09146121003332,-0.3716457534199743,0.3988521652075558,0.5320857165619843,7673.61328125,10546.5,1186.5,-0.0005603641329798,-0.0150849618948996,-0.9485890567302704,1500.0,1250.0,1425.0,1500.0,0.0,1021.7000000000002,250.0,289.15,1635949749.424729,1635949750.9494238,5b59b409-323f-471f-abc7-c7372853425d
-0.0439826023146027,0.0430590290905045,-0.0971047074161382,0.0070096855223112,-0.0596583144810852,-0.1678679832035038,-0.2301667850781658,-0.2547795037178205,-12.251718664755222,2.269492700274052,-18.159437263261378,-0.3918862527757722,0.4021783520722193,0.5114896058984569,7673.61328125,10547.125,1185.125,-0.0004844775830861,-0.0147817892720922,-0.9419412687420844,1500.0,1250.0,1425.0,1500.0,0.0,1021.7000000000002,250.0,289.15,1635949751.0618927,1635949752.582303,5b59b409-323f-471f-abc7-c7372853425d
-0.0453796513307853,0.0426070426648997,-0.1030490144277106,0.001291372648176,-0.0659244905410096,-0.1621770621172844,-0.2350016710974722,-0.2593883964226156,-12.287878639955249,2.2755842451837136,-18.203294345983533,-0.3664796786807731,0.4014550764542361,0.534816483238845,7673.61328125,10546.125,1185.375,-0.0007393195464828,-0.0148553345352411,-0.9353276751935482,1500.0,1250.0,1425.0,1500.0,0.0,1021.7000000000002,250.0,289.15,1635949752.6918786,1635949754.54486,5b59b409-323f-471f-abc7-c7372853425d
-0.0416336424736051,0.041593497259721,-0.137365745898389,-0.1642520913518154,-0.113951477375681,0.0004764272180713,-0.2236266802035482,-0.2472669418167574,-12.404950651965196,1.7595370160022288,-16.97465467255329,0.3674571637590442,0.4057905635424976,0.6311015670365464,7673.61328125,10555.0,1187.0,3.4804921597242355e-05,-0.01664116140455,-0.9227648377418518,1500.0,1500.0,1425.0,1500.0,0.0,1021.7000000000002,250.0,289.15,1635949758.9217422,1635949760.3696873,1b723709-c697-4cb3-b87d-822863395417
-0.0422960313497655,0.0408135219899959,-0.1382815196554716,-0.168089896222311,-0.1150265101338296,0.0047035643927358,-0.2233843657580488,-0.2481570715232745,-12.420091674454325,1.7530628927371283,-16.987189956705418,0.3855151159610561,0.403497797356184,0.6333154581998124,7673.61328125,10555.25,1186.8125,2.299822881468572e-06,-0.0160832735709846,-0.920226901769638,1500.0,1500.0,1425.0,1500.0,0.0,1021.7000000000002,250.0,289.15,1635949760.4791849,1635949762.1169865,1b723709-c697-4cb3-b87d-822863395417
-0.0434278916823678,0.0405114692026592,-0.1389066076918693,-0.1660394924729308,-0.115266345901186,0.0033253113840409,-0.2237225547092027,-0.2466368993051654,-12.366783713876886,1.715115662592017,-16.96033768917194,0.3775412212082981,0.4014569047503622,0.635047852248923,7673.61328125,10559.25,1185.125,0.0001018286857288,-0.0163062183419242,-0.919396985322237,1500.0,1500.0,1425.0,1500.0,0.0,1021.7000000000002,250.0,289.15,1635949762.225791,1635949763.849925,1b723709-c697-4cb3-b87d-822863395417
-0.0391819583935098,0.0411346626240899,-0.1553150864087355,-0.3032447839256266,-0.1473162954223247,0.1365448880642237,-0.2054787375146402,-0.2275986809994884,-12.382258637687736,1.6521483355658917,-15.888884100963963,0.985333475311711,0.4102591507404245,0.6754908858454532,7673.61328125,10553.5,1185.875,-0.0002154621597583,-0.017435310408473,-0.9188462868332864,1500.0,1750.0,1425.0,1500.0,0.0,1021.7000000000002,250.0,289.15,1635949766.935804,1635949768.4676497,a718530e-567c-4656-8aff-c8b9a0b7b6c4
-0.038736820206695,0.0400663310372665,-0.1540481539419881,-0.3107162583531,-0.1475148949495526,0.144235505350799,-0.2031845624663952,-0.2253729893580854,-12.419340488467183,1.7548104749164504,-15.909775826909703,1.0201907831921355,0.4077018330800756,0.6704756892949412,7673.61328125,10545.5,1186.0,-0.000214049965507,-0.0170200676657259,-0.9186817407608032,1500.0,1750.0,1425.0,1500.0,0.0,1021.7000000000002,250.0,289.15,1635949768.5763605,1635949770.3101854,a718530e-567c-4656-8aff-c8b9a0b7b6c4
-0.039962662244644,0.0419770009093904,-0.1578900386262247,-0.3086343810899309,-0.1507472827594293,0.1402018687178823,-0.2082248961761902,-0.2325910762811903,-12.462475036361738,1.710386064742807,-15.977915844528235,1.0059120883192405,0.4152765936982351,0.6874329987518766,7666.75,10544.5625,1185.1875,-0.0006058885719539,-0.0170292480615898,-0.91899673640728,1500.0,1750.0,1425.0,1500.0,0.0,1021.7000000000002,250.0,289.15,1635949770.4190395,1635949772.0629852,a718530e-567c-4656-8aff-c8b9a0b7b6c4
-0.0399078760525364,0.0365326188609836,-0.174675173829808,-0.3909438656912415,-0.1797565974505463,0.2270448948379129,-0.2066360966026705,-0.2320021249975832,-12.487935761799072,2.145966596481748,-15.229610543778456,1.3888881910157955,0.3974822030107876,0.7470409839315059,7667.252227783203,10465.8125,1178.9375,-0.0007419351622957,-0.0179936969652771,-0.9227396547794342,1500.0,2000.0,1425.0,1500.0,0.0,1021.7000000000002,250.0,289.15,1635949776.4026573,1635949777.9803078,c5d15947-e05a-49b0-a4ca-f4c8d2d3ffb6
-0.0358194531660779,0.0407237658179359,-0.1687993496011286,-0.3900193472390151,-0.1737301112965475,0.2211553753077942,-0.2005959128892908,-0.2215105594948895,-12.408449091888803,1.987229832531077,-15.314628504688391,1.3728349179720638,0.4136484530712431,0.7227394226958522,7705.531433105469,10602.0625,1202.6875,-0.0006099553174863,-0.0180416356306523,-0.9235552176833152,1500.0,2000.0,1425.0,1500.0,0.0,1021.7000000000002,250.0,289.15,1635949778.090041,1635949779.7265537,c5d15947-e05a-49b0-a4ca-f4c8d2d3ffb6
-0.0383122269216972,0.0389363648636899,-0.1707648054055933,-0.395381549801328,-0.1754901184283602,0.2300170485750745,-0.2006027614094337,-0.2262564177765475,-12.485462463667792,1.98398412121922,-15.0131016831865,1.4047340120265934,0.4053528173090453,0.7279349592825838,7735.9443359375,10620.0,1206.0,-0.0003178202932758,-0.0175055097788572,-0.9233750104904176,1500.0,2000.0,1425.0,1500.0,0.0,1021.7000000000002,250.0,289.15,1635949779.8364398,1635949781.4577878,c5d15947-e05a-49b0-a4ca-f4c8d2d3ffb6
-0.0482079907977887,0.0423810494355956,-0.0807373193943169,0.162157451700611,-0.0223214947724077,-0.3170166758068873,-0.2486365971735837,-0.2728041775091003,-12.170751680223148,1.944365644272192,-19.15097168974212,-1.0784762482837758,0.3897804767407333,0.4646919361012064,8372.073974609375,10211.875,1517.4375,-0.0006781930605939,-0.0145569670130498,-0.899635162204504,1500.0,1000.0,1500.0,1500.0,0.0,1021.7000000000002,250.0,289.15,1635949785.5048494,1635949787.109149,f2d03203-29f1-4d37-a988-0efc3ff77160
-0.0477765491842502,0.0394773789989792,-0.0808879816665415,0.1590346368252316,-0.0232871023228054,-0.3185096003688912,-0.2502117016715294,-0.2721604392946755,-12.248183712167906,2.088007154238916,-20.18378278900545,-1.0740456422735676,0.3889691410217549,0.4665065931761952,8318.764526367188,10187.375,1515.0625,-0.000944367628108,-0.0142340220045298,-0.8879225440323353,1500.0,1000.0,1500.0,1500.0,0.0,1021.7000000000002,250.0,289.15,1635949787.217682,1635949788.73865,f2d03203-29f1-4d37-a988-0efc3ff77160
-0.0489544532914457,0.0404429863815548,-0.0819426174995347,0.1596030439083293,-0.0225680336309122,-0.3145375979496932,-0.2490474950910185,-0.2742217720548697,-12.270831263614454,1.902691556204935,-19.407919603813163,-1.0675709260411093,0.3857346095596173,0.4665835262818885,8351.174072265625,10171.125,1512.0,-0.0008619705695309,-0.0143489238107576,-0.8781966269016266,1500.0,1000.0,1500.0,1500.0,0.0,1021.7000000000002,250.0,289.15,1635949788.847379,1635949790.5821917,f2d03203-29f1-4d37-a988-0efc3ff77160
-0.04165418727878,0.0380940265840734,-0.1188548443235218,0.0180628085281944,-0.062938640910975,-0.174709414814818,-0.2411651237242567,-0.2663941872653241,-12.62013834494501,0.7353335375080717,-18.48212877410137,-0.4436830305919169,0.38625842756614,0.5606776743802484,8378.7158203125,10272.625,1532.125,-0.0010062570363515,-0.0151568211149424,-0.8552948385477066,1500.0,1250.0,1500.0,1500.0,0.0,1021.7000000000002,250.0,289.15,1635949795.5408108,1635949797.027531,0e89cf53-3cfe-4e85-8d78-88fa8cd069f3
-0.045954906819044,0.040758007230851,-0.1219160248303457,0.0022158902794064,-0.0734370530020244,-0.1674091480430633,-0.2434113589951165,-0.2683459469423546,-12.227031925860496,1.0643072444550656,-19.1737849389307,-0.3894155854911039,0.4013604067006461,0.5816955440784896,8365.432556152344,10249.6875,1525.8125,-0.0013308673806022,-0.0152430053567513,-0.8513081632554531,1500.0,1250.0,1500.0,1500.0,0.0,1021.7000000000002,250.0,289.15,1635949797.1358042,1635949798.7743385,0e89cf53-3cfe-4e85-8d78-88fa8cd069f3
-0.0435922504004384,0.0457093131416157,-0.1188959339225501,0.0110638671665933,-0.065356083588073,-0.1726686270032643,-0.2380697010826361,-0.2600869212437052,-12.278182431911873,0.5482762855488192,-18.035561208929344,-0.4243079646892142,0.4092981275162255,0.5614249430785235,8361.857788085938,10228.5,1517.1875,-0.0014503356869681,-0.0154639570973813,-0.8486372195184231,1500.0,1250.0,1500.0,1500.0,0.0,1021.7000000000002,250.0,289.15,1635949798.8840933,1635949800.6208446,0e89cf53-3cfe-4e85-8d78-88fa8cd069f3
-0.0434004985852443,0.0411689039908803,-0.1627728626670256,-0.2001918644957705,-0.1283534082867081,0.0328140024300859,-0.2262427216620141,-0.2520401921625295,-12.466737894226158,0.1545361525090508,-17.22953428232788,0.5092187551240303,0.4096814469367199,0.6889644285998369,8354.7529296875,10268.0,1532.0,-0.0009386380625073,-0.016219753306359,-0.8439929075539112,1500.0,1500.0,1500.0,1500.0,0.0,1021.7000000000002,250.0,289.15,1635949805.57667,1635949807.0202072,cecf3191-02ea-456f-8389-d2b4c05eaca4
-0.041633642471144,0.0413195661412051,-0.1664709347508146,-0.1923574323610173,-0.1276411883018654,0.0312936842323031,-0.228043819913793,-0.2515060267985131,-12.532511227575268,-0.1758081351634074,-16.41644524741994,0.4858523086656661,0.4023010347272683,0.6969229148150999,8365.429809570312,10265.25,1526.25,-0.0012819903895433,-0.016703596455045,-0.8429468870162964,1500.0,1500.0,1500.0,1500.0,0.0,1021.7000000000002,250.0,289.15,1635949807.129701,1635949808.699837,cecf3191-02ea-456f-8389-d2b4c05eaca4
-0.0429964501107232,0.0413127178239255,-0.1639233738977945,-0.1936380602398063,-0.1276548839737381,0.0265272819813141,-0.2280438196585974,-0.2523278201497688,-12.47246189706001,0.0403427151970267,-17.25522885377301,0.4794866110972087,0.4096072931678374,0.6922271565690089,8362.3671875,10263.5,1528.5,-0.0013044342631474,-0.0158686963841319,-0.8425499498844147,1500.0,1500.0,1500.0,1500.0,0.0,1021.7000000000002,250.0,289.15,1635949808.8085372,1635949810.447403,cecf3191-02ea-456f-8389-d2b4c05eaca4
-0.036093384344051,0.0335056793925355,-0.1727097176093513,-0.3587021593473845,-0.1587529233868211,0.1861264283652221,-0.2011232308853677,-0.2277767361643553,-12.732258019126832,0.631958462515557,-17.198017139909002,1.2138341058396602,0.4014338092214997,0.7054956321923292,8400.787353515625,10310.125,1541.375,-0.0013287134388519,-0.0171937522245571,-0.8438606671988964,1500.0,1750.0,1500.0,1500.0,0.0,1021.7000000000002,250.0,289.15,1635949814.5862875,1635949816.1054635,ce47c005-45e0-4fd2-ac39-5a173cb4961a
-0.0383944062599764,0.0383748059961117,-0.1834409713918492,-0.3632699618139132,-0.1665394165252298,0.1920775833169521,-0.2054102537183084,-0.2307762825229441,-12.564968375864789,0.0805982001157483,-16.324346912362667,1.2335450877174925,0.41064138151138,0.7389574314496242,8410.059326171875,10327.5,1541.5,-0.0011937762101297,-0.0172555694589391,-0.8436951860785484,1500.0,1750.0,1500.0,1500.0,0.0,1021.7000000000002,250.0,289.15,1635949816.215124,1635949817.7077858,ce47c005-45e0-4fd2-ac39-5a173cb4961a
-0.0398530898251654,0.0454216854426835,-0.1885908798886141,-0.3722343622411599,-0.1715797524070902,0.2040620710907152,-0.2042323519920904,-0.2267152535506977,-12.34962174071618,-0.2967589548616088,-14.8253858885889,1.2782866888463422,0.4230328727211098,0.7543590584807839,8411.60546875,10332.0,1545.5,-0.0011636249255388,-0.0175296897068619,-0.8445689082145691,1500.0,1750.0,1500.0,1500.0,0.0,1021.7000000000002,250.0,289.15,1635949817.8178642,1635949819.458875,ce47c005-45e0-4fd2-ac39-5a173cb4961a
-0.0340207726771638,0.0405400708160026,-0.1875640389650072,-0.4626360996807495,-0.1883246010018001,0.2910033892248101,-0.1896974797017524,-0.2149120402602536,-12.526605691874655,0.6632618204682441,-14.930599917204743,1.6838889729947524,0.4181207744500635,0.7530223879122109,8364.488525390625,10184.5,1526.75,-0.0004998714139219,-0.0185865266248583,-0.847461000084877,1500.0,2000.0,1500.0,1500.0,0.0,1021.7000000000002,250.0,289.15,1635949824.1003993,1635949825.607556,1b2dca00-91b7-4e92-a675-1193f59c1c6f
-0.0330554037103489,0.0415500316112258,-0.1867475724954669,-0.4552091102809901,-0.1862645590315108,0.2837543746693239,-0.1908330609005769,-0.2136956936250016,-12.571424947894323,0.6288801452610079,-14.84882374349244,1.650649209944504,0.4206379361626825,0.7510058599437863,8322.277954101562,10140.75,1515.9375,-0.0008123999868985,-0.0182288830401375,-0.8495674952864647,1500.0,2000.0,1500.0,1500.0,0.0,1021.7000000000002,250.0,289.15,1635949825.7155333,1635949827.3329525,1b2dca00-91b7-4e92-a675-1193f59c1c6f
-0.0326163525727059,0.0407226001467055,-0.1876940449234693,-0.4638237055223778,-0.1885123415022625,0.2914850147161901,-0.190687472103911,-0.2126905579203443,-12.628387547544186,0.7091732561614651,-14.996453251882652,1.6878863448244923,0.4202481704562399,0.7546936192356417,8313.701171875,10141.9375,1515.8125,-0.0007659937036805,-0.0181775420205667,-0.8517024479806423,1500.0,2000.0,1500.0,1500.0,0.0,1021.7000000000002,250.0,289.15,1635949827.4414074,1635949829.0927198,1b2dca00-91b7-4e92-a675-1193f59c1c6f
-0.050591192024057464,0.03268388596087983,-0.05789145802615164,-0.0398873311195788,-0.08648302535243774,-0.1063704294974215,-0.23822036213204087,-0.26401098519287963,-12.249971647072263,9.142430745818443,-16.964749060361434,-0.1001994442749717,0.3610408989103962,0.5032392861685977,-1.0,12071.125,0.0,0.001004913698125165,-0.018074087682180107,-1.103555589914322,1500.0,1500.0,1000.0,1500.0,0.0,1021.7000000000002,250.0,289.15,1635949833.3803546,1635949835.0271595,096991bf-a5fd-4dc3-99ab-de5abd30252d
-0.05096784739872462,0.03272497563711899,-0.05774079587501566,-0.04028453133133521,-0.0868117427742775,-0.1065484847691524,-0.23840526569330292,-0.26225097716158546,-12.239172382099833,9.18211757515254,-17.03695662599979,-0.0994390553544542,0.36181767755573674,0.5036358160936139,-1.0,12075.1875,0.0,0.0018668694683583453,-0.01897754252422601,-1.2631704360246658,1500.0,1500.0,1000.0,1500.0,0.0,1021.7000000000002,250.0,289.15,1635949835.1365745,1635949836.758129,096991bf-a5fd-4dc3-99ab-de5abd30252d
-0.05089251632393096,0.032581161770977085,-0.05747371297211756,-0.04055846251198623,-0.0868528324520658,-0.10656902960822469,-0.23851483817470145,-0.2610114384700437,-12.24944810293366,9.220480273467496,-17.09553302085848,-0.09861420076567122,0.3619214872850039,0.5033583751814895,-1.0,12076.6875,0.0,0.001752703079546336,-0.018835173919796944,-1.387136071920395,1500.0,1500.0,1000.0,1500.0,0.0,1021.7000000000002,250.0,289.15,1635949836.8674858,1635949838.5051873,096991bf-a5fd-4dc3-99ab-de5abd30252d
