raw_voltage_G-,raw_voltage_G0,raw_voltage_G1,raw_voltage_G2,raw_voltage_G3,raw_voltage_G4,raw_voltage_G5,raw_voltage_G6,load_x,load_y,load_z,load_l,load_m,load_n,rpm,voltage,current,roll,pitch,yaw,aileron1_pwm,elevator_pwm,throttle_pwm,rudder_pwm,aileron2_pwm,pbaro,pdiff,Tt,sample_start_time,sample_end_time,uid
-0.0479203630063877,0.0354711356490353,-0.0555904361155942,-0.0458316377605228,-0.0854831765422005,-0.0996796602573423,-0.2342757528516278,-0.2596828722091093,-12.213009324460586,9.126377280792196,-16.37981619911596,-0.0716354902657671,0.3669263960923123,0.4942671974369245,1907.8335876464844,11998.4375,31.4375,0.0022347421472659,-0.0162703889654949,-1.7093353271484375,1500.0,1500.0,1200.0,1275.0,0.0,1021.7000000000002,250.0,289.15,1635950014.4215534,1635950016.0722268,67a84c76-f0c0-4371-bd97-edf411d859b0
-0.048062359985933,0.0356666610113048,-0.0547306276346909,-0.0453789525102926,-0.0845701191820789,-0.1005028514291685,-0.2334053224878131,-0.2568381804210909,-12.199914432249638,9.11186408649024,-16.403565265107428,-0.0745570488588432,0.3677760659190475,0.4906215051962899,1934.4548416137693,11942.0625,31.75,0.0022686942102154,-0.0160374117549508,-1.700090453028679,1500.0,1500.0,1200.0,1275.0,0.0,1021.7000000000002,250.0,289.15,1635950016.1817024,1635950017.7370555,67a84c76-f0c0-4371-bd97-edf411d859b0
-0.0479956940809467,0.0361285704652016,-0.055248022137985,-0.0453043202358638,-0.0850037969681829,-0.1003987296226197,-0.2339812768078004,-0.2590391338319541,-12.211538094921444,9.103130523375418,-16.318747969035694,-0.0745674147084147,0.3687969060830505,0.4929091204130877,1928.628433227539,11915.125,31.0625,0.0022504321241285,-0.0159110347740352,-1.6925624832510948,1500.0,1500.0,1200.0,1275.0,0.0,1021.7000000000002,250.0,289.15,1635950017.8469074,1635950019.455848,67a84c76-f0c0-4371-bd97-edf411d859b0
-0.0478724250493413,0.0362312946553644,-0.0575558923469405,-0.0453385616327094,-0.0863392114943972,-0.0999672880017362,-0.2355426846607098,-0.2592445822718137,-12.23341645811294,9.01205581333524,-16.261307935859794,-0.0742411860994896,0.3686843089799763,0.5002122186947007,1909.3513107299805,11888.6875,31.75,0.002101890873746,-0.0162262596422806,-1.6777680590748787,1500.0,1500.0,1200.0,1387.0,0.0,1021.7000000000002,250.0,289.15,1635950023.4847984,1635950025.097432,ceea9e82-3352-41ba-a997-20908441eb44
-0.0489544532153358,0.0361765084207586,-0.0581927823431368,-0.0455987962579815,-0.0869418601001687,-0.0999125017663126,-0.2359809745824314,-0.2592240373678224,-12.22087072241302,8.999872369233486,-16.29925380357888,-0.0736432605361918,0.3687178033250622,0.502476574158401,1907.6188583374023,11898.25,31.6875,0.0023481343523599,-0.0166257673408836,-1.6745383366942406,1500.0,1500.0,1200.0,1387.0,0.0,1021.7000000000002,250.0,289.15,1635950025.2053137,1635950026.7306793,ceea9e82-3352-41ba-a997-20908441eb44
-0.0483172836971666,0.0357337461972453,-0.0578031292128962,-0.0453387013953387,-0.0864283788899411,-0.09979845694505,-0.2354648378848872,-0.260628493811306,-12.220067603591067,8.997232074313288,-16.307146456368425,-0.0739726514563249,0.3671140778030274,0.5004504050331684,1905.2071914672847,11904.5625,29.0625,0.0021455154346767,-0.0164600929711014,-1.6725053191184998,1500.0,1500.0,1200.0,1387.0,0.0,1021.7000000000002,250.0,289.15,1635950026.8434117,1635950028.449215,ceea9e82-3352-41ba-a997-20908441eb44
-0.0489333255449642,0.0363443641175619,-0.0601306997515068,-0.0455901994817599,-0.0884353678946999,-0.0999754476598051,-0.2378689142715543,-0.261480618558924,-12.24781544047107,8.968322293967624,-16.297903300112317,-0.0741230932009303,0.3694016557101349,0.5098568007093655,1915.6271362304688,11892.0,32.5,0.0023982304846867,-0.0165122719481587,-1.667622208595276,1500.0,1500.0,1200.0,1500.0,0.0,1021.7000000000002,250.0,289.15,1635950033.408077,1635950034.910842,d1ae8de1-e111-47d5-921a-06c8e92dd9bc
-0.0490708739692714,0.0358614875710612,-0.0609526390098599,-0.0460576309865818,-0.0890168888324963,-0.0994057290711671,-0.2383504794985456,-0.2619154114911554,-12.25326226101226,8.950294461567069,-16.350103261045444,-0.0719599470417344,0.368096911784618,0.5123223330363947,1912.2286071777344,11888.0625,31.1875,0.0024433923681499,-0.0166619804222136,-1.6668545678257942,1500.0,1500.0,1200.0,1500.0,0.0,1021.7000000000002,250.0,289.15,1635950035.0200856,1635950036.752712,d1ae8de1-e111-47d5-921a-06c8e92dd9bc
-0.0480422344289274,0.0356666610121194,-0.0602181959647682,-0.0467877414445594,-0.0883134726786736,-0.0991074795070603,-0.2371620932602161,-0.261091381676072,-12.23117393123031,8.93184060684408,-16.42286589639401,-0.0697290326875703,0.3679908904001957,0.508561539012024,1907.8396072387693,11894.75,31.6875,0.0023090570030035,-0.0165321377571672,-1.6664857938885689,1500.0,1500.0,1200.0,1500.0,0.0,1021.7000000000002,250.0,289.15,1635950036.8622043,1635950038.4891367,d1ae8de1-e111-47d5-921a-06c8e92dd9bc
-0.049358501708368,0.0357930047776021,-0.0619045498731241,-0.0469479073222511,-0.0897770478754053,-0.0993851842324577,-0.2391037903100966,-0.2633603986203235,-12.26513710024678,8.926358330197884,-16.479398845898434,-0.0701381970197441,0.3691189104297603,0.5155308775070332,1912.944580078125,11923.5,32.0,0.0021427128813229,-0.0166249792091548,-1.666595846414566,1500.0,1500.0,1200.0,1612.0,0.0,1021.7000000000002,250.0,289.15,1635950042.7362278,1635950044.218105,ad4dd74f-02de-430a-821e-70690a1060d0
-0.049522860418176,0.0358751841290053,-0.0622127224518533,-0.0467972451762787,-0.0902769722890095,-0.0995426946685195,-0.2395900181989276,-0.2626687223130147,-12.255778650416593,8.94361627907982,-16.473940550427148,-0.0707273599091789,0.3692747258701542,0.5173425754710498,1916.5803985595703,11945.625,31.375,0.0021108158980496,-0.0164642917225137,-1.6671694219112396,1500.0,1500.0,1200.0,1612.0,0.0,1021.7000000000002,250.0,289.15,1635950044.3281949,1635950045.9692795,ad4dd74f-02de-430a-821e-70690a1060d0
-0.0497146122447712,0.0355190736036565,-0.0618977015919931,-0.046098720664956,-0.0896126891629442,-0.1003233985522844,-0.2394462043194754,-0.2638397782127269,-12.280336432970728,8.934302365731558,-16.54103592934136,-0.0741265202102382,0.3686413828514201,0.5156586813656313,1929.31396484375,12007.375,31.875,0.0021479962015291,-0.0164461655076593,-1.6677004173398018,1500.0,1500.0,1200.0,1612.0,0.0,1021.7000000000002,250.0,289.15,1635950046.0775976,1635950047.7030952,ad4dd74f-02de-430a-821e-70690a1060d0
-0.0490914188069787,0.0354368942517133,-0.0635070472925968,-0.0466945209862093,-0.0911604003638965,-0.0997686878998147,-0.2409528259405632,-0.264880716799408,-12.2884209186427,8.930298782169322,-16.56351120736031,-0.0716503588792124,0.368560842079277,0.522054665811149,1948.494140625,12012.0,33.0,0.0023486503632739,-0.0160892130807042,-1.6683546900749209,1500.0,1500.0,1200.0,1725.0,0.0,1021.7000000000002,250.0,289.15,1635950051.880574,1635950053.3427336,d2328354-5ec1-41cf-b7c1-b9d9019fdaf9
-0.0500090882659938,0.0356697357498482,-0.0641576338518405,-0.0462904724869409,-0.091523359184196,-0.1006247228514834,-0.2414459021016148,-0.2680857119199399,-12.276870292718584,8.893289062538596,-16.60387412960593,-0.0747637746995902,0.3696185039366368,0.5241359406759453,1927.2657542509191,11964.35294117647,30.529411764705884,0.0024513924384818,-0.0161644234595929,-1.6692665885476503,1500.0,1500.0,1200.0,1725.0,0.0,1021.7000000000002,250.0,289.15,1635950053.4524271,1635950055.077809,d2328354-5ec1-41cf-b7c1-b9d9019fdaf9
-0.0496255846106039,0.0354231976930645,-0.0638152198719559,-0.0465917967882212,-0.0915028143460112,-0.1001111018784712,-0.2414116607004163,-0.2657915380695883,-12.289420766339331,8.936838195525786,-16.603650981462206,-0.0726304256179565,0.3688402329967017,0.5235336487984351,1926.8169860839844,11949.75,31.5,0.0025327432667836,-0.0163493279833346,-1.6701396852731705,1500.0,1500.0,1200.0,1725.0,0.0,1021.7000000000002,250.0,289.15,1635950055.186736,1635950056.9426978,d2328354-5ec1-41cf-b7c1-b9d9019fdaf9
-0.0349634181832037,0.0424632287944667,-0.0435580094539775,-0.0869213156184399,-0.0553918365501523,-0.0727042871553209,-0.1874266701211243,-0.2133063198722974,-12.08164781229307,6.277353279872393,-16.689485754399012,0.0633993922415501,0.4007393384437764,0.3714872318044739,4985.380554199219,11486.0,366.625,0.0015908942659734,-0.0155497694504447,-1.5569703057408333,1500.0,1500.0,1275.0,1275.0,0.0,1021.7000000000002,250.0,289.15,1635950062.080528,1635950063.5877926,ce4e5bae-ceb8-4a16-93a7-c4f7619c11b3
-0.0337649692480139,0.0430658774042873,-0.0455577067699059,-0.0878389850959646,-0.0584804103587993,-0.072313935147607,-0.1890497118929082,-0.2136144921592887,-11.95557018799371,6.305707317437374,-16.685143625302917,0.0664991500248757,0.4020555019996992,0.3808781848187587,4994.640258789063,11493.375,367.6875,0.0013924005470471,-0.0153338932432234,-1.4968732744455338,1500.0,1500.0,1275.0,1275.0,0.0,1021.7000000000002,250.0,289.15,1635950063.6965554,1635950065.312476,ce4e5bae-ceb8-4a16-93a7-c4f7619c11b3
-0.0336827898983946,0.0428467324616629,-0.0461398104680561,-0.0864556325819676,-0.0577613409052885,-0.0728617974071904,-0.1897208432815865,-0.2132172918548565,-12.051465081224116,6.2426108654483,-16.616059146208546,0.0616630085646976,0.4010917090624277,0.3816896904625588,5001.016204833984,11510.125,369.5,0.001517835422419,-0.0149989608325995,-1.4516639932990074,1500.0,1500.0,1275.0,1275.0,0.0,1021.7000000000002,250.0,289.15,1635950065.4226778,1635950066.9996357,ce4e5bae-ceb8-4a16-93a7-c4f7619c11b3
-0.0395654619987212,0.0409976970294806,-0.0669037941691505,-0.091475421847848,-0.0772926343797994,-0.0652876006029713,-0.2093000758340351,-0.2331526351077272,-12.168146161719742,6.206108391089674,-16.608261966990483,0.0886732763915281,0.3942145343871655,0.4641489022005534,5018.401123046875,11542.9375,370.0625,0.0018737967475317,-0.0159322699764743,-1.3521340638399124,1500.0,1500.0,1275.0,1387.0,0.0,1021.7000000000002,250.0,289.15,1635950071.9110668,1635950073.4123704,158e83a1-2fc8-4467-9823-4c02ec91a988
-0.0401475657583094,0.0412921730533647,-0.0686158641251941,-0.0919548010833778,-0.0788403455912517,-0.0659313384210154,-0.2104985249115485,-0.2344812015461783,-12.12643465040876,6.153898309634623,-16.73223528698976,0.0878779515246333,0.3960721473907191,0.470204189559565,5022.8118896484375,11547.75,371.0,0.0018893408414442,-0.0164099405519664,-1.3382824659347534,1500.0,1500.0,1275.0,1387.0,0.0,1021.7000000000002,250.0,289.15,1635950073.5214093,1635950075.144679,158e83a1-2fc8-4467-9823-4c02ec91a988
-0.0394353446865075,0.0400320896403956,-0.0667873733519788,-0.0918520768392178,-0.0771967584095188,-0.0637330407940534,-0.2083481648077396,-0.2321322413367013,-12.122901525474616,6.197298087580353,-16.567121532453015,0.0929929466636202,0.389961667880887,0.4624774431887204,5032.766479492188,11570.375,372.25,0.0023298100568354,-0.0160763601306825,-1.326674997806549,1500.0,1500.0,1275.0,1387.0,0.0,1021.7000000000002,250.0,289.15,1635950075.253505,1635950076.8951416,158e83a1-2fc8-4467-9823-4c02ec91a988
-0.0472834730147452,0.0373475641548917,-0.0906193864941507,-0.0930916155859734,-0.0985839357973198,-0.0597952800330701,-0.2322623587952021,-0.2537796548637178,-12.323422466410811,6.15088471599239,-16.725630081511145,0.1030171572883567,0.3813581643873987,0.5574614872024991,5039.796478271484,11564.9375,372.4375,0.0024088494974421,-0.0167497067013755,-1.3015819564461708,1500.0,1500.0,1275.0,1500.0,0.0,1021.7000000000002,250.0,289.15,1635950081.3807924,1635950082.9259117,1ffa6040-f45d-4cde-a790-1355e31d7ddd
-0.0473930454937737,0.0356902805707655,-0.0921191597795588,-0.0915096629688582,-0.0991797361608892,-0.0592816590497644,-0.2335635320342027,-0.2583132163257455,-12.362284353221904,6.134311581523018,-16.686773030953983,0.1004049226410238,0.3747828782239608,0.5620177068997915,5027.2294921875,11554.5,371.5,0.0027673429867718,-0.0170620293356478,-1.2976728081703186,1500.0,1500.0,1275.0,1500.0,0.0,1021.7000000000002,250.0,289.15,1635950083.035661,1635950084.4796789,1ffa6040-f45d-4cde-a790-1355e31d7ddd
-0.0479272112976168,0.0366764327860475,-0.0906741727845556,-0.0898386825089874,-0.0982689149812179,-0.0616032255999924,-0.2331183938084486,-0.2559505596087835,-12.340690052490386,6.179355123765951,-16.654101589430567,0.0918053579237274,0.3779257782118851,0.5583503479339739,5018.220947265625,11519.8125,369.875,0.0029658786515938,-0.0170086621074005,-1.294638715684414,1500.0,1500.0,1275.0,1500.0,0.0,1021.7000000000002,250.0,289.15,1635950084.587909,1635950086.20312,1ffa6040-f45d-4cde-a790-1355e31d7ddd
-0.0548850633146052,0.0334303483806395,-0.1129790196591436,-0.0914617248589327,-0.1191630163458108,-0.0558849122720816,-0.2552657316404259,-0.2789196913531019,-12.46415285075884,6.207183721671278,-16.67661716078736,0.1073244669229686,0.3656106772180751,0.6482093953063497,4989.18896484375,11456.875,367.125,0.0026055483322124,-0.0175834831316024,-1.2909589409828186,1500.0,1500.0,1275.0,1612.0,0.0,1021.7000000000002,250.0,289.15,1635950090.378774,1635950091.9554026,f2d7ac29-43e8-4e20-a9e1-c74ec1569b6c
-0.0547891874055567,0.0334577414927949,-0.1154512485992345,-0.0902564277796594,-0.1217927557097239,-0.0567477955812681,-0.2583543059371998,-0.2844257086579927,-12.454893353109249,6.24282244531555,-16.659586492428097,0.1027871266930058,0.3651924196202605,0.6595883388537922,4991.3682861328125,11467.75,368.0,0.0023484408739022,-0.0174846835434436,-1.2913679778575895,1500.0,1500.0,1275.0,1612.0,0.0,1021.7000000000002,250.0,289.15,1635950092.0634625,1635950093.6943843,f2d7ac29-43e8-4e20-a9e1-c74ec1569b6c
-0.0547344011703629,0.0331358723506567,-0.1131502264925335,-0.0886265372914518,-0.1184234018989155,-0.059418624713219,-0.2559163181081768,-0.2798031194474992,-12.482815414379123,6.159480235739714,-16.851225174501604,0.0926262697960502,0.3658251136294594,0.6481111695269136,4995.00390625,11470.625,368.0625,0.0026935342757496,-0.0171656491002067,-1.2913253009319303,1500.0,1500.0,1275.0,1612.0,0.0,1021.7000000000002,250.0,289.15,1635950093.802914,1635950095.4189484,f2d7ac29-43e8-4e20-a9e1-c74ec1569b6c
-0.0615552876150696,0.0310334506014184,-0.1378451235023584,-0.0872979708669864,-0.1418102774488864,-0.0579120031330841,-0.2821794729221206,-0.3033064174231414,-12.61633559494628,6.226876044875364,-16.952209126913207,0.09214875517677,0.3580518382821838,0.7505137313534056,4977.599609375,11428.5,366.375,0.0022781995648983,-0.0174427947495132,-1.2955035120248797,1500.0,1500.0,1275.0,1725.0,0.0,1021.7000000000002,250.0,289.15,1635950099.8889189,1635950101.4763558,8ae14247-0e1c-4a70-9c54-c4def82e9d8e
-0.0629386400800954,0.0288420012277296,-0.1393722897474659,-0.0864419359637411,-0.1432621126735454,-0.0558369744315154,-0.2844325569690041,-0.3081549998230531,-12.69775698324898,6.3302918891478255,-16.86583156925467,0.0954629137917506,0.3494428326464772,0.7575455751307895,4977.599609375,11421.0,365.8125,0.0020500246610026,-0.0176714251283556,-1.2969742119312286,1500.0,1500.0,1275.0,1725.0,0.0,1021.7000000000002,250.0,289.15,1635950101.5849583,1635950103.201717,8ae14247-0e1c-4a70-9c54-c4def82e9d8e
-0.0629523366446924,0.0285817665851062,-0.13839298584273,-0.0859694046483353,-0.1417691878429006,-0.055234325858853,-0.2835422806493166,-0.3077988892721967,-12.76200677711204,6.321152401679697,-16.74697229795956,0.095726011899802,0.3478718409659464,0.7530088096266697,4976.155029296875,11417.0,366.0,0.0017601625295355,-0.0180352767929434,-1.2986560463905334,1500.0,1500.0,1275.0,1725.0,0.0,1021.7000000000002,250.0,289.15,1635950103.3113143,1635950104.9526832,8ae14247-0e1c-4a70-9c54-c4def82e9d8e
-0.0200615620326741,0.0487225560876956,-0.034162170076893,-0.1264701311522805,-0.0312379547774876,-0.0456261898783906,-0.1462000253489746,-0.1725453576064861,-11.86039512603204,3.790473730573895,-16.921596424582788,0.1975163289382855,0.4301296162828644,0.2683418791774488,6618.86181640625,10923.75,779.375,0.00104555580765,-0.0161005281843245,-1.2231901288032532,1500.0,1500.0,1350.0,1275.0,0.0,1021.7000000000002,250.0,289.15,1635950109.1492264,1635950110.779641,64cf0010-2812-4063-8589-5d2917d2a1fd
-0.0191301960257917,0.0498114325063709,-0.0312653476660858,-0.1309215131169157,-0.0292588017498021,-0.0426814298752666,-0.1420979056218273,-0.1665325678235558,-11.810564953484516,3.771527302933658,-16.90711317558733,0.2142208611851021,0.4344638966742167,0.2560127437209074,6618.86181640625,10922.5,778.0,0.0008706004882697,-0.0162437183316797,-1.1839381009340286,1500.0,1500.0,1350.0,1275.0,0.0,1021.7000000000002,250.0,289.15,1635950110.889703,1635950112.4352424,64cf0010-2812-4063-8589-5d2917d2a1fd
-0.0195166138366863,0.0490384511923579,-0.0330919444154384,-0.1289795157087566,-0.0301404816606746,-0.0438556911384023,-0.14400959585145,-0.1675443648717206,-11.843395884569786,3.733007048675964,-16.94122884087241,0.2068331967445343,0.4317439310985517,0.2622935452515976,6618.86181640625,10921.0,780.75,0.0005372787491069,-0.0158587698824703,-1.1551486253738403,1500.0,1500.0,1350.0,1275.0,0.0,1021.7000000000002,250.0,289.15,1635950112.5438917,1635950114.1729083,64cf0010-2812-4063-8589-5d2917d2a1fd
-0.0321008373584249,0.0450587266478859,-0.0723618731044729,-0.1303257126733116,-0.0660203661789337,-0.0365042816070109,-0.1834957571290652,-0.2076838818382335,-12.121910161063454,3.700927294741673,-16.928081722896508,0.2240833439659035,0.4163479749424443,0.4202559473830262,6618.86181640625,10933.5,781.0,0.0011287245142739,-0.0162758026272058,-1.0943540334701538,1500.0,1500.0,1350.0,1387.0,0.0,1021.7000000000002,250.0,289.15,1635950118.380167,1635950119.906763,85fe3871-5f14-46fa-9bda-0ae2c9e830e2
-0.0306558503673956,0.044408140133973,-0.0726015628994909,-0.1328732729477128,-0.0660409110974113,-0.03353212849289,-0.1827082047310574,-0.2089028754500648,-12.144544550777818,3.6695016039626354,-16.927066818642377,0.2362773492386738,0.4143570167209987,0.4193867891359186,6618.86181640625,10944.5,782.25,0.0012537592847365,-0.0161778749898076,-1.083979994058609,1500.0,1500.0,1350.0,1387.0,0.0,1021.7000000000002,250.0,289.15,1635950120.0153344,1635950121.5571687,85fe3871-5f14-46fa-9bda-0ae2c9e830e2
-0.031279043830599,0.0460654237280357,-0.0717592251937011,-0.134729156811738,-0.0654108699876075,-0.0333129836052038,-0.1810166805117851,-0.2058416949127604,-12.091354358774415,3.5992371947696284,-16.89771517649199,0.240563821310761,0.4202169349590696,0.4152637731063602,6618.86181640625,10936.5,782.0,0.0012470742221921,-0.0160838675219565,-1.0760241746902466,1500.0,1500.0,1350.0,1387.0,0.0,1021.7000000000002,250.0,289.15,1635950121.6665394,1635950123.2729027,85fe3871-5f14-46fa-9bda-0ae2c9e830e2
-0.0439745883762702,0.0390720191430979,-0.1164532838418834,-0.1323506174696571,-0.1065078332086034,-0.0259161125965818,-0.2269932639925805,-0.2498915808578676,-12.386014862590056,3.6848866689996136,-16.8575143362861,0.2500205747379753,0.3925918898504176,0.5966132399476878,6616.308349609375,10920.0,780.5,0.001560207165312,-0.0167840551584959,-1.0597495436668396,1500.0,1500.0,1350.0,1500.0,0.0,1021.7000000000002,250.0,289.15,1635950127.3768833,1635950128.917195,d4021c26-2aa0-45a0-83e4-a43db99c8ce9
-0.0446605819659364,0.0389569097865221,-0.1149513242670346,-0.1306749750329513,-0.104754235799502,-0.0280535049114384,-0.2264550172988676,-0.2493762107322858,-12.438967978066795,3.707593258846561,-16.950125148034232,0.2416216243530128,0.3932450500668487,0.5912348860129728,6613.7548828125,10915.8125,778.6875,0.0014594512686016,-0.016016865032725,-1.0561575293540957,1500.0,1500.0,1350.0,1500.0,0.0,1021.7000000000002,250.0,289.15,1635950129.0259764,1635950130.670885,d4021c26-2aa0-45a0-83e4-a43db99c8ce9
-0.0431772737882873,0.0399602555495429,-0.1109070511473317,-0.1343578922626052,-0.1010105584082153,-0.0250838284207789,-0.220901499840481,-0.2449188549295676,-12.413711701505497,3.6441736638185858,-16.83280739034632,0.256415019033787,0.3964984203995229,0.5730143171011893,6608.6552734375,10909.5,778.0,0.0016132094315253,-0.0159394657239317,-1.0537195801734924,1500.0,1500.0,1350.0,1500.0,0.0,1021.7000000000002,250.0,289.15,1635950130.7801182,1635950132.3993423,d4021c26-2aa0-45a0-83e4-a43db99c8ce9
-0.0622469638586288,0.0302253536216861,-0.163964462823664,-0.129182050808234,-0.1486311642743433,-0.0183084039293776,-0.2756941517501997,-0.3007725538964728,-12.81678973975651,3.706960311692115,-16.961819490953186,0.2575157232076006,0.3599831886326454,0.7865893047779465,6608.6552734375,10912.125,779.9375,0.0010716374963521,-0.0164350123377516,-1.0512509942054749,1500.0,1500.0,1350.0,1612.0,0.0,1021.7000000000002,250.0,289.15,1635950136.4249203,1635950137.9261448,d0ba04f8-bc6f-4700-b5e7-578e88791bce
-0.0608362182719477,0.0300541466457251,-0.1633207246859434,-0.1282575328495822,-0.1483298401155479,-0.0194863075981133,-0.2754613103823236,-0.2981770557775119,-12.787405949605407,3.741500613075344,-17.029248404552405,0.2530483985664949,0.3596582752936805,0.7848685484133696,6608.6552734375,10903.75,780.0,0.0012416324752848,-0.0165027845650911,-1.0510707199573517,1500.0,1500.0,1350.0,1612.0,0.0,1021.7000000000002,250.0,289.15,1635950138.0346177,1635950139.6564765,d0ba04f8-bc6f-4700-b5e7-578e88791bce
-0.0595281968557742,0.0318141544560381,-0.1618209511634907,-0.1286273390302048,-0.1471039978446866,-0.0207943282194189,-0.2741464402059814,-0.3009848504105393,-12.772779005559878,3.716904286701052,-17.007410424459632,0.250865764341807,0.3661024908398986,0.7795432984952062,6611.205078125,10904.5,778.5,0.0012891429360024,-0.01656826864928,-1.0512978434562683,1500.0,1500.0,1350.0,1612.0,0.0,1021.7000000000002,250.0,289.15,1635950139.7654583,1635950141.4118493,d0ba04f8-bc6f-4700-b5e7-578e88791bce
-0.0758065574718489,0.0233496811551545,-0.2135391615937216,-0.1223954044225257,-0.1938640531656494,-0.0146308766189038,-0.3277890202765232,-0.3528605746563579,-13.126060087673972,3.790315016748398,-16.899166655545798,0.2484089943907915,0.3318519461623377,0.9890113235482456,6644.5166015625,10979.75,785.0,0.001306996186031,-0.0163803350878879,-1.0555508583784103,1500.0,1500.0,1350.0,1725.0,0.0,1021.7000000000002,250.0,289.15,1635950146.459143,1635950148.1662133,743c806a-0b38-4784-a728-6766993cc52c
-0.0730603973781541,0.0273901659561383,-0.2076427940945402,-0.12265563914692,-0.189597576373128,-0.0190617135512897,-0.3231527362908801,-0.3473956478617171,-13.049865997933912,3.8201891678678286,-16.960489682792566,0.2395595559810531,0.3474167875357263,0.969002899481139,6644.5166015625,10981.5,785.5,0.0011337598552927,-0.0162974810227751,-1.0567095875740051,1500.0,1500.0,1350.0,1725.0,0.0,1021.7000000000002,250.0,289.15,1635950148.2773626,1635950149.8966725,743c806a-0b38-4784-a728-6766993cc52c
-0.0753066330509292,0.0246713990704352,-0.2123270157609118,-0.1209641139515672,-0.1921656794949764,-0.0191507411187903,-0.3279465304800577,-0.3493337102445605,-13.203002880993028,3.765725778281922,-17.16530851341279,0.2348398108666617,0.3396127867628446,0.9850234419825162,6641.299743652344,10981.875,786.0,0.0016486324457218,-0.0161716165021061,-1.0568827986717224,1500.0,1500.0,1350.0,1725.0,0.0,1021.7000000000002,250.0,289.15,1635950150.0054271,1635950151.5523417,743c806a-0b38-4784-a728-6766993cc52c
0.0008736282016121,0.0624533560555488,-0.0066663281656491,-0.1630536419213955,0.0065440028950968,-0.0282247116764696,-0.0923314570991957,-0.1181563194692806,-11.591951470427516,1.6063808868350122,-16.98607864212803,0.3061585541012592,0.4865102526660723,0.105038099964794,7666.75,10530.3125,1181.5,0.0002438200463075,-0.0160272907232865,-1.014717362821102,1500.0,1500.0,1425.0,1275.0,0.0,1021.7000000000002,250.0,289.15,1635950156.400829,1635950158.0889509,bfa33e0d-dd86-4241-b2b8-9063f0799757
0.0006818763973204,0.0634463565782092,-0.0050638307852772,-0.1654026017946541,0.007831479366806,-0.0276494561189714,-0.0902084902821517,-0.1172865878316221,-11.576892557456622,1.5739430256042073,-17.05877926953863,0.312610658666443,0.4911626158091349,0.0980983413400957,7663.75244140625,10536.375,1182.5625,0.0001127996338254,-0.01596601086203,-0.992546059191227,1500.0,1500.0,1425.0,1275.0,0.0,1021.7000000000002,250.0,289.15,1635950158.1979153,1635950159.8444557,bfa33e0d-dd86-4241-b2b8-9063f0799757
-0.0003316689699695,0.0631518805578254,-0.0055432107195263,-0.1701073706979266,0.0069822923507002,-0.0215750327766278,-0.0889826486169131,-0.1150061109226967,-11.572151526200408,1.5586302781226429,-16.8492396926999,0.3367839133190424,0.4887160597830345,0.0983913288053647,7659.8984375,10540.6875,1184.125,0.0003528707097757,-0.015171097300481,-0.97597286850214,1500.0,1500.0,1425.0,1275.0,0.0,1021.7000000000002,250.0,289.15,1635950159.9537036,1635950161.4774463,bfa33e0d-dd86-4241-b2b8-9063f0799757
-0.0204450657596564,0.0532561168584263,-0.0739027378280807,-0.16808027969219,-0.0545768928094287,-0.0111451031065192,-0.1585063859908353,-0.1825575440414605,-12.091552584424628,1.542960613751534,-17.007376197064016,0.3518543519462569,0.4520952086513056,0.3726462622306294,7666.75,10547.75,1183.5625,0.0002188600473118,-0.016501140082255,-0.9379286989569664,1500.0,1500.0,1425.0,1387.0,0.0,1021.7000000000002,250.0,289.15,1635950166.4378767,1635950168.0316238,9e4b2f65-aebe-40f1-8e64-4ba1d98a7355
-0.0185234676143044,0.0543958454983058,-0.0708315011820943,-0.1692718808853784,-0.0518008607351108,-0.0106062748937551,-0.1551859881507899,-0.1787767093303486,-12.089422929913797,1.5264065361080887,-16.903277454041067,0.3558139852890383,0.4557733171879337,0.3602337982618407,7666.75,10546.0,1184.5,9.519016384729184e-05,-0.0164460656233131,-0.932146430015564,1500.0,1500.0,1425.0,1387.0,0.0,1021.7000000000002,250.0,289.15,1635950168.1412156,1635950169.6706924,9e4b2f65-aebe-40f1-8e64-4ba1d98a7355
-0.0182467679971802,0.0538450689446122,-0.0702799962271271,-0.1707511085509198,-0.0515157101792533,-0.0092960673167146,-0.153904339908428,-0.1780376779693794,-12.048865403013153,1.5212585175905702,-16.98042691189886,0.3620964238414353,0.4543212874888649,0.3571109060839723,7659.8984375,10540.0,1185.5,0.0004278151754988,-0.0167074790224432,-0.927312433719635,1500.0,1500.0,1425.0,1387.0,0.0,1021.7000000000002,250.0,289.15,1635950169.7797356,1635950171.5134804,9e4b2f65-aebe-40f1-8e64-4ba1d98a7355
-0.0397642078309169,0.0441426600055415,-0.1346656274475584,-0.1719995357252551,-0.1103475317810074,0.0051371913688482,-0.2183137237989079,-0.2405196360784155,-12.493613222315425,1.5430309160287892,-16.93728701847071,0.3940673884107406,0.4167691945574691,0.6152678629832421,7653.05859375,10525.375,1182.0,8.262977098638657e-05,-0.0168582958867773,-0.9179842881858348,1500.0,1500.0,1425.0,1500.0,0.0,1021.7000000000002,250.0,289.15,1635950175.8747208,1635950177.4542792,92ec8790-6ba2-4950-97c7-c6b22b8ba7d3
-0.0376479437693682,0.0438945191558104,-0.1316953687087462,-0.1691760041593808,-0.1067265408434366,0.0029281115346252,-0.2155388595935249,-0.2401515777237173,-12.501065058308669,1.5100370751333794,-16.893744957062424,0.3826664643079196,0.4153454474153114,0.6024008116213438,7653.05859375,10519.25,1182.625,0.0004529314646788,-0.0171031306963413,-0.916787013411522,1500.0,1500.0,1425.0,1500.0,0.0,1021.7000000000002,250.0,289.15,1635950177.5639236,1635950179.0011227,92ec8790-6ba2-4950-97c7-c6b22b8ba7d3
-0.0381821095750953,0.0458805201456493,-0.1332430804791922,-0.1716413852318426,-0.1093562807353405,0.0028185388697041,-0.2178193373981941,-0.2394188120344829,-12.500351872038172,1.558598619261401,-16.9707025398511,0.38821448172324,0.4236774320408449,0.6114299443552944,7646.23193359375,10516.125,1179.25,0.0003107653238032,-0.0169417673023417,-0.915390718728304,1500.0,1500.0,1425.0,1500.0,0.0,1021.7000000000002,250.0,289.15,1635950179.1096923,1635950180.9350502,92ec8790-6ba2-4950-97c7-c6b22b8ba7d3
-0.062993426353806,0.0326975824761808,-0.2008492996365192,-0.1615264760055143,-0.17081959198855,0.0104132806792117,-0.2889455754693762,-0.3124214794980126,-12.973974942777788,1.7699685288872535,-16.937381629718928,0.3802658836537869,0.3717626149756536,0.886691104488995,7605.5244140625,10513.8125,1158.6875,0.000462453244836,-0.0169267373858019,-0.9190548695623876,1500.0,1500.0,1425.0,1612.0,0.0,1021.7000000000002,250.0,289.15,1635950185.0745263,1635950186.668785,9c50e608-ea6c-4c67-827b-66de58881ae5
-0.0623976260291762,0.032608554824952,-0.2041090803063312,-0.1616086550463794,-0.1735999932171531,0.0107419981390758,-0.2915068312616484,-0.3140787628181894,-12.946267582818784,1.7104731012133811,-16.9356547509353,0.3806474362206565,0.3710197522728304,0.8986029710219684,7605.5244140625,10456.875,1165.875,-6.944042661416461e-05,-0.0168176908046007,-0.9205736443400384,1500.0,1500.0,1425.0,1612.0,0.0,1021.7000000000002,250.0,289.15,1635950186.7771175,1635950188.515947,9c50e608-ea6c-4c67-827b-66de58881ae5
-0.0616991015171259,0.032957817057007,-0.201540974963584,-0.1649917053413086,-0.1712647293435854,0.0146866072108208,-0.287466345692947,-0.3107847399234589,-12.93307010987528,1.6698951988988977,-16.743360376745965,0.3970390069016618,0.3711106312486472,0.8864785517610754,7605.5244140625,10454.625,1165.0,0.0001230796115123,-0.0166874030837789,-0.9214263893663884,1500.0,1500.0,1425.0,1612.0,0.0,1021.7000000000002,250.0,289.15,1635950188.6247494,1635950190.242896,9c50e608-ea6c-4c67-827b-66de58881ae5
-0.0841203688991772,0.022883998164406,-0.2664078837185475,-0.1491721795511385,-0.2294477158987337,0.0125841848491674,-0.3582159301514698,-0.3826437467120319,-13.424052000639628,1.832214922786149,-16.895945483494845,0.3542042361042554,0.3320979071363084,1.1531735448906022,7605.5244140625,10486.9375,1159.5,0.0004709368186013,-0.0162592134438455,-0.9257924444973468,1500.0,1500.0,1425.0,1725.0,0.0,1021.7000000000002,250.0,289.15,1635950193.5636826,1635950195.065298,e5a2c9e9-fec5-4172-a10c-0ee2079e9ef0
-0.0847298658297783,0.0240071159443134,-0.2733246475552858,-0.1478025232087258,-0.2358919481786439,0.0109611430012184,-0.3653929292274231,-0.3874786333505293,-13.404955971152091,1.784133003233319,-16.844756931636326,0.34682205791016,0.3351135064205623,1.181850841771444,7605.5244140625,10486.0,1162.0,0.000254525887783,-0.0166875275317579,-0.9271490499377252,1500.0,1500.0,1425.0,1725.0,0.0,1021.7000000000002,250.0,289.15,1635950195.1751645,1635950196.8177722,e5a2c9e9-fec5-4172-a10c-0ee2079e9ef0
-0.0822850300310564,0.0248905440011499,-0.2682089830883041,-0.1535619260615444,-0.2318172223032581,0.0145701864947635,-0.3590377257527575,-0.3818904369135661,-13.386943679121918,1.7765410853674204,-16.91837976524931,0.3681255915216055,0.3399852123551642,1.1602475180945364,7605.5244140625,10490.125,1161.8125,-0.0002656055803527,-0.0162936015985906,-0.9282817803323268,1500.0,1500.0,1425.0,1725.0,0.0,1021.7000000000002,250.0,289.15,1635950196.926109,1635950198.5560207,e5a2c9e9-fec5-4172-a10c-0ee2079e9ef0
0.0101804398924989,0.0672129101219586,0.0022775245420434,-0.1962061656226787,0.0216581553209925,-0.0049063206464791,-0.0645822284939457,-0.0883936962272279,-11.537147794855814,0.3001846547658963,-17.191226478475446,0.4251233598634847,0.5104184329542032,0.0333219251671417,8265.5986328125,10118.0,1490.5,-0.0011646262137219,-0.0159815773367881,-0.90591362118721,1500.0,1500.0,1500.0,1275.0,0.0,1021.7000000000002,250.0,289.15,1635950203.4013827,1635950204.8948154,5742a4ae-390d-49fe-a042-74eddfddd4ce
0.0059476553917697,0.0688115724587849,-0.0082200658431285,-0.1927291564667436,0.0118514193158773,-0.0059584899725153,-0.0751337833879347,-0.0951658227544373,-11.472919389989324,0.2353041032138809,-16.743839643230295,0.4140665501763126,0.5108999317680956,0.0769380606676892,8269.353228400736,10095.823529411764,1484.2941176470588,-0.000911595621694,-0.0159369888989364,-0.8928299651426428,1500.0,1500.0,1500.0,1275.0,0.0,1021.7000000000002,250.0,289.15,1635950205.0038092,1635950206.7444477,5742a4ae-390d-49fe-a042-74eddfddd4ce
0.0082548648800607,0.067952524309829,0.0001658375755549,-0.1936872066093301,0.0211715246758088,-0.0053643493316576,-0.0651458011939005,-0.0890648273898949,-11.489671994470902,0.1196262676343983,-16.83217143558707,0.4171909961479793,0.5092270483943405,0.0383909037462059,8257.6357421875,10101.0,1493.5,-0.0012702095991699,-0.0158065068535506,-0.8845182433724403,1500.0,1500.0,1500.0,1275.0,0.0,1021.7000000000002,250.0,289.15,1635950206.8523848,1635950208.3776543,5742a4ae-390d-49fe-a042-74eddfddd4ce
-0.0144322763450415,0.0561940287847407,-0.0812098513347458,-0.1969320828690887,-0.0509199106939903,0.0154056763582243,-0.1432758105193234,-0.1663887543037074,-12.04749694729721,-0.1396874858264747,-16.550343847948767,0.4651768048238573,0.4618121893335556,0.3574091415347045,8281.5712890625,10154.9375,1502.125,-0.000531822672201,-0.0162528124637901,-0.8614439368247986,1500.0,1500.0,1500.0,1387.0,0.0,1021.7000000000002,250.0,289.15,1635950212.884859,1635950214.5218585,b1280c2f-ddae-440c-98ec-4df75f8c9484
-0.0139392002034227,0.0578376157978885,-0.0721016387055948,-0.1973840695786872,-0.0444345893144194,0.0106666667622169,-0.1365028609103946,-0.1616428959476511,-11.98528036888093,0.0436267413330322,-16.995389245255964,0.4571763045493168,0.4721168826459482,0.3260526536693708,8292.589599609375,10163.0,1503.6875,-0.0005905232028453,-0.0166281352285295,-0.8565429337322712,1500.0,1500.0,1500.0,1387.0,0.0,1021.7000000000002,250.0,289.15,1635950214.630626,1635950216.3652563,b1280c2f-ddae-440c-98ec-4df75f8c9484
-0.0137675560854784,0.0562912160804441,-0.0774338257079192,-0.1939396766869459,-0.0467651898712428,0.0120052865780424,-0.1402468302097626,-0.1654951262716508,-12.060264505569316,-0.1477006488621923,-16.602082787191755,0.4509057660479055,0.4625964420750666,0.342249884675604,8289.087463378906,10141.3125,1499.125,-0.0008578238557674,-0.0162899111164733,-0.8525446243584156,1500.0,1500.0,1500.0,1387.0,0.0,1021.7000000000002,250.0,289.15,1635950216.4744606,1635950218.212711,b1280c2f-ddae-440c-98ec-4df75f8c9484
-0.03925044118035,0.0484212317997415,-0.1551301825606995,-0.1963225853955178,-0.1192109550204801,0.0284242559540629,-0.2184562272189891,-0.2406583506579021,-12.504831843514207,-0.1032895372095748,-16.27475346624626,0.4894306818490712,0.4286932484580967,0.6573452226851265,8260.124145507812,10110.125,1494.0625,-0.0009998802270274,-0.0167213167296722,-0.8478542640805244,1500.0,1500.0,1500.0,1500.0,0.0,1021.7000000000002,250.0,289.15,1635950221.936844,1635950223.5380049,367607e8-db84-4e6c-8617-c35e5e6117d5
-0.0395654620450186,0.0442917193458487,-0.1577599219852811,-0.1937065442049298,-0.1185877615033748,0.0303349244538019,-0.2196957660451365,-0.2429525245816231,-12.658029390361516,-0.2456939361493281,-16.248265367994893,0.486675208272763,0.413563380056665,0.6613578101386882,8253.662109375,10105.375,1495.0,-0.0006995957519393,-0.0164927665609866,-0.8466122299432755,1500.0,1500.0,1500.0,1500.0,0.0,1021.7000000000002,250.0,289.15,1635950223.647714,1635950225.2675362,367607e8-db84-4e6c-8617-c35e5e6117d5
-0.0371484565486661,0.0430446039823587,-0.151045550276686,-0.1903097963905223,-0.1129073343563922,0.023202660920811,-0.2159427658327174,-0.2389389966694703,-12.67863899550012,-0.0736308161038127,-16.95246848745895,0.4643381586333026,0.4152835044843633,0.6379255974503109,8250.681884765625,10106.25,1492.6875,-0.0003679554033624,-0.0169391854433342,-0.8456675782799721,1500.0,1500.0,1500.0,1500.0,0.0,1021.7000000000002,250.0,289.15,1635950225.3759072,1635950227.0186155,367607e8-db84-4e6c-8617-c35e5e6117d5
-0.0667531318975932,0.0352656871805078,-0.2369945228014836,-0.1858241726364543,-0.1950967455634089,0.0339165757792574,-0.3054293875043184,-0.3300352572702856,-12.986991187847307,0.1742234372250332,-16.60273082374307,0.4755591920030661,0.3791937824649869,0.9937123320492603,8242.747436523438,10076.375,1482.3125,-4.9742937790142605e-05,-0.0166270289337262,-0.8473813571035862,1500.0,1500.0,1500.0,1612.0,0.0,1021.7000000000002,250.0,289.15,1635950231.9728172,1635950233.418422,7b7cc013-632f-4174-af39-323489e8d03f
-0.0652054206645365,0.0329920584549662,-0.2358850995339062,-0.1862693112761348,-0.1926313628775423,0.0360874798807317,-0.303546108180465,-0.3273712751443762,-13.095697362258164,0.1246828318769935,-16.656352735901894,0.4811051907456564,0.3720352350607663,0.9857504074238588,8249.6884765625,10079.875,1483.25,-0.0001440074688616,-0.0169257298111915,-0.8478523045778275,1500.0,1500.0,1500.0,1612.0,0.0,1021.7000000000002,250.0,289.15,1635950233.5291145,1635950235.206559,7b7cc013-632f-4174-af39-323489e8d03f
-0.0668938858822827,0.0314275908642405,-0.239862202277879,-0.1820498965712792,-0.1967442655071941,0.0331830808946384,-0.3089977766670704,-0.3317911845355815,-13.066550794494429,0.2239895153017116,-16.772391777151398,0.4655171097943384,0.3662197460679449,1.0041992308752992,8245.72216796875,10090.625,1490.0,-0.0002170850173115,-0.0168265636311844,-0.8495527543127537,1500.0,1500.0,1500.0,1612.0,0.0,1021.7000000000002,250.0,289.15,1635950235.3153598,1635950236.8560112,7b7cc013-632f-4174-af39-323489e8d03f
-0.0928039875258324,0.0169122985127602,-0.3134418727820103,-0.1717646536230538,-0.2635589993420876,0.0402649308628396,-0.3880949783039511,-0.4130295680396177,-13.735584796517536,0.5256916322552483,-17.028825098378416,0.4561885758641479,0.3128608191415214,1.3054985235451055,8273.5771484375,10123.125,1493.75,6.126354492153041e-06,-0.0168555134441703,-0.852692537009716,1500.0,1500.0,1500.0,1725.0,0.0,1021.7000000000002,250.0,289.15,1635950240.9847891,1635950242.470878,dba53f2a-a444-415b-a299-2747105dc4cc
-0.0922835182641452,0.0186175200938401,-0.3129282515057408,-0.1720796762162488,-0.2625523019600286,0.0407511576758997,-0.3867938048649024,-0.4129747817094746,-13.730858272521658,0.4289954038483752,-16.755461072412185,0.4574223251722983,0.3168698721658253,1.3022067662422545,8268.091918945312,10123.0,1492.9375,-0.0001119577175359,-0.0168909071944654,-0.8536823242902756,1500.0,1500.0,1500.0,1725.0,0.0,1021.7000000000002,250.0,289.15,1635950242.5798142,1635950244.2216482,dba53f2a-a444-415b-a299-2747105dc4cc
-0.0906262346196335,0.0170629606589363,-0.313393935419594,-0.1748052899629005,-0.2639835931716676,0.0423194145820389,-0.3874443923717045,-0.4123104989228876,-13.725964381672322,0.5270772495830147,-17.111141071266275,0.4676674991379209,0.314464797138502,1.3049668252776236,8281.5712890625,10143.5,1497.0,4.455388989299536e-05,-0.016450067050755,-0.8540025353431702,1500.0,1500.0,1500.0,1725.0,0.0,1021.7000000000002,250.0,289.15,1635950244.3328393,1635950246.0690403,dba53f2a-a444-415b-a299-2747105dc4cc
-0.051481468364868076,0.0335330725988145,-0.06292494350820414,-0.03955861370287233,-0.08832521257506494,-0.1061444362674956,-0.2421444266262649,-0.2654148826908563,-12.429569169643559,8.894301667583962,-16.801948985889524,-0.10239307842410712,0.36369034286978924,0.5185081272319403,-1.0,11913.9375,0.0,0.0017539641048642807,-0.018444804823957384,-1.133776381611824,1500.0,1500.0,1000.0,1500.0,0.0,1021.7000000000002,250.0,289.15,1635950251.0202925,1635950252.6193264,b3214f0b-92fb-4930-84d8-a654be7fc105
-0.05126917169877961,0.03356731399587271,-0.06244556393764988,-0.039627096497860025,-0.08816770214299435,-0.1064526088534579,-0.242041702424265,-0.2660038347582364,-12.431291111677103,8.927699773508174,-16.848077159317878,-0.10269405286339699,0.3642791774634735,0.5174174594598001,-1.0,11902.1875,0.0,0.0023296359431697056,-0.01923414960037917,-1.2972152829170227,1500.0,1500.0,1000.0,1500.0,0.0,1021.7000000000002,250.0,289.15,1635950252.7271984,1635950254.3454401,b3214f0b-92fb-4930-84d8-a654be7fc105
-0.05126917169923018,0.03343034840911538,-0.06220587415258421,-0.03973666897011825,-0.08844163332866883,-0.1066649055239402,-0.24201430930384915,-0.26620243488594914,-12.4004166620565,8.96695112923265,-16.911249153296456,-0.1026463348153297,0.36413619471117736,0.5173236877502133,-1.0,11671.5,0.0,0.002710542263230309,-0.019507839810103178,-1.4263312816619873,1500.0,1500.0,1000.0,1500.0,0.0,1021.7000000000002,250.0,289.15,1635950254.455211,1635950255.9998446,b3214f0b-92fb-4930-84d8-a654be7fc105
