raw_voltage_G-,raw_voltage_G0,raw_voltage_G1,raw_voltage_G2,raw_voltage_G3,raw_voltage_G4,raw_voltage_G5,raw_voltage_G6,load_x,load_y,load_z,load_l,load_m,load_n,rpm,voltage,current,roll,pitch,yaw,aileron1_pwm,elevator_pwm,throttle_pwm,rudder_pwm,aileron2_pwm,pbaro,pdiff,Tt,sample_start_time,sample_end_time,uid
-0.049283444563185,0.0354862018648372,-0.0575802722106249,-0.0471730787580765,-0.0885257302093999,-0.1023976054967632,-0.2387430228833746,-0.2626342069109482,-12.3036828869141,9.277747557979415,-16.96554087499712,-0.0739517532482951,0.3728575140129571,0.5065224845747197,1889.1866989135744,11870.75,38.875,0.0057746335223782,-0.0150271684979088,-1.733527734875679,1000.0,1500.0,1200.0,1500.0,2000.0,1021.7000000000002,250.0,289.15,1635951824.3118584,1635951825.8132355,09e32047-ff8d-43c0-b088-7c2ec6d9e742
-0.0503835074657243,0.0353647776794439,-0.0571054432559753,-0.046653571071008,-0.0878438763591746,-0.1026227433903554,-0.2380274922234266,-0.2631978567322756,-12.290979748575046,9.255629282671665,-16.941686146581244,-0.0757423346075557,0.3720665299424973,0.5039692367534397,1937.209991455078,11870.625,39.5,0.0057410149020142,-0.0150067332433536,-1.717911273241043,1000.0,1500.0,1200.0,1500.0,2000.0,1021.7000000000002,250.0,289.15,1635951825.92291,1635951827.548956,09e32047-ff8d-43c0-b088-7c2ec6d9e742
-0.050323130797609,0.0352440243454662,-0.0578031292066233,-0.0459223425262198,-0.0880853830358581,-0.1028977926638272,-0.2387318867495544,-0.26360707642336,-12.313750425114671,9.233014099869342,-16.90691037481054,-0.0782004570963304,0.3713319369929913,0.5062863141286797,1923.5743408203125,11875.875,38.375,0.0054435284691862,-0.014876774395816,-1.70527982711792,1000.0,1500.0,1200.0,1500.0,2000.0,1021.7000000000002,250.0,289.15,1635951827.658943,1635951829.3070114,09e32047-ff8d-43c0-b088-7c2ec6d9e742
-0.0499206196728801,0.035425154346171,-0.0599297296503689,-0.048934467437448,-0.0895411316211487,-0.0994965735972936,-0.2393826131132734,-0.2657336770102212,-12.346003698986838,9.139563912024322,-16.801931569805816,-0.0644877322289407,0.3715435979308781,0.5122537502186342,1921.7107620239256,11913.4375,34.5,0.0055982563644647,-0.0150473116082139,-1.6801297888159752,1250.0,1500.0,1200.0,1500.0,1750.0,1021.7000000000002,250.0,289.15,1635951833.1210766,1635951834.7133155,284a7359-2b29-4ed7-a153-1d8b19047dd6
-0.0498093924322829,0.0354664788202788,-0.0598615710985509,-0.04903361934496,-0.0892686315846345,-0.0999585222065561,-0.2390454429338368,-0.2649220803406753,-12.335772854022196,9.107338862672718,-16.872888018812404,-0.0655185208495963,0.3722710457406314,0.5112340627266829,1914.658660888672,11914.75,35.5,0.0057678705197758,-0.0152562997536733,-1.6755760163068771,1250.0,1500.0,1200.0,1500.0,1750.0,1021.7000000000002,250.0,289.15,1635951834.8236134,1635951836.5603602,284a7359-2b29-4ed7-a153-1d8b19047dd6
-0.0493623367440103,0.0355650940427397,-0.0596446176024496,-0.0484747997351399,-0.0892094624495744,-0.1003990035552569,-0.2391572068662624,-0.2612667423138587,-12.333988606112625,9.129144678284064,-16.848499348038796,-0.0676087593202935,0.3723574489927972,0.51106039731539,1929.6868438720703,11915.25,35.0,0.0057094473741017,-0.0154368699295446,-1.6710176914930344,1250.0,1500.0,1200.0,1500.0,1750.0,1021.7000000000002,250.0,289.15,1635951836.6708202,1635951838.3070717,284a7359-2b29-4ed7-a153-1d8b19047dd6
-0.0497663237421881,0.0350494773079334,-0.060406034482821,-0.0468950777451528,-0.0892057056792588,-0.1012676225800779,-0.2399058776226849,-0.2645462690888702,-12.358461388574732,9.092737946215564,-16.842256426082876,-0.0734147099445996,0.3702980694295947,0.5131172172724193,1928.555603027344,11911.5,36.5,0.0055908886715769,-0.0150898257270455,-1.6634725332260132,1500.0,1500.0,1200.0,1500.0,1500.0,1021.7000000000002,250.0,289.15,1635951841.629268,1635951843.1171196,caa92b9a-59db-45dd-8987-d854bed2bafc
-0.0493705211375167,0.0350427687895383,-0.0604664111533756,-0.0476665573959962,-0.0891855801241234,-0.1011468692388105,-0.2396777879705601,-0.2668607083185163,-12.355865542749356,9.070948202505107,-16.926070520466315,-0.0715625989522357,0.3710881664111488,0.5127323242471338,1915.8306884765625,11912.25,36.25,0.0054109583143144,-0.0148209200706332,-1.662033885717392,1500.0,1500.0,1200.0,1500.0,1500.0,1021.7000000000002,250.0,289.15,1635951843.227038,1635951844.7623315,caa92b9a-59db-45dd-8987-d854bed2bafc
-0.0504841352469322,0.0345329213810811,-0.0607146263455772,-0.0470359566383493,-0.0892727908671836,-0.1013078736951405,-0.23989246058447,-0.264197426073624,-12.352129175192172,9.070736841025886,-16.939218197603935,-0.0733608538981755,0.3691726315297181,0.5134230947391908,1917.472297668457,11912.9375,35.875,0.0057735120935831,-0.0149820994702167,-1.6611521616578102,1500.0,1500.0,1200.0,1500.0,1500.0,1021.7000000000002,250.0,289.15,1635951844.872571,1635951846.5045478,caa92b9a-59db-45dd-8987-d854bed2bafc
-0.0497797407797261,0.0351299795306828,-0.0609494245046158,-0.0464590240269718,-0.0893398760572086,-0.1027166626551474,-0.2404761017633111,-0.263915668261519,-12.365140069103669,9.05495457125975,-16.983666103728154,-0.0779579579775753,0.3718118058169334,0.514677494959859,1914.5469970703125,11917.0,34.375,0.0056078078923746,-0.0151857462478801,-1.6603385210037231,1750.0,1500.0,1200.0,1500.0,1250.0,1021.7000000000002,250.0,289.15,1635951849.6408455,1635951851.2199314,e493bb2a-9711-447a-a8da-892cf02b4f7f
-0.0500078304168469,0.035002517678104,-0.0607884200511963,-0.0465864858853957,-0.0891587460463203,-0.1027300796961367,-0.240301680260154,-0.2663844033778607,-12.368667733040008,9.0548346245207,-17.018680129681243,-0.0777007205048191,0.3716949408129238,0.5138946410450739,1928.1499633789065,11911.5,35.6875,0.0055737399088684,-0.0151092914165928,-1.6601799055933952,1750.0,1500.0,1200.0,1500.0,1250.0,1021.7000000000002,250.0,289.15,1635951851.3286178,1635951852.9491596,e493bb2a-9711-447a-a8da-892cf02b4f7f
-0.0506048885838399,0.034801262122803,-0.0609695500571052,-0.0470963333083326,-0.0891520375279685,-0.1019988511369072,-0.2400534650409651,-0.264499309482549,-12.36831367610482,9.031568292375232,-17.00897399215939,-0.07506899037834,0.3709024748105048,0.5137736622060337,1929.580596923828,11908.6875,36.9375,0.0055726560240145,-0.015040666621644,-1.6602559834718704,1750.0,1500.0,1200.0,1500.0,1250.0,1021.7000000000002,250.0,289.15,1635951853.058184,1635951854.6959343,e493bb2a-9711-447a-a8da-892cf02b4f7f
-0.0497260726291573,0.0342109124918784,-0.0617879893456257,-0.0466804051499141,-0.089849723487466,-0.1021464385510625,-0.2407578595642413,-0.2678200265267598,-12.354336709277511,9.029799727699327,-17.063620970341134,-0.0763930232631441,0.3689705896794143,0.5167081063269339,1939.456428527832,11822.5,42.125,0.0058014876849483,-0.0153674926259554,-1.6656156778335571,2000.0,1500.0,1200.0,1500.0,1000.0,1021.7000000000002,250.0,289.15,1635951858.7173176,1635951860.223101,67ab4f62-4aeb-4053-9b44-2585c890cb64
-0.050323130796785,0.0343383743438778,-0.0614592719287909,-0.0472573377584694,-0.0896082168103341,-0.1020927704028672,-0.240502935833202,-0.2649957398703479,-12.365984531091918,9.034272190117708,-17.11147636661327,-0.074938480369891,0.3700471782439472,0.5155010177008044,1937.4352524701287,11819.411764705885,44.70588235294117,0.006116706850555,-0.0151797209263724,-1.6674620333839865,2000.0,1500.0,1200.0,1500.0,1000.0,1021.7000000000002,250.0,289.15,1635951860.3372009,1635951862.067153,67ab4f62-4aeb-4053-9b44-2585c890cb64
-0.0506518482158282,0.0342511636026334,-0.0621368323214148,-0.0481764048197435,-0.0901851494284019,-0.1011401607187796,-0.2407914021626832,-0.2673370131493621,-12.36953207609707,9.016415930976036,-17.111998364975076,-0.0708786273342786,0.3698197203309118,0.5176066252203393,1938.798095703125,11825.0,43.0,0.0059321862645447,-0.0153826558962464,-1.6680636405944824,2000.0,1500.0,1200.0,1500.0,1000.0,1021.7000000000002,250.0,289.15,1635951862.1758242,1635951863.798398,67ab4f62-4aeb-4053-9b44-2585c890cb64
-0.0458082977366838,0.0384842386355339,-0.076425977685416,-0.087951212965316,-0.0883403071366792,-0.0745543007514531,-0.2236779699925332,-0.2469364061601606,-12.185070800799137,6.500748006027117,-17.909049361827424,0.0611632000191519,0.3954036072267696,0.5104064384900084,4936.569976806641,11406.1875,372.5,0.0045299241319298,-0.0148592394543811,-1.561689168214798,1000.0,1500.0,1275.0,1500.0,2000.0,1021.7000000000002,250.0,289.15,1635951868.6630409,1635951870.2611177,582c457b-6d7b-491f-a08d-14dc14ecfac0
-0.0463516877488028,0.0366997727179947,-0.0758758789090769,-0.0831009537914966,-0.0875554102005673,-0.0771639144950579,-0.2249458798433653,-0.2500223248050611,-12.240572290323987,6.609782184013261,-17.89744921349881,0.0450821562003458,0.3884403409250949,0.5101521735490385,4944.400604248047,11409.5,373.0,0.0044786722573917,-0.0146477264352142,-1.5009382292628288,1000.0,1500.0,1275.0,1500.0,2000.0,1021.7000000000002,250.0,289.15,1635951870.3700078,1635951872.1059968,582c457b-6d7b-491f-a08d-14dc14ecfac0
-0.0450502351085252,0.037914014596901,-0.0755672871858805,-0.0861399128577105,-0.0883671411535604,-0.0749299777506662,-0.224315279213639,-0.2480701458074518,-12.19962771319328,6.644057063530955,-17.80563053460451,0.0572350824599518,0.3922852091939008,0.5102036411789155,4944.757110595703,11410.8125,372.4375,0.0046982476778794,-0.0143906557350419,-1.4610242769122124,1000.0,1500.0,1275.0,1500.0,2000.0,1021.7000000000002,250.0,289.15,1635951872.2150958,1635951873.7373416,582c457b-6d7b-491f-a08d-14dc14ecfac0
-0.0461906833322236,0.0383701937117811,-0.088715983887781,-0.1058965011068992,-0.1004693089422982,-0.0532950050125552,-0.230500533681959,-0.2579316690716893,-12.325359478094752,6.366750448176928,-17.32345861785378,0.147938332104529,0.3922067779062431,0.5540047522556278,4946.183349609375,11423.25,368.9375,0.0044753325928468,-0.0152286481461487,-1.3684489727020264,1250.0,1500.0,1275.0,1500.0,1750.0,1021.7000000000002,250.0,289.15,1635951878.6971223,1635951880.1797304,19378217-ddd9-4998-b899-1afd0a00cf59
-0.0465999029689323,0.0376121311478293,-0.0906815799634864,-0.1074998368602581,-0.1017372190538778,-0.0520472203667523,-0.2309432960490184,-0.2572675256836127,-12.293408623587826,6.2680715831707525,-17.469718183726126,0.1535997443962445,0.3905048600518334,0.5587921883214706,4951.0045166015625,11419.5,367.5,0.0049567891983315,-0.015186192234978,-1.3552438914775848,1250.0,1500.0,1275.0,1500.0,1750.0,1021.7000000000002,250.0,289.15,1635951880.2895167,1635951881.9313214,19378217-ddd9-4998-b899-1afd0a00cf59
-0.0469688715044251,0.0384641129684301,-0.0895142977288372,-0.105098187211664,-0.100482726050318,-0.0543952019019568,-0.2307755831615585,-0.2550604228758464,-12.316392183268034,6.284327036826537,-17.365438347506828,0.143076918878112,0.3927173329822389,0.5555020827018837,4954.58154296875,11418.764705882351,368.4705882352941,0.0049568147343747,-0.0152432819937958,-1.344178704654469,1250.0,1500.0,1275.0,1500.0,1750.0,1021.7000000000002,250.0,289.15,1635951882.0413387,1635951883.674008,19378217-ddd9-4998-b899-1afd0a00cf59
-0.0484648711336838,0.0355995757899775,-0.0936467455271871,-0.0942639292617109,-0.101925057814099,-0.061130554754049,-0.2374773941446295,-0.2639626281719847,-12.471586358631338,6.295828694118612,-17.344702536812733,0.103297912351276,0.3812925130500915,0.572305903819415,4957.447265625,11422.375,368.5625,0.0041664626915007,-0.016347465920262,-1.3217643201351166,1500.0,1500.0,1275.0,1500.0,1500.0,1021.7000000000002,250.0,289.15,1635951887.8039963,1635951889.6072476,272a9485-558f-461c-8794-c53acb4dab8a
-0.0489680100334936,0.0363308043136253,-0.0925532569132086,-0.0936937050523499,-0.1021464389042246,-0.0616471106985816,-0.2370882999468294,-0.2624666283616351,-12.396119322707182,6.388931271579228,-17.23751723798719,0.101577566869061,0.3825516403702982,0.5708221190931748,4960.31591796875,11432.0625,368.5,0.0047678955888841,-0.0160863182973116,-1.316887378692627,1500.0,1500.0,1275.0,1500.0,1500.0,1021.7000000000002,250.0,289.15,1635951889.7154777,1635951891.3565977,272a9485-558f-461c-8794-c53acb4dab8a
-0.0495449426347129,0.0343517913443182,-0.0946731487049545,-0.0927410954799485,-0.1020055598851183,-0.0617276130183846,-0.2373834745503072,-0.2615341439848114,-12.416293528991345,6.206919089605442,-17.40681463240931,0.0978985342343744,0.3765176418427051,0.5735308539986301,4962.290802001953,11432.75,369.0,0.0044888647680636,-0.0159840832930058,-1.3136627301573751,1500.0,1500.0,1275.0,1500.0,1500.0,1021.7000000000002,250.0,289.15,1635951891.4646864,1635951893.0913937,272a9485-558f-461c-8794-c53acb4dab8a
-0.0497327811637382,0.0367802750499233,-0.0917079835334287,-0.0817726674122474,-0.099691121066959,-0.072239862150679,-0.2402413038816488,-0.2642376773584194,-12.522762352039166,6.435210046615517,-17.12906429556337,0.051185715456494,0.3827591972357102,0.5710192084649933,4960.31591796875,11429.0,370.0,0.0036796197528019,-0.0164018161594867,-1.3093340992927551,1750.0,1500.0,1275.0,1500.0,1250.0,1021.7000000000002,250.0,289.15,1635951898.154342,1635951899.639395,418da4c1-ce13-4644-8ab0-ee3eaee235c1
-0.0492967274515634,0.0371492435565213,-0.0936199113254278,-0.0839059762634452,-0.1010395332157467,-0.0721861938429937,-0.239899169399169,-0.2636473276916982,-12.402782195876815,6.267377710946232,-17.353830705886118,0.054935321233521,0.3854245660670647,0.5748365494786583,4961.034057617188,11431.0,369.5,0.0040105474763549,-0.0159494751133024,-1.310089945793152,1750.0,1500.0,1275.0,1500.0,1250.0,1021.7000000000002,250.0,289.15,1635951899.7477548,1635951901.3912294,418da4c1-ce13-4644-8ab0-ee3eaee235c1
-0.049551651157532,0.0368406517030519,-0.0913457235032138,-0.0847646664720477,-0.0991879821367665,-0.0703950191087779,-0.2390673130754545,-0.2633588613828657,-12.550617918448546,6.391225531625659,-17.243400535174075,0.0617747527605757,0.3845867589824805,0.5679869842560453,4963.1884765625,11431.125,369.5,0.0039631281106267,-0.0157261718995869,-1.3105203807353971,1750.0,1500.0,1275.0,1500.0,1250.0,1021.7000000000002,250.0,289.15,1635951901.500383,1635951903.2343276,418da4c1-ce13-4644-8ab0-ee3eaee235c1
-0.0498602430209311,0.035170230576916,-0.096108771706273,-0.0877097061387935,-0.1045615055356217,-0.0642634329482353,-0.2434144333574923,-0.2684573359543785,-12.583388609334287,6.491099746208161,-17.026172971700213,0.0826395751481535,0.3766906639934759,0.5880023786642701,4961.836684283088,11345.117647058823,378.2941176470589,0.0033832235426148,-0.0160089620553395,-1.3174368143081665,2000.0,1500.0,1275.0,1500.0,1000.0,1021.7000000000002,250.0,289.15,1635951908.3940337,1635951909.8793373,0ff2a6d9-c439-4c78-99d6-38f5e30d1284
-0.0496120278425707,0.0355794502167777,-0.0928215979079451,-0.0834363797897506,-0.1016902599100161,-0.0682080419716244,-0.242723456413341,-0.2672430942675105,-12.652247832508891,6.618936767283357,-16.95642790951091,0.0651235168614284,0.3777791257568156,0.5787117868632009,4963.1884765625,11352.35294117647,376.4117647058824,0.0032243339262683,-0.0161131498787332,-1.3201727867126465,2000.0,1500.0,1275.0,1500.0,1000.0,1021.7000000000002,250.0,289.15,1635951909.9872444,1635951911.662907,0ff2a6d9-c439-4c78-99d6-38f5e30d1284
-0.0505042608243077,0.035042768737528,-0.0960819378169631,-0.0891319122009207,-0.1040181156679315,-0.0637535855406404,-0.2416299674551625,-0.2665588251226624,-12.508462397022836,6.37079864606793,-17.14952597186393,0.0862153171690101,0.3769503347209529,0.5845848852954261,4964.372501148897,11350.529411764706,378.2941176470589,0.003329322385766,-0.0159986459595315,-1.3222367272657507,2000.0,1500.0,1275.0,1500.0,1000.0,1021.7000000000002,250.0,289.15,1635951911.785284,1635951913.5704591,0ff2a6d9-c439-4c78-99d6-38f5e30d1284
-0.0411592942432926,0.036592436538284,-0.0898295982250078,-0.1228489281892265,-0.0847780835310822,-0.0457009617659236,-0.2071884297786486,-0.2312317625796567,-12.16388816135129,4.183540144009847,-18.59903327564573,0.1885934145133128,0.397681222957496,0.4998053620788497,6626.53857421875,10922.5,788.0,0.002607847447507,-0.0146801201626658,-1.2556616067886353,1000.0,1500.0,1350.0,1500.0,2000.0,1021.7000000000002,250.0,289.15,1635951916.6178362,1635951918.072841,98ea4d7f-03ec-4f3b-8413-63cc3878b90b
-0.0413940924068657,0.0357941228418786,-0.0921775805241191,-0.130872316766769,-0.0882866396560027,-0.0372817705964702,-0.207382977538757,-0.232103870327322,-12.131511941062696,4.209208305825895,-18.57396158494916,0.22568479754976,0.3950751371589299,0.5079422175768716,6623.97705078125,10921.875,786.4375,0.0022011287364875,-0.0145779842277988,-1.2234603241086006,1000.0,1500.0,1350.0,1500.0,2000.0,1021.7000000000002,250.0,289.15,1635951918.1842268,1635951919.7150755,98ea4d7f-03ec-4f3b-8413-63cc3878b90b
-0.0419911505631245,0.0356800780184435,-0.0882933476859593,-0.1286517971529013,-0.0835235907890147,-0.0393681201095933,-0.2033109060529614,-0.2298699333216918,-12.144457741399744,4.139682248555002,-18.564228641657987,0.2157150905320274,0.394624431134941,0.4904012529821694,6623.97705078125,10918.0,787.5,0.0028875687858089,-0.0143014342756941,-1.1934179216623306,1000.0,1500.0,1350.0,1500.0,2000.0,1021.7000000000002,250.0,289.15,1635951919.8241093,1635951921.5496566,98ea4d7f-03ec-4f3b-8413-63cc3878b90b
-0.0439433295076709,0.0376590909798371,-0.1194544174490677,-0.1675410821047026,-0.1137723019134136,0.0009836194282545,-0.2223698085008374,-0.2476273834653218,-12.361632166111177,3.694597355312472,-17.830325260061525,0.389621069649974,0.399884582358004,0.6021772531064665,6634.23095703125,10961.5,784.5,0.0035195449599996,-0.0150683149695396,-1.1349002122879028,1250.0,1500.0,1350.0,1500.0,1750.0,1021.7000000000002,250.0,289.15,1635951926.1514924,1635951927.6105964,c12ab906-f930-4d39-afe8-4571ed69c3aa
-0.0433599567146023,0.0382211306836015,-0.1178867707356419,-0.1646698356436814,-0.1123577435973773,-0.002460936289807,-0.2223991918399314,-0.2470267026558811,-12.390226000320636,3.750784351045951,-17.860432617501026,0.375835200498994,0.4022086152847545,0.5981631960292334,6634.23095703125,10960.6875,785.0,0.0031597043707733,-0.0145448498660698,-1.125801295042038,1250.0,1500.0,1350.0,1500.0,1750.0,1021.7000000000002,250.0,289.15,1635951927.7196608,1635951929.3433502,c12ab906-f930-4d39-afe8-4571ed69c3aa
-0.0434200650439873,0.0388532072911514,-0.1176565345657218,-0.1658706606977153,-0.1115316568597225,-0.0009953933383499,-0.2205853425746189,-0.2439645320319751,-12.35300017204927,3.633445675683891,-17.712251932987648,0.3811132096716485,0.4031629429578075,0.5944908029792694,6638.0849609375,10962.625,784.6875,0.0030412421037908,-0.0144246254349127,-1.1188310831785202,1250.0,1500.0,1350.0,1500.0,1750.0,1021.7000000000002,250.0,289.15,1635951929.4516203,1635951931.0887003,c12ab906-f930-4d39-afe8-4571ed69c3aa
-0.0482300729913348,0.0360087953916215,-0.120199063373406,-0.1380303071761776,-0.1091232986679636,-0.0220064743358163,-0.2300980231198082,-0.2529405310095897,-12.582578670424605,3.664944805385626,-17.49660328539025,0.2710985108546476,0.388619888621674,0.6082509173967394,6634.23095703125,10966.625,786.4375,0.0037591353757306,-0.0148707368643954,-1.1003834903240204,1500.0,1500.0,1350.0,1500.0,1500.0,1021.7000000000002,250.0,289.15,1635951935.7248447,1635951937.2265098,5f21c1da-738b-492e-a70b-1a166a5677a5
-0.04824349003902,0.0351769391353405,-0.1249956548059248,-0.1362391322945677,-0.11332954037995,-0.02247607008952,-0.23500865985331,-0.2593136247752942,-12.582292902177755,3.655277094364472,-17.48202383005147,0.2657023560455118,0.3848439077101122,0.6274497343536345,6636.80029296875,10969.25,785.5,0.003104722534772,-0.0148226110613904,-1.097524806857109,1500.0,1500.0,1350.0,1500.0,1500.0,1021.7000000000002,250.0,289.15,1635951937.3355153,1635951938.9658768,5f21c1da-738b-492e-a70b-1a166a5677a5
-0.0465462348078251,0.0363173872657999,-0.1196489655201455,-0.138681033471094,-0.1089019182173126,-0.0213557479052582,-0.2293466696533821,-0.2535040469938863,-12.558826110278432,3.671365579415857,-17.44152341268603,0.274119350894342,0.3892361099661026,0.6062530729050736,6633.9102783203125,10969.4375,786.0,0.0031007422221591,-0.0144796629319898,-1.0952515974640846,1500.0,1500.0,1350.0,1500.0,1500.0,1021.7000000000002,250.0,289.15,1635951939.075225,1635951940.7129438,5f21c1da-738b-492e-a70b-1a166a5677a5
-0.0463315621793277,0.0409865161590334,-0.121279134948485,-0.1197965521922368,-0.1091903839087654,-0.0409915815565852,-0.2374975198585049,-0.2608297497258875,-12.60045529014813,3.7126418160510215,-17.148590197785374,0.1876144416045417,0.4020188356515226,0.6215707975716992,6629.10009765625,10963.0,787.375,0.0032355715520679,-0.0145198475802317,-1.0914609283208847,1750.0,1500.0,1350.0,1500.0,1250.0,1021.7000000000002,250.0,289.15,1635951945.6681907,1635951947.2675335,d945f92b-c8ab-47e0-b381-0d77be9e734a
-0.0466804051561257,0.0385244898783397,-0.1216011439083343,-0.1146578271480413,-0.1086738279510199,-0.0433865230552199,-0.2389264346075379,-0.2635467001616673,-12.642567775931644,3.766745497569032,-17.166458707230962,0.1709595628230391,0.3925889870397759,0.6230109274821255,6631.024169921875,10965.9375,787.0,0.0031452075781999,-0.0147527962108142,-1.0916039496660233,1750.0,1500.0,1350.0,1500.0,1250.0,1021.7000000000002,250.0,289.15,1635951947.3763263,1635951949.0020409,d945f92b-c8ab-47e0-b381-0d77be9e734a
-0.0481329336378285,0.0393124724468081,-0.1246517758421832,-0.1173608240316186,-0.1115753966025185,-0.0418938780654875,-0.2407547744539447,-0.2666248372152113,-12.605254127671763,3.682909473352789,-17.21628936993079,0.1797142133548512,0.395859933007204,0.6337863486593707,6634.533231847427,10967.64705882353,785.9411764705883,0.0029783152482088,-0.0149840459994533,-1.091612514327554,1750.0,1500.0,1350.0,1500.0,1250.0,1021.7000000000002,250.0,289.15,1635951949.1369946,1635951950.6350763,d945f92b-c8ab-47e0-b381-0d77be9e734a
-0.0462108088569905,0.0391215480160841,-0.1210711709936223,-0.1231776461342768,-0.1099417380615079,-0.0341891439248245,-0.2375042286330007,-0.2641840095530444,-12.702642119482343,3.8764118887189056,-16.884752208313362,0.2116139726688412,0.3938411813097189,0.6222983803460082,6623.97705078125,10876.0,794.4375,0.0028688012971542,-0.014720365521498,-1.0983668342232704,2000.0,1500.0,1350.0,1500.0,1000.0,1021.7000000000002,250.0,289.15,1635951955.704005,1635951957.186123,ac821a96-2f98-49a9-af55-2a447087fcab
-0.047586055174321,0.039309386538609,-0.1214401390841508,-0.1221914937219797,-0.1103509573315631,-0.0348264530843013,-0.2379134476669906,-0.2623861259971075,-12.671876511208778,3.874124416984281,-16.82326463030854,0.207949087684185,0.3936381298362425,0.6240818885335216,6623.97705078125,10877.0,793.5,0.0024086777702905,-0.0151445798110216,-1.1008470058441162,2000.0,1500.0,1350.0,1500.0,1000.0,1021.7000000000002,250.0,289.15,1635951957.2953131,1635951958.9441836,ac821a96-2f98-49a9-af55-2a447087fcab
-0.0464590240355054,0.0399601128366269,-0.1198904714414622,-0.1260019319513437,-0.1098075674980311,-0.0320290004697278,-0.2353306678889548,-0.2568314720794075,-12.60703424264413,3.878219245845538,-16.818237707061215,0.2229685017989221,0.3961427145767016,0.617648159139877,6621.0997314453125,10879.6875,793.4375,0.0022337534173857,-0.0147055966663174,-1.1028640940785408,2000.0,1500.0,1350.0,1500.0,1000.0,1021.7000000000002,250.0,289.15,1635951959.0539937,1635951960.6717007,ac821a96-2f98-49a9-af55-2a447087fcab
-0.0368792593351004,0.042301385785809,-0.1087744557729796,-0.1566531555529797,-0.0905943696209801,-0.0232743838001962,-0.2014123950507978,-0.226274166904905,-12.092374337618686,2.1390809843913745,-19.067048896267448,0.3007080841335491,0.4256614553177149,0.5259508228594019,7653.05859375,10487.0,1186.5,0.0015501512680202,-0.0151714053936302,-1.0664030760526657,1000.0,1500.0,1425.0,1500.0,2000.0,1021.7000000000002,250.0,289.15,1635951965.626181,1635951967.2241504,1d58b0bb-e677-4cde-b978-b0b8935935a2
-0.0370402637758389,0.0422141750505575,-0.1051585643895125,-0.1550296938521407,-0.0869583527380113,-0.0246362130485852,-0.198688736496118,-0.2267974316043103,-12.142016473977185,2.1796834850128017,-19.036106626855062,0.2944148900533553,0.425441510261786,0.5121876125333612,7653.05859375,10492.25,1186.375,0.0014740506303496,-0.0147380819544196,-1.0461373180150986,1000.0,1500.0,1425.0,1500.0,2000.0,1021.7000000000002,250.0,289.15,1635951967.333182,1635951968.9796631,1d58b0bb-e677-4cde-b978-b0b8935935a2
-0.0350697034983719,0.0427705795595261,-0.1080449715188749,-0.1627961467206938,-0.090300804934019,-0.0167338467483641,-0.1992509103370557,-0.2222742795670198,-12.1477188430571,2.127015248711968,-18.86460354299184,0.3292233774003758,0.4268210384642586,0.5217338058815946,7653.05859375,10493.125,1187.75,0.0014249188243411,-0.0146111809881404,-1.029356487095356,1000.0,1500.0,1425.0,1500.0,2000.0,1021.7000000000002,250.0,289.15,1635951969.0890486,1635951970.7084424,1d58b0bb-e677-4cde-b978-b0b8935935a2
-0.037154308594169,0.0447298695001575,-0.1352865227617732,-0.2067255421980053,-0.11669721672662,0.0291593975269206,-0.2121728599422239,-0.2383562101519167,-12.36421081600622,1.6110294395232776,-17.965984325352476,0.526702867390764,0.4314103334678836,0.6143977014539738,7659.8984375,10528.4375,1183.4375,0.0011775237435358,-0.0149503132561221,-0.9970320463180542,1250.0,1500.0,1425.0,1500.0,1750.0,1021.7000000000002,250.0,289.15,1635951974.6411955,1635951976.179507,aed61303-9dc6-4505-821f-39ddd1bcf043
-0.0385630975188932,0.0447365780052122,-0.1392847998710209,-0.2049947441620191,-0.1199441397130273,0.0274822679972558,-0.2162449307643271,-0.2412408732850225,-12.361945250186404,1.560443936913241,-18.007347506196282,0.5184899990652125,0.4313186345212277,0.6300479749635892,7659.8984375,10532.0,1183.0,0.0014200762670952,-0.0152509093750268,-0.990400731563568,1250.0,1500.0,1425.0,1500.0,1750.0,1021.7000000000002,250.0,289.15,1635951976.2934103,1635951977.870602,aed61303-9dc6-4505-821f-39ddd1bcf043
-0.0379459137871871,0.0445084883905877,-0.1392982168883922,-0.2053033360494127,-0.1194879603967414,0.0289983931930951,-0.2153795319399238,-0.2383427929851609,-12.358543532777244,1.5083457436182963,-17.860184772872397,0.5222721801419672,0.4291710438247502,0.6284138039809155,7666.75,10533.5625,1182.9375,0.0010542443596932,-0.0155271596158854,-0.9850600734353064,1250.0,1500.0,1425.0,1500.0,1750.0,1021.7000000000002,250.0,289.15,1635951977.9818497,1635951979.6311767,aed61303-9dc6-4505-821f-39ddd1bcf043
-0.0450368180665842,0.0411206865335769,-0.1467916324535499,-0.1741288476167291,-0.120581448867908,0.007638470063482,-0.2298162650792913,-0.2526185218974616,-12.631503729472602,1.4783358800185302,-17.37057438900194,0.4033201571717205,0.4097434694653173,0.6610477546953659,7659.8984375,10538.0,1187.0625,0.0013966036931378,-0.0154317482956685,-0.9725377820432186,1500.0,1500.0,1425.0,1500.0,1500.0,1021.7000000000002,250.0,289.15,1635951984.672799,1635951986.3803751,1628cd5e-67e1-4cee-8db6-a9b2408e6e95
-0.043970163591395,0.0412011887638441,-0.1477174082799061,-0.170465996250363,-0.1211516731878347,0.0042037085275129,-0.231520229144207,-0.2534436699291447,-12.606584220920732,1.474785495924336,-17.378365463203266,0.3872809626277694,0.4094283548465402,0.6655621892836314,7659.8984375,10535.75,1184.5625,0.0014662903777207,-0.0149425631389021,-0.9714026302099228,1500.0,1500.0,1425.0,1500.0,1500.0,1021.7000000000002,250.0,289.15,1635951986.4884615,1635951988.2275903,1628cd5e-67e1-4cee-8db6-a9b2408e6e95
-0.044225087303302,0.0402619961292555,-0.1463757044209505,-0.174994246783685,-0.1207022023402645,0.0087118329283314,-0.2291319962302649,-0.2565161716954205,-12.590344492833452,1.518440249473389,-17.44729947735453,0.4079793305818045,0.4070451528569057,0.6594636371215694,7664.60888671875,10538.5,1185.3125,0.0011907263542525,-0.0144951364491134,-0.9700840972363948,1500.0,1500.0,1425.0,1500.0,1500.0,1021.7000000000002,250.0,289.15,1635951988.3362186,1635951989.9607356,1628cd5e-67e1-4cee-8db6-a9b2408e6e95
-0.0435237675922591,0.0433877465008499,-0.147603922591082,-0.1545823197597247,-0.1200943827122756,-0.0098781710153587,-0.2373780246333955,-0.2596760242565445,-12.714781736375974,1.6072577183849197,-17.019750562040524,0.3206939430246125,0.4132704968514401,0.6730872843743883,7666.75,10541.882352941177,1186.1764705882354,0.0016598293681026,-0.0151528090457705,-0.969714385621688,1750.0,1500.0,1425.0,1500.0,1250.0,1021.7000000000002,250.0,289.15,1635951995.231553,1635951996.829007,2f29ba1b-00ab-4e31-b829-52ea7dc2c941
-0.0445538047332037,0.0438376365255966,-0.1449736240325194,-0.1525743772919845,-0.1165496291774881,-0.0118430691443897,-0.2348275293741987,-0.2601588978979351,-12.755353444679267,1.539578533267549,-16.95262461535535,0.3114217236246422,0.4145684573934179,0.6612085754541279,7666.75,10544.8125,1186.125,0.0012598811008501,-0.0149568308261223,-0.9694026596844196,1750.0,1500.0,1425.0,1500.0,1250.0,1021.7000000000002,250.0,289.15,1635951996.9374688,1635951998.373101,2f29ba1b-00ab-4e31-b829-52ea7dc2c941
-0.0444867195429965,0.0440254750347884,-0.1458993997082963,-0.1528292996437447,-0.1178242478556476,-0.0120979917739755,-0.2356795112530307,-0.258146342000827,-12.710520232511506,1.5468971851724156,-17.00321195915541,0.3114408435691546,0.4153768231812546,0.6653971205266528,7666.75,10543.0625,1187.875,0.0010421118095109,-0.0151052042492665,-0.970375083386898,1750.0,1500.0,1425.0,1500.0,1250.0,1021.7000000000002,250.0,289.15,1635951998.483023,1635952000.101477,2f29ba1b-00ab-4e31-b829-52ea7dc2c941
-0.0478208533708842,0.0414628209534231,-0.1502129777666326,-0.1530171384647893,-0.123050184424747,-0.00545655846228,-0.2412341655972424,-0.2643517226888943,-12.82394923397276,1.7871265422013591,-16.48121491637441,0.3281925834789557,0.4016954315278914,0.6865501452088676,7653.05859375,10457.625,1193.125,0.0014240399177651,-0.01511568040587,-0.9758672267198564,2000.0,1500.0,1425.0,1500.0,1000.0,1021.7000000000002,250.0,289.15,1635952005.2647974,1635952006.751325,5b52c3c7-d4f3-4c36-bbbb-bc4979ea9492
-0.0471634185252766,0.0416774935241895,-0.1510582510730803,-0.1533525646575121,-0.1239826685689347,-0.0048863345189543,-0.2421331069444749,-0.267102215442093,-12.831872522598443,1.7956870334970252,-16.420972719818227,0.3302508662645312,0.4020105957127949,0.6903512701545659,7653.05859375,10458.375,1193.5,0.0011734619183698,-0.0148295602994039,-0.9772333055734634,2000.0,1500.0,1425.0,1500.0,1000.0,1021.7000000000002,250.0,289.15,1635952006.860055,1635952008.4018033,5b52c3c7-d4f3-4c36-bbbb-bc4979ea9492
-0.0453655355314198,0.0430259057118815,-0.1489517759290224,-0.1582095339988117,-0.1231038523080583,-0.002974408333596,-0.2395503272021639,-0.2665521170386759,-12.804189014445951,1.81366977058244,-16.57937201245566,0.3457161361026699,0.4090077542647568,0.6825147478198135,7653.05859375,10456.5,1192.0,0.0007523036911152,-0.0147203253582119,-0.9789628982543944,2000.0,1500.0,1425.0,1500.0,1000.0,1021.7000000000002,250.0,289.15,1635952008.5098794,1635952010.14177,5b52c3c7-d4f3-4c36-bbbb-bc4979ea9492
-0.0324583455199704,0.0451726316720626,-0.119092158850279,-0.1781405430241583,-0.090856002837658,-0.0082271775554192,-0.1944087018228442,-0.2197870291749412,-12.088206821744178,0.6835556101362731,-19.33593726237061,0.3727880765655657,0.4407508124442256,0.530779638296325,8297.60546875,10125.0,1506.125,0.0001463982767972,-0.0155529731418937,-0.9592751562595369,1000.0,1500.0,1500.0,1500.0,2000.0,1021.7000000000002,250.0,289.15,1635952013.6168067,1635952015.2611358,15507044-39ee-4f7b-a1f0-44a1a6bdb2d5
-0.033954345191824,0.0457026046716249,-0.1215608934416633,-0.1793011165673611,-0.0916408991703646,-0.0056913570767927,-0.1942275718533933,-0.216593774122533,-12.062085055448064,0.4632627882200578,-19.06001726065491,0.3795782313833408,0.4400908287724524,0.5355077534383451,8297.60546875,10125.4375,1508.3125,1.4026711141923442e-05,-0.0150356153608299,-0.94911003485322,1000.0,1500.0,1500.0,1500.0,2000.0,1021.7000000000002,250.0,289.15,1635952015.368945,1635952016.997948,15507044-39ee-4f7b-a1f0-44a1a6bdb2d5
-0.0343836903964099,0.0445621564804358,-0.1194611277624074,-0.1803073939226576,-0.0916274829312484,-0.0046716616498052,-0.1938854381887002,-0.2176335950898125,-12.065273953633271,0.7013174268579562,-19.19900153621317,0.3857984255001095,0.4373288845128435,0.5316973681768401,8297.60546875,10127.6875,1508.0625,-0.0003658522364275,-0.0151721870643086,-0.9409795999526978,1000.0,1500.0,1500.0,1500.0,2000.0,1021.7000000000002,250.0,289.15,1635952017.105875,1635952018.7404375,15507044-39ee-4f7b-a1f0-44a1a6bdb2d5
-0.0357321026177698,0.0494191239308166,-0.1553919539018313,-0.2350220763759704,-0.1260488919156692,0.0522769523364726,-0.2120521062751769,-0.2352367485394868,-12.37434426941195,-0.0110640347301323,-17.788100793171385,0.6307502330471616,0.4496748557071356,0.6555978427747344,8297.60546875,10153.0625,1508.0625,-0.0001479713205867,-0.01570149383042,-0.9205598533153534,1250.0,1500.0,1500.0,1500.0,1750.0,1021.7000000000002,250.0,289.15,1635952023.115188,1635952024.6855009,43f3d5e1-6e48-447d-afbe-26f06d4c2c32
-0.0350545422521926,0.0473193576117744,-0.1506423229729374,-0.2320703282016294,-0.121688355119064,0.0509151228314816,-0.208436215245003,-0.2333449465015666,-12.385532955607356,0.1090025991660684,-17.856909594231958,0.6220474351286582,0.4424282109479482,0.6376537642848855,8279.63037109375,10044.0,1487.5,0.0003438876956352,-0.0160061921924352,-0.9168707579374312,1250.0,1500.0,1500.0,1500.0,1750.0,1021.7000000000002,250.0,289.15,1635952024.7948916,1635952026.4149275,43f3d5e1-6e48-447d-afbe-26f06d4c2c32
-0.0359534837584531,0.0488824424327873,-0.1542917569484043,-0.2356124274903236,-0.1248816098049497,0.0529343863795122,-0.2107036940670052,-0.2334858250789907,-12.385448482223437,-0.0125750596368324,-17.837140970083667,0.633590621431757,0.4483176143813833,0.6504419942072048,8257.6435546875,10110.0,1502.0,-0.0002069855108857,-0.0157925738021731,-0.9152085185050964,1250.0,1500.0,1500.0,1500.0,1750.0,1021.7000000000002,250.0,289.15,1635952026.5233943,1635952028.1588728,43f3d5e1-6e48-447d-afbe-26f06d4c2c32
-0.0450234010521433,0.0409999331813562,-0.1676819618099048,-0.1957302793177975,-0.1295507397731186,0.0296960791091629,-0.2314464366722453,-0.2561002442144737,-12.691291606368145,-0.048717811805311,-17.147604501596117,0.4904563120549667,0.4090469236669312,0.7047564735134239,8287.577880859375,10149.5,1501.0,4.321958735431508e-05,-0.0150238766800612,-0.9087588042020798,1500.0,1500.0,1500.0,1500.0,1500.0,1021.7000000000002,250.0,289.15,1635952032.3041203,1635952033.8982365,63981f36-5aad-46dc-be25-2dc7e7a58d0b
-0.04352069285184,0.0414225698297537,-0.1647100868789898,-0.2007281269945287,-0.1269411248962234,0.0325270731617725,-0.2271664001272851,-0.2520751319287882,-12.693380621928508,-0.0950145971721194,-17.311941203048875,0.5079056783398324,0.4129063235198364,0.6908503061815157,8289.580078125,10147.5,1498.0,0.0004067595291417,-0.0155213768593966,-0.9076359272003174,1500.0,1500.0,1500.0,1500.0,1500.0,1021.7000000000002,250.0,289.15,1635952034.0079048,1635952035.6267204,63981f36-5aad-46dc-be25-2dc7e7a58d0b
-0.0433865224770396,0.0418720405673143,-0.1661121675068326,-0.1978300463324597,-0.1291549362889545,0.0302663025866581,-0.2303999067497676,-0.2551275084633747,-12.682894026564052,0.0251531399513023,-17.21075909432249,0.4970362649463656,0.4131774538115088,0.7005611315696343,8289.580078125,10147.125,1502.875,9.165686060441658e-05,-0.0157476244494318,-0.9065857604146004,1500.0,1500.0,1500.0,1500.0,1500.0,1021.7000000000002,250.0,289.15,1635952035.73594,1635952037.276192,63981f36-5aad-46dc-be25-2dc7e7a58d0b
-0.0449563158949793,0.0440791431139524,-0.1711838090268795,-0.1698756477514378,-0.1310199057479763,0.0065651061545745,-0.2440987040509491,-0.26766573165443,-12.83963058330449,0.1146383237823403,-16.686105047291733,0.3810636475010669,0.4141529952861837,0.7306244702348653,8292.088012695312,10154.5625,1505.0625,-0.0001027163489197,-0.0163146167760714,-0.9059976153075696,1750.0,1500.0,1500.0,1500.0,1250.0,1021.7000000000002,250.0,289.15,1635952042.22377,1635952043.8224392,c6c4ea15-d919-450e-8a8c-646f6fcb13e4
-0.0439366210405834,0.0444950713187225,-0.1675343739272849,-0.1746923634827566,-0.1268069550135437,0.0089868820533959,-0.2379872422403667,-0.2618628619247601,-12.819981784635177,-0.0478529720500976,-16.874881756742344,0.3964553735711726,0.418068672565222,0.7110325492005445,8289.580078125,10155.1875,1503.875,0.0004244274132361,-0.0156644424423575,-0.9060463197529316,1750.0,1500.0,1500.0,1500.0,1250.0,1021.7000000000002,250.0,289.15,1635952043.931121,1635952045.5803535,c6c4ea15-d919-450e-8a8c-646f6fcb13e4
-0.0438793302697509,0.044493058789841,-0.1670431758751761,-0.1695940237288115,-0.1276168072723181,0.0036400581281799,-0.24047865188593,-0.2645539173054531,-12.783864958844024,0.1434679052622696,-16.977992655339953,0.3742342323184665,0.4181260369024346,0.7148590428207665,8289.580078125,10155.4375,1505.375,0.0002886662987293,-0.0160703292349353,-0.9066463001072408,1750.0,1500.0,1500.0,1500.0,1250.0,1021.7000000000002,250.0,289.15,1635952045.694081,1635952047.301206,c6c4ea15-d919-450e-8a8c-646f6fcb13e4
-0.0448020199675044,0.0430594483170291,-0.1702311991448549,-0.1749338717722501,-0.13240856895591,0.0168492642823315,-0.2439645333262699,-0.2707046908206477,-12.957680307443502,0.4043311680990393,-16.027378862641115,0.4175970621128523,0.4060138522315321,0.7315862277907805,8281.5712890625,10071.875,1508.0,-0.0002143303199773,-0.0159245358081534,-0.9106593541800976,2000.0,1500.0,1500.0,1500.0,1000.0,1021.7000000000002,250.0,289.15,1635952051.145156,1635952052.7419786,1bcb76da-6cc2-4755-9abf-980f29d695ca
-0.0476799744981167,0.0432003272210828,-0.173558624581412,-0.1755980145069256,-0.1364538058784526,0.0173859467201338,-0.2468223628090979,-0.2697789151954699,-12.84909099211984,0.4184200078817056,-16.04295561941864,0.4202810936227943,0.4057827897920668,0.745759984370448,8281.5712890625,10066.4375,1507.8125,-0.0005238188177827,-0.0158788940170779,-0.9115580841898918,2000.0,1500.0,1500.0,1500.0,1000.0,1021.7000000000002,250.0,289.15,1635952052.851786,1635952054.5854206,1bcb76da-6cc2-4755-9abf-980f29d695ca
-0.0450035438735492,0.044683714790467,-0.1716978150930846,-0.1771676735645482,-0.1342437509283089,0.0168347748889699,-0.2451464402238481,-0.2713320715464735,-12.930988242866794,0.3682788654361406,-16.10546860453545,0.4222923774663619,0.4127904683523037,0.7378680290172845,8281.5712890625,10044.625,1500.3125,-9.591887169335678e-05,-0.016736973891966,-0.9136854596436024,2000.0,1500.0,1500.0,1500.0,1000.0,1021.7000000000002,250.0,289.15,1635952054.6943138,1635952056.3151505,1bcb76da-6cc2-4755-9abf-980f29d695ca
-0.052308852342548534,0.03197697581967566,-0.06359258088704525,-0.040240227155877745,-0.08830676414902554,-0.10823106516202859,-0.24300521350788176,-0.2669814616359205,-12.484835950806236,8.868266394652917,-17.409464519899533,-0.10587495544080242,0.3636707484047588,0.5195395647092076,-1.0,12012.0,0.0,0.0016876284498721361,-0.01755364704877138,-1.1587917804718018,1500.0,1500.0,1000.0,1500.0,1500.0,1021.7000000000002,250.0,289.15,1635952060.153262,1635952061.6363971,fa03f140-d4e9-4066-85ac-b307f33db82d
-0.05243631419870863,0.032359361376802856,-0.06303577382832716,-0.04052869346022463,-0.08827993007268771,-0.10863357629512431,-0.24291129423662514,-0.2674309323875888,-12.47756546549675,8.909119207475326,-17.449184970114658,-0.10583287077922218,0.36547701718462217,0.5185863402561642,-1.0,12010.8125,0.0,0.002171482556150295,-0.01817361789289862,-1.2949172779917717,1500.0,1500.0,1000.0,1500.0,1500.0,1021.7000000000002,250.0,289.15,1635952061.7460482,1635952063.389169,fa03f140-d4e9-4066-85ac-b307f33db82d
-0.05270465494815015,0.03224531656164229,-0.06280097567143532,-0.040703114946693986,-0.08836714081744912,-0.10884154038065509,-0.24291800275584347,-0.26752485168934476,-12.4691234307437,8.938712472593751,-17.516948798523742,-0.10570542543751565,0.3656269800957544,0.5182774746207472,-1.0,12011.9375,0.0,0.002290425924002193,-0.017999375006183982,-1.4033264890313148,1500.0,1500.0,1000.0,1500.0,1500.0,1021.7000000000002,250.0,289.15,1635952063.4995813,1635952065.117791,fa03f140-d4e9-4066-85ac-b307f33db82d
