raw_voltage_G-,raw_voltage_G0,raw_voltage_G1,raw_voltage_G2,raw_voltage_G3,raw_voltage_G4,raw_voltage_G5,raw_voltage_G6,load_x,load_y,load_z,load_l,load_m,load_n,rpm,voltage,current,roll,pitch,yaw,aileron1_pwm,elevator_pwm,throttle_pwm,rudder_pwm,aileron2_pwm,pbaro,pdiff,Tt,sample_start_time,sample_end_time,uid
-0.048427135691048,0.0346356455708969,-0.0496598260173155,-0.0492968672094779,-0.0867295634273909,-0.0976868108745077,-0.2314405648811801,-0.2568202910661061,-11.927918752072658,9.711727239596549,-16.641167507385173,-0.0550630761514788,0.364903889512127,0.4833030848664337,1866.754447937012,11789.0,32.0625,0.0018189269903814,-0.0158766575623303,-1.695808820426464,1500.0,1500.0,1200.0,1500.0,1500.0,1021.7000000000002,250.0,289.15,1635949228.4366105,1635949230.0338748,edbe537d-df53-4564-95d4-8def0ad8569a
-0.048358652896293,0.0348205491127602,-0.0505364057991139,-0.0482764735580895,-0.0870856739689989,-0.0985565423929097,-0.2325499862552638,-0.2571216153696444,-11.961514506804397,9.68619603408242,-16.6126539779553,-0.0595445003741319,0.3654008222403341,0.4866210949157719,1914.8154296875,11785.3125,32.375,0.0019774917309405,-0.015661506273318,-1.6889370158314705,1500.0,1500.0,1200.0,1500.0,1500.0,1021.7000000000002,250.0,289.15,1635949230.1485493,1635949231.7982275,edbe537d-df53-4564-95d4-8def0ad8569a
-0.0479546044025701,0.0346014041741699,-0.0505021644017526,-0.0481463562443788,-0.086736411707741,-0.0982209766880258,-0.2321185446104827,-0.2542042480259305,-11.959137074601555,9.656296689064144,-16.57632420619341,-0.0592734656736625,0.3642257221727451,0.4855242294243309,1918.6196517944336,11784.875,33.4375,0.0020406940166139,-0.0156891348306089,-1.6834063902497292,1500.0,1500.0,1200.0,1500.0,1500.0,1021.7000000000002,250.0,289.15,1635949231.9107225,1635949233.5144508,edbe537d-df53-4564-95d4-8def0ad8569a
-0.0465849484999628,0.0364983775440614,-0.0646849514438687,-0.0699444301391624,-0.0919479525907481,-0.0793265732069453,-0.2297901294837994,-0.2536700822398004,-11.972152794111238,8.364533703200228,-16.50964275411268,0.0230905125352399,0.3726044406320048,0.5092935854542352,3664.863220214844,11563.625,175.5,0.0017974834117922,-0.0154869646648876,-1.6099961251020432,1500.0,1500.0,1237.0,1500.0,1500.0,1021.7000000000002,250.0,289.15,1635949238.4692938,1635949239.97203,2e567cef-d479-4ca3-a117-e00535c171c3
-0.0464994178586774,0.0365681717133464,-0.0639144471245359,-0.0693347875610083,-0.0910441253759339,-0.0803363301697223,-0.229504104478328,-0.2547943658664964,-12.00503005664414,8.37289425242413,-16.559488167013303,0.0195155433601876,0.373514614624824,0.5065220840079163,3669.27490234375,11565.75,175.5,0.0015797189553268,-0.0154816494323313,-1.578639566898346,1500.0,1500.0,1237.0,1500.0,1500.0,1021.7000000000002,250.0,289.15,1635949240.0817063,1635949241.7102172,2e567cef-d479-4ca3-a117-e00535c171c3
-0.0463726518342688,0.0370051502168185,-0.0633906266254334,-0.0692869953410349,-0.0906125380906146,-0.0812577880925467,-0.2290299704276628,-0.2510471909678374,-11.987573080619567,8.361999844249537,-16.619441445128093,0.017290189746967,0.375588496319211,0.5045305696874752,3669.922004250919,11569.176470588236,176.0,0.0012110776528168,-0.0154794819981736,-1.5543230772018433,1500.0,1500.0,1237.0,1500.0,1500.0,1021.7000000000002,250.0,289.15,1635949241.819704,1635949243.3491323,2e567cef-d479-4ca3-a117-e00535c171c3
-0.0452015960395827,0.0377447643639059,-0.0799977048452205,-0.092619084391273,-0.0971594936762955,-0.0590967556866901,-0.2276671629726119,-0.2506842322946519,-12.042156321009076,6.984790338921847,-16.46225704845777,0.1097614355169034,0.3791522272533041,0.5347783592525418,4895.162353515625,11362.0,360.5,0.0012014131061732,-0.0153171392157673,-1.458053469657898,1500.0,1500.0,1275.0,1500.0,1500.0,1021.7000000000002,250.0,289.15,1635949246.4311676,1635949247.9087083,44164324-c0bb-4e54-a89a-dfebaaa82a63
-0.0449467526280756,0.0371346846563129,-0.080413264190698,-0.0910511198194338,-0.0973946664595039,-0.0599908204024181,-0.2284340244770353,-0.2510525822413685,-12.044647632487846,7.001520766856685,-16.47381288045625,0.1043025286205468,0.3767649988531999,0.536671994759174,4902.686401367188,11363.75,364.125,0.0014353821679833,-0.0152303096256218,-1.419351913034916,1500.0,1500.0,1275.0,1500.0,1500.0,1021.7000000000002,250.0,289.15,1635949248.031676,1635949249.6049206,44164324-c0bb-4e54-a89a-dfebaaa82a63
-0.0455029203402183,0.0380118472398987,-0.080977008636309,-0.0950365269841144,-0.0971800382854046,-0.05821332743558,-0.2268385207979146,-0.2503075767080995,-12.024981036469477,6.829660253030236,-16.61463638033473,0.1161069915483263,0.3816158475384501,0.5348333131592202,4916.570983886719,11379.375,362.0,0.0015481340378755,-0.0153451546211726,-1.391170933842659,1500.0,1500.0,1275.0,1500.0,1500.0,1021.7000000000002,250.0,289.15,1635949249.7141094,1635949251.3430607,44164324-c0bb-4e54-a89a-dfebaaa82a63
-0.044806872868408,0.0387013378563906,-0.0977443661274636,-0.1180688941746583,-0.1043257086186982,-0.0361343283542822,-0.2260001169677089,-0.2498146465283374,-12.062416531790554,5.49729860656604,-16.44013822543857,0.2080185110900863,0.3846704633944683,0.5668762591733592,5886.96875,11123.0,575.5,0.0013657148811034,-0.0159388948231935,-1.283765196800232,1500.0,1500.0,1312.0,1500.0,1500.0,1021.7000000000002,250.0,289.15,1635949255.432767,1635949256.906294,52caf87e-8e59-4a4c-b90c-efd8c16c6598
-0.0438207206210276,0.0401071293075469,-0.0996886944327176,-0.1158937642214623,-0.1062630429197087,-0.0398271541259001,-0.2283710787078039,-0.2512484139573015,-11.990963225317302,5.459276286705334,-16.501056654191217,0.194491066146372,0.3895855156755725,0.5757098830248599,5891.774353027344,11133.3125,576.6875,0.0011451974569354,-0.0160217816592194,-1.2497181445360184,1500.0,1500.0,1312.0,1500.0,1500.0,1021.7000000000002,250.0,289.15,1635949257.015558,1635949258.6081212,52caf87e-8e59-4a4c-b90c-efd8c16c6598
-0.0448797269089333,0.0372996262101087,-0.0955501479757317,-0.1168482977964167,-0.1010082268813828,-0.0366480952159147,-0.2239280020307306,-0.2493625141884823,-12.161096367025172,5.46841614709091,-16.531281293275768,0.2039642324247715,0.3809077531765704,0.5560719085890131,5895.06640625,11138.0,578.0,0.0012913873215438,-0.0156467695487663,-1.223748654127121,1500.0,1500.0,1312.0,1500.0,1500.0,1021.7000000000002,250.0,289.15,1635949258.7171323,1635949260.3395813,52caf87e-8e59-4a4c-b90c-efd8c16c6598
-0.0402160485834869,0.0418057939771644,-0.1054870021169314,-0.1388312762096802,-0.1049254431636467,-0.0214928530531466,-0.2191958411157563,-0.2443221803820635,-12.02243544320973,4.345113621907901,-16.634054643213982,0.2797204171248345,0.3997956728303536,0.5689802742675814,6598.48046875,10925.0,780.0,0.0014307120582088,-0.0161738451570272,-1.1468332409858704,1500.0,1500.0,1350.0,1500.0,1500.0,1021.7000000000002,250.0,289.15,1635949263.4310246,1635949264.9604788,55a8d48d-eead-446c-9de9-424a558804b5
-0.0417843045746261,0.0406347382211065,-0.102405275910636,-0.1343867425248918,-0.1009397440586106,-0.0245334891045519,-0.2174152876630076,-0.2414801437667841,-12.110373036094735,4.372110419129448,-16.628748921881698,0.263150917488329,0.3956274835690887,0.5566479258366238,6576.9630126953125,10897.4375,778.75,0.0014126836031209,-0.0165815986692905,-1.1201999187469482,1500.0,1500.0,1350.0,1500.0,1500.0,1021.7000000000002,250.0,289.15,1635949265.0700352,1635949266.8053446,55a8d48d-eead-446c-9de9-424a558804b5
-0.041037842108711,0.0414907731506312,-0.1023778831743236,-0.1357016120419185,-0.1010904066187672,-0.0236843021430345,-0.2163675013490376,-0.2423293308003204,-12.040273104863669,4.315424752733279,-16.55651203592002,0.2676975668031203,0.3978644150239112,0.5555901925103627,6573.494964599609,10895.0,778.4375,0.0012656252074521,-0.0168069851351901,-1.0972466245293615,1500.0,1500.0,1350.0,1500.0,1500.0,1021.7000000000002,250.0,289.15,1635949266.913741,1635949268.6451156,55a8d48d-eead-446c-9de9-424a558804b5
-0.040770759195806,0.0413880489558417,-0.1161566216539547,-0.1581297285968755,-0.1077058445459788,-0.0030367397513796,-0.2162921698754593,-0.2403570258248265,-12.160195999204658,3.320308062618704,-16.611663363769647,0.3573357369073082,0.4006877325549838,0.583313021269766,7122.08349609375,10672.5,974.0,0.0011297577293589,-0.0172796202823519,-1.037665605545044,1500.0,1500.0,1387.0,1500.0,1500.0,1021.7000000000002,250.0,289.15,1635949271.9291527,1635949273.5625985,3a911795-92b3-4e5a-b2ff-db15618a2bfa
-0.0405516142624177,0.0406415865073338,-0.1164853391267515,-0.1549795198109558,-0.10704840971909,-0.0058308377573809,-0.2165044666075999,-0.241035005599664,-12.13741356482098,3.255172856437515,-16.701830155376346,0.3434998643005203,0.3981161403430046,0.5830207066634396,7130.970703125,10681.875,973.625,0.0011528381292009,-0.0171509432839229,-1.0159897804260254,1500.0,1500.0,1387.0,1500.0,1500.0,1021.7000000000002,250.0,289.15,1635949273.6713762,1635949275.2934854,3a911795-92b3-4e5a-b2ff-db15618a2bfa
-0.0422362910459649,0.0418057939703666,-0.1178481472968776,-0.1545891679382379,-0.1080688038975785,-0.0065841485660943,-0.2181617509309108,-0.2447399254762054,-12.1715361481193,3.222753076743226,-16.606770579321147,0.3406417393633545,0.4017466215337416,0.5888956056779765,7134.310272216797,10679.3125,973.9375,0.0012260576186235,-0.0169860946480184,-1.0007258020341396,1500.0,1500.0,1387.0,1500.0,1500.0,1021.7000000000002,250.0,289.15,1635949275.4028366,1635949277.0407057,3a911795-92b3-4e5a-b2ff-db15618a2bfa
-0.0404356306498295,0.0423801751910942,-0.1292942453433165,-0.1723142649224204,-0.1137675923395768,0.0089559087615435,-0.2172646262874573,-0.2439816606764198,-12.132880737137343,2.3355630041312088,-16.668029546458026,0.409104262912469,0.405611914598091,0.6112013752369395,7591.631378173828,10419.5,1168.4375,0.0014423298707697,-0.0176720882300287,-0.9538988023996352,1500.0,1500.0,1425.0,1500.0,1500.0,1021.7000000000002,250.0,289.15,1635949280.4311268,1635949282.0479538,5411b94e-f8be-490b-92ce-515fc963f01b
-0.0403936667520127,0.0415199147165724,-0.1329031432173542,-0.1751188545763641,-0.1164392958325844,0.0132572105881805,-0.2196845461239825,-0.2442334442552167,-12.218933046909148,2.2733348163521776,-16.56559029606562,0.4244771252395296,0.4022020201724043,0.6231862674394818,7587.85693359375,10420.25,1168.625,0.0010416643926873,-0.0170720149762928,-0.9418073073029518,1500.0,1500.0,1425.0,1500.0,1500.0,1021.7000000000002,250.0,289.15,1635949282.1571517,1635949283.6912882,5411b94e-f8be-490b-92ce-515fc963f01b
-0.0402708348258928,0.0423331114812903,-0.1337977907435008,-0.1795785414328492,-0.1182521955973136,0.0160836562047583,-0.219805338348999,-0.2436236559222548,-12.18544611393755,2.280055417388261,-16.638438171717763,0.4408937351508157,0.4061531200654536,0.6270241963000048,7605.5244140625,10415.0,1170.0,0.001195992459543,-0.0170877967029809,-0.9264846444129944,1500.0,1500.0,1425.0,1500.0,1500.0,1021.7000000000002,250.0,289.15,1635949283.7993767,1635949285.6430528,5411b94e-f8be-490b-92ce-515fc963f01b
-0.041352862994228,0.0404977726041591,-0.1388723662192069,-0.1803729422333682,-0.1151567733652136,0.0179943258108999,-0.2168537294263173,-0.2397543774975629,-12.264158773337504,1.4536891075222993,-16.724212630666994,0.4411951814673973,0.4003489012031654,0.625456953612916,7940.18359375,10229.0,1327.5,0.0014359035994857,-0.016778883524239,-0.8902702331542969,1500.0,1500.0,1462.0,1500.0,1500.0,1021.7000000000002,250.0,289.15,1635949288.909938,1635949290.563113,0377dd2f-add0-4539-8147-0a87de1bd8d4
-0.0402982279207636,0.0407922486476795,-0.1376122820820674,-0.1810920114286507,-0.1149718692108414,0.0192338644409268,-0.2168468805159789,-0.2400351566565854,-12.315203502080218,1.5859074532336974,-16.59763167150575,0.4465363524927899,0.4008634213610993,0.6235956190757288,7951.23046875,10238.625,1328.8125,0.0010116179255419,-0.0173841587966308,-0.8792172819375992,1500.0,1500.0,1462.0,1500.0,1500.0,1021.7000000000002,250.0,289.15,1635949290.670998,1635949292.287933,0377dd2f-add0-4539-8147-0a87de1bd8d4
-0.0386546408885239,0.0426070426159308,-0.1344346807784532,-0.1814344255476863,-0.1119654749150868,0.0168369667333105,-0.2122516854222542,-0.2367548311546155,-12.155384799427218,1.4569419178265235,-16.699724254450498,0.4412900753963303,0.4076851029398078,0.6088640925637389,7958.61328125,10250.1875,1331.0625,0.0012074870428477,-0.0167847879929468,-0.8709300942718983,1500.0,1500.0,1462.0,1500.0,1500.0,1021.7000000000002,250.0,289.15,1635949292.3967698,1635949294.0394726,0377dd2f-add0-4539-8147-0a87de1bd8d4
-0.038257440657368,0.0417715525528322,-0.1387080071129388,-0.2026161555325295,-0.1136706963437279,0.0318826365371652,-0.2075332202755974,-0.2351180919647493,-12.205005309573837,0.9307752909298094,-17.441269558495637,0.5190365080955593,0.4138031011126695,0.6091421366827673,8289.591918945312,10068.625,1483.625,0.0008597338674007,-0.0169640036765486,-0.8480190932750702,1500.0,1500.0,1500.0,1500.0,1500.0,1021.7000000000002,250.0,289.15,1635949297.4378707,1635949299.052433,98257683-5582-4d10-bdda-751cd6012cdd
-0.0384560407479695,0.0413264144168365,-0.1387627933668299,-0.1990687464815337,-0.1118832953042923,0.0318004571444628,-0.2065539162587296,-0.2314953517600552,-12.222274325974126,0.7975795513606978,-17.045566479476463,0.5100184402644704,0.4083061878563397,0.6059659272109142,8257.6357421875,10071.625,1485.4375,0.0010404745262349,-0.0172622891841456,-0.8408362828195095,1500.0,1500.0,1500.0,1500.0,1500.0,1021.7000000000002,250.0,289.15,1635949299.16099,1635949300.7079823,98257683-5582-4d10-bdda-751cd6012cdd
-0.0397435173185866,0.0412305384761888,-0.1439948797616005,-0.1945694264987839,-0.1148691460019958,0.0291090833206351,-0.2118613338211083,-0.237960128471258,-12.290154377261972,0.6669737181574078,-16.891275691988525,0.4926853013177665,0.4061716937855172,0.6249729011485533,8262.319795496323,10080.176470588236,1488.529411764706,0.0012756549301283,-0.0172152591540532,-0.8350805219481973,1500.0,1500.0,1500.0,1500.0,1500.0,1021.7000000000002,250.0,289.15,1635949300.817057,1635949302.5322332,98257683-5582-4d10-bdda-751cd6012cdd
-0.04884488074099642,0.03296466541371428,-0.04966667428656863,-0.04159255271934889,-0.0840861274814544,-0.10511719431398957,-0.2326047724670627,-0.25421109627163746,-12.020465785423708,9.606628184863949,-16.9242533076244,-0.08992795244598427,0.36084992286040013,0.48081405808389305,-1.0,12048.5625,0.0,0.002510555263143033,-0.018515037721954286,-1.1001121997833252,1500.0,1500.0,1000.0,1500.0,1500.0,1021.7000000000002,250.0,289.15,1635949306.432768,1635949308.0790157,58c1a1c4-f8f7-4b3f-807b-efe6047dbd4c
-0.04952286041540419,0.03307423788346747,-0.04949546729646953,-0.04145558712884496,-0.08417515511502337,-0.10584996024063104,-0.2329814278690098,-0.25766947775281196,-12.031172763600232,9.640218269848242,-16.996324591974908,-0.09166921664187187,0.36196999345605546,0.4811297553768294,-1.0,12047.5,0.0,0.003243969869799912,-0.019035415491089225,-1.2462671101093292,1500.0,1500.0,1000.0,1500.0,1500.0,1021.7000000000002,250.0,289.15,1635949308.187892,1635949309.8089874,58c1a1c4-f8f7-4b3f-807b-efe6047dbd4c
-0.04958449493107697,0.03264964456437628,-0.049358501705582,-0.04157885616019718,-0.0843395138260793,-0.10584996024063925,-0.2330910003500568,-0.25740924311339075,-12.026827495464568,9.677401901489247,-17.07192232088284,-0.09114770056740051,0.36104126693757105,0.4811516238690392,-1.0,12053.625,0.0,0.00340524640341755,-0.01908082014415413,-1.3618837222456932,1500.0,1500.0,1000.0,1500.0,1500.0,1021.7000000000002,250.0,289.15,1635949309.918129,1635949311.6541245,58c1a1c4-f8f7-4b3f-807b-efe6047dbd4c
