raw_voltage_G-,raw_voltage_G0,raw_voltage_G1,raw_voltage_G2,raw_voltage_G3,raw_voltage_G4,raw_voltage_G5,raw_voltage_G6,load_x,load_y,load_z,load_l,load_m,load_n,rpm,voltage,current,roll,pitch,yaw,aileron1_pwm,elevator_pwm,throttle_pwm,rudder_pwm,aileron2_pwm,pbaro,pdiff,Tt,sample_start_time,sample_end_time,uid
-0.0508993646046301,0.0343754109562049,-0.0630687573925119,-0.0445236163744112,-0.089742806472477,-0.1010630127520862,-0.2412267571177859,-0.2654902137433546,-12.387112738345346,8.929075852894815,-16.609979340963374,-0.0794992778455663,0.3654504763577115,0.5196729741845637,1877.5120849609373,11860.875,39.875,0.0031695176148787,-0.0161533949431031,-1.7073673456907272,1000.0,1500.0,1200.0,1500.0,1000.0,1021.7000000000002,250.0,289.15,1635952259.2235649,1635952260.7139156,5754c3c0-f163-4935-820e-f2fdedc258e6
-0.0507007644976344,0.0342042039727129,-0.0633769299716381,-0.0441606575579798,-0.0896743236742198,-0.1012684611406091,-0.2413089364765574,-0.2644424268459969,-12.391028245324115,8.898629862634367,-16.61663138040065,-0.0809999003959106,0.3648302750888487,0.5200996188525208,1896.1561965942385,11863.6875,39.0,0.0033112662058556,-0.0159496731357648,-1.7005534693598747,1000.0,1500.0,1200.0,1500.0,1000.0,1021.7000000000002,250.0,289.15,1635952260.8228767,1635952262.4718597,5754c3c0-f163-4935-820e-f2fdedc258e6
-0.0506958104236402,0.0346238432175929,-0.0629143068303663,-0.0442823237991502,-0.0890578327979448,-0.1016190347763382,-0.2406315395778032,-0.2646698772242484,-12.38577410212166,8.86631141369876,-16.619191700728106,-0.0817022076199251,0.366433441375163,0.5177278978224735,1898.306350708008,11866.5625,38.0625,0.0032459469512104,-0.0158237091382034,-1.6948039084672928,1000.0,1500.0,1200.0,1500.0,1000.0,1021.7000000000002,250.0,289.15,1635952262.5894823,1635952264.127448,5754c3c0-f163-4935-820e-f2fdedc258e6
-0.0503651987998532,0.0353821080191447,-0.0646096202929227,-0.0461329620635348,-0.0900783721707106,-0.1003028537089031,-0.241493840035054,-0.2662229796675679,-12.423337506638848,8.777070132268397,-16.577322613724466,-0.0752582273218557,0.3692910411574568,0.5228014738157821,1900.802230834961,11947.4375,30.25,0.0034923893254017,-0.0159495380939915,-1.6770403608679771,1250.0,1500.0,1200.0,1500.0,1250.0,1021.7000000000002,250.0,289.15,1635952269.2597244,1635952270.9523418,dd4f88e7-123a-4b68-ad85-327c780cdd1b
-0.0507144610567218,0.0350328457729625,-0.0647123444865976,-0.0452974719586428,-0.0903659999160228,-0.1005562400546944,-0.2420553990016956,-0.2677022082667893,-12.426521665604351,8.819055037986164,-16.55568148145763,-0.0774372263232657,0.3677031604254034,0.5241089275550409,1902.395637512207,11946.1875,29.0625,0.0036894851655233,-0.0159415473463013,-1.673257552087307,1250.0,1500.0,1200.0,1500.0,1250.0,1021.7000000000002,250.0,289.15,1635952271.0634649,1635952272.6979115,dd4f88e7-123a-4b68-ad85-327c780cdd1b
-0.0502350814887537,0.0347931559960697,-0.0652328137352189,-0.0461124172215258,-0.0905372069079917,-0.0998029292894437,-0.241514384875766,-0.2662983108033616,-12.38849155693048,8.752659480064429,-16.587964422216825,-0.0743581823682104,0.3668873493657807,0.5242534507978933,1893.5490650850184,11945.64705882353,30.41176470588235,0.0037139896440374,-0.0158900933011489,-1.6708169474321253,1250.0,1500.0,1200.0,1500.0,1250.0,1021.7000000000002,250.0,289.15,1635952272.8095534,1635952274.4315746,dd4f88e7-123a-4b68-ad85-327c780cdd1b
-0.0502761711658479,0.0352245975942897,-0.0644110201868249,-0.0458932722813491,-0.0896743236730767,-0.1008027781245928,-0.2411377294710346,-0.266716055889278,-12.41694017459569,8.755586508515997,-16.636558071079353,-0.0770610564577439,0.369162719816239,0.5213861933245848,1896.1236572265625,11942.875,31.875,0.0035307956277392,-0.0159254783065989,-1.6666045412421229,1500.0,1500.0,1200.0,1500.0,1500.0,1021.7000000000002,250.0,289.15,1635952279.1819298,1635952280.6887944,d667975d-dc88-4e57-9d52-a2d8495170c2
-0.0506596748200326,0.0347383697614308,-0.0651300895409902,-0.0450988718520771,-0.0899893445359122,-0.1011383438274978,-0.2417814677990715,-0.2651546479887358,-12.424448645919547,8.73787830949825,-16.652981076040266,-0.0797666822759942,0.3673940764334795,0.5236389655042469,1890.06103515625,11945.5,29.0,0.003606078098528,-0.0160374958068132,-1.6664661765098572,1500.0,1500.0,1200.0,1500.0,1500.0,1021.7000000000002,250.0,289.15,1635952280.798291,1635952282.3226826,d667975d-dc88-4e57-9d52-a2d8495170c2
-0.0503461110414035,0.0350294944869093,-0.0653202385806354,-0.0461007605813009,-0.0901698768438145,-0.1009546059434273,-0.2418065295916811,-0.2663973923255459,-12.431158197876128,8.720653795075087,-16.718008776612834,-0.0772311779573355,0.3692208059805506,0.5241168364977735,1890.2698974609373,11946.0,30.5,0.0037713458295911,-0.0159416534006595,-1.6663093566894531,1500.0,1500.0,1200.0,1500.0,1500.0,1021.7000000000002,250.0,289.15,1635952282.431648,1635952284.1707356,d667975d-dc88-4e57-9d52-a2d8495170c2
-0.0505843437449748,0.0352177493150615,-0.066191572876597,-0.0459412102359363,-0.0909891933639724,-0.1016930544823088,-0.2431031858600068,-0.2659353519233757,-12.454891913327792,8.728767200858474,-16.784155184396266,-0.0792625698638083,0.3706063669783617,0.5281776186999073,1916.044982910156,11938.5,32.5,0.0039117264095693,-0.015846149995923,-1.6671670079231262,1750.0,1500.0,1200.0,1500.0,1750.0,1021.7000000000002,250.0,289.15,1635952287.633253,1635952289.0822818,03777ff5-768b-4a51-9cad-61d2bfaf720f
-0.0501597504137923,0.0351081768455419,-0.0654245655626687,-0.0460781758300545,-0.0902495791615034,-0.1015423923300858,-0.2418841920012906,-0.265586089651273,-12.420301300994128,8.709577955464608,-16.788234134249947,-0.0786873052250693,0.3700518935100585,0.52440098796243,1907.2574081420896,11939.375,31.25,0.0041324807389173,-0.0161229533841833,-1.667541787028313,1750.0,1500.0,1200.0,1500.0,1750.0,1021.7000000000002,250.0,289.15,1635952289.1921513,1635952290.8124511,03777ff5-768b-4a51-9cad-61d2bfaf720f
-0.0499132123501477,0.0353341700637299,-0.0656642553483377,-0.0467698520591364,-0.0905577517458656,-0.1011451921083487,-0.2422197577254565,-0.2693800368571108,-12.4407269746879,8.715692444223274,-16.793010552093723,-0.0762169355995025,0.3711564754408318,0.5256229779568266,1900.380729675293,11938.9375,31.625,0.0041077147761825,-0.0159704613033682,-1.668701432645321,1750.0,1500.0,1200.0,1500.0,1750.0,1021.7000000000002,250.0,289.15,1635952290.920595,1635952292.563121,03777ff5-768b-4a51-9cad-61d2bfaf720f
-0.0507692472928859,0.0351972044769127,-0.0672051182529118,-0.0474957696921294,-0.0920917663862948,-0.1007069022092343,-0.2438701932298652,-0.268613029490351,-12.463471673046977,8.725130964335731,-16.857048561926177,-0.0736303600717606,0.3713631734425562,0.5320295582119584,1909.700569152832,11912.1875,33.0,0.0039137295243563,-0.0159462118754163,-1.67161113768816,2000.0,1500.0,1200.0,1500.0,2000.0,1021.7000000000002,250.0,289.15,1635952296.2931411,1635952297.9875069,807d2c61-b524-463b-8872-7dc1899ee752
-0.0506048885838703,0.0353273217842629,-0.0667462835212592,-0.0475779490469796,-0.0915712971336665,-0.101199978346115,-0.2433634205005819,-0.2699210510110861,-12.460893000767,8.71072559506433,-16.915864085049595,-0.0746337170210101,0.3723931831520704,0.5299134667412624,1909.9166107177728,11907.6875,34.75,0.0036705958336824,-0.0157409022795036,-1.6723383888602257,2000.0,1500.0,1200.0,1500.0,2000.0,1021.7000000000002,250.0,289.15,1635952298.0962238,1635952299.7400258,807d2c61-b524-463b-8872-7dc1899ee752
-0.0509541508405298,0.035402652857116,-0.06773243578237,-0.0465233139976325,-0.092598539081722,-0.102001227068433,-0.244842649006934,-0.267058469880635,-12.463603103602397,8.73296722580071,-16.890978527123995,-0.0787122868051319,0.3722823541064972,0.534805385177643,1921.4990310668943,11908.75,34.4375,0.0039749967108946,-0.015766403870657,-1.672848291695118,2000.0,1500.0,1200.0,1500.0,2000.0,1021.7000000000002,250.0,289.15,1635952299.849018,1635952301.4664924,807d2c61-b524-463b-8872-7dc1899ee752
-0.0509199094553263,0.0283900147256528,-0.0829904029909972,-0.0768474962578015,-0.0882156403736273,-0.0698348578816962,-0.2264344724816426,-0.2503486665194543,-12.31452023828375,6.222053383354197,-17.222892915855056,0.0445910047070403,0.3505909731259168,0.5229769181429454,5005.212646484375,11457.0,377.0,0.0032051546731963,-0.0150518715381622,-1.5668983459472656,1000.0,1500.0,1275.0,1500.0,1000.0,1021.7000000000002,250.0,289.15,1635952304.6128511,1635952306.0900218,39a7de89-602a-4e9b-88e9-90b2f8ea0f74
-0.051070571642691,0.0278284558032111,-0.0823535130518199,-0.0767927100016848,-0.0870308880278784,-0.0687185882496209,-0.2254757133639765,-0.2483352722563507,-12.35887173927646,6.198775462350372,-17.128650529395223,0.0468459253275163,0.3479966621563866,0.5191740127062395,5011.24853515625,11455.125,377.4375,0.0030412822088692,-0.0152460800600238,-1.5139672234654429,1000.0,1500.0,1275.0,1500.0,1000.0,1021.7000000000002,250.0,289.15,1635952306.1992886,1635952307.7180336,39a7de89-602a-4e9b-88e9-90b2f8ea0f74
-0.0502008401282024,0.0288283045779058,-0.0833191204434606,-0.0803469670986776,-0.0889415581498561,-0.0666230146441396,-0.2258112790705745,-0.2519374674849133,-12.306811575115589,6.206647238969069,-17.162110717360346,0.0595974664075545,0.352051314986509,0.5236462190200336,5014.913024902344,11456.25,377.6875,0.0028567393601406,-0.0149752356810495,-1.4682873114943504,1000.0,1500.0,1275.0,1500.0,1000.0,1021.7000000000002,250.0,289.15,1635952307.8289423,1635952309.449385,39a7de89-602a-4e9b-88e9-90b2f8ea0f74
-0.0513672332456699,0.0334908172338522,-0.1009126421089342,-0.0973806786121278,-0.106144144970693,-0.0531576944318994,-0.2395264895980536,-0.2640474123170998,-12.442625080462294,5.9664393279942,-16.945318779277343,0.1257775043800968,0.3695562106050725,0.5913103936678276,5024.2822265625,11528.6875,371.0,0.0029544228018494,-0.0155706761288456,-1.3812744840979576,1250.0,1500.0,1275.0,1500.0,1250.0,1021.7000000000002,250.0,289.15,1635952313.2926118,1635952314.7777147,f56e4590-0d12-4987-a6da-5544aab8b861
-0.0515910408540588,0.0333687138603362,-0.1015492407756693,-0.0950365269454773,-0.1057951742269063,-0.0544810150853115,-0.2406172604401333,-0.2678528706624115,-12.510308969759029,5.9336129386626375,-16.849538261029846,0.1172478834976713,0.3683988694099387,0.5933628710062787,5024.2822265625,11530.75,371.0,0.0030906775500625,-0.0157979377545416,-1.364621102809906,1250.0,1500.0,1275.0,1500.0,1250.0,1021.7000000000002,250.0,289.15,1635952314.8861454,1635952316.5288064,f56e4590-0d12-4987-a6da-5544aab8b861
-0.0504230449257785,0.0337845646918716,-0.0971848468865065,-0.0963385741238871,-0.1021505782609674,-0.0552558904510567,-0.2353650669080234,-0.2626975727791948,-12.395021112908916,5.904378364198016,-17.035339992630018,0.1184956677709144,0.3712258331906756,0.5748411123099025,5026.124267578125,11530.5,371.5,0.0030197812302503,-0.0166330377105623,-1.35201458632946,1250.0,1500.0,1275.0,1500.0,1250.0,1021.7000000000002,250.0,289.15,1635952316.638746,1635952318.3766737,f56e4590-0d12-4987-a6da-5544aab8b861
-0.0514472269792603,0.0332933827803886,-0.1042680078317968,-0.0937695952122832,-0.1081441342045832,-0.0565902851393975,-0.2442400005958378,-0.2689965333165789,-12.554420213630149,5.943099670226364,-17.018225517006908,0.10952860250253,0.3695954306343822,0.6051555616793853,5027.2294921875,11532.75,371.5,0.0021919114369666,-0.0176199286943301,-1.3224452808499336,1500.0,1500.0,1275.0,1500.0,1500.0,1021.7000000000002,250.0,289.15,1635952323.3277037,1635952324.8104584,6a1ebe17-6e4b-45f4-80e5-f13f451a35ed
-0.0521525997811095,0.0335741622411155,-0.1049391393450456,-0.0931464016083122,-0.1088769001779777,-0.0586584654512206,-0.2449590701076906,-0.2724275218800202,-12.50318180211,5.922146446308619,-17.1968110552526,0.1033003583288771,0.3717490405799228,0.6079242345770876,5027.2294921875,11526.875,370.375,0.0024690497666597,-0.0177248816471546,-1.318223312497139,1500.0,1500.0,1275.0,1500.0,1500.0,1021.7000000000002,250.0,289.15,1635952324.9197052,1635952326.5209696,6a1ebe17-6e4b-45f4-80e5-f13f451a35ed
-0.0517690961175751,0.0348753353176482,-0.1039803801599938,-0.0938723194036174,-0.1085002448028732,-0.0584393206536208,-0.2438291039051686,-0.2681884362803157,-12.455269249832597,5.920236558651024,-17.0717101608253,0.1055094373400758,0.3753314752333572,0.6048573021222693,5024.2822265625,11530.875,371.875,0.0023080543614923,-0.0179888196289539,-1.314425677061081,1500.0,1500.0,1275.0,1500.0,1500.0,1021.7000000000002,250.0,289.15,1635952326.6298954,1635952328.1994207,6a1ebe17-6e4b-45f4-80e5-f13f451a35ed
-0.0486462806804736,0.0402101447923937,-0.1057403879200166,-0.0968307760237613,-0.1116162119239084,-0.0621031500986263,-0.2479312235321306,-0.2693731887222387,-12.526223830177107,5.963056192765428,-17.259336334422667,0.1040804711499739,0.3977587798389885,0.6176287386790756,5024.834838867188,11527.125,372.0,0.0021955263437121,-0.0181194763863459,-1.309051774442196,1750.0,1500.0,1275.0,1500.0,1750.0,1021.7000000000002,250.0,289.15,1635952332.2268343,1635952333.827881,3225ac29-e45e-4536-b3ff-062784475781
-0.0489333256099799,0.0390160671023366,-0.1036962495151328,-0.0921142056018096,-0.1092844457971807,-0.0643690564195771,-0.2470799971830727,-0.2724122225528883,-12.547266620110385,6.028625749291761,-17.119967647429625,0.0888973265202133,0.3917439657650742,0.6105062506725254,5024.2822265625,11522.8125,372.4375,0.0018844757942133,-0.0181844888720661,-1.3087958171963692,1750.0,1500.0,1275.0,1500.0,1750.0,1021.7000000000002,250.0,289.15,1635952333.9363663,1635952335.471989,3225ac29-e45e-4536-b3ff-062784475781
-0.049583766462024,0.0358547848024124,-0.1031507183092367,-0.0914987350524127,-0.1078786541792869,-0.062515649945474,-0.245394445807543,-0.2714750279228179,-12.545878877123544,6.004347305108186,-17.207330678078126,0.0915268190244086,0.3806101037544234,0.6049586245437175,5024.2822265625,11523.375,372.0,0.0028726916061714,-0.0177810393506661,-1.3085767701268196,1750.0,1500.0,1275.0,1500.0,1750.0,1021.7000000000002,250.0,289.15,1635952335.580135,1635952337.2161648,3225ac29-e45e-4536-b3ff-062784475781
-0.048639432422314,0.0432028428309847,-0.1051240428006727,-0.092927256797851,-0.112588667768872,-0.0675064426882386,-0.2518073502270544,-0.2755708823765641,-12.624769088260912,6.188674530979061,-17.114442111687538,0.0846330011349165,0.4079587948655874,0.6240710816656659,5027.2294921875,11498.0,375.5,0.001523282029666,-0.018928337842226,-1.3125039935112,2000.0,1500.0,1275.0,1500.0,2000.0,1021.7000000000002,250.0,289.15,1635952341.611459,1635952343.1512077,e1432f40-6af5-4271-b138-d8b482905c6f
-0.050933606057591,0.0408949727216459,-0.1084660032325449,-0.0897633516497461,-0.1137460269730957,-0.0695883197770725,-0.2541837033138819,-0.2800085678260751,-12.634225989800482,6.049026510660798,-17.33784043884445,0.0716852282213197,0.4007460108902391,0.6330704330927621,5026.308471679688,11498.1875,375.3125,0.0017858166975202,-0.0185211702482774,-1.3142696097493172,2000.0,1500.0,1275.0,1500.0,2000.0,1021.7000000000002,250.0,289.15,1635952343.2631817,1635952345.0103996,e1432f40-6af5-4271-b138-d8b482905c6f
-0.0498447295957157,0.0429289116753878,-0.1098972938691409,-0.0909686487416079,-0.1161703182212125,-0.0700060648229781,-0.2566011465717403,-0.2822411073665691,-12.637585163303186,6.107428807288872,-17.287231625896762,0.0737876178422588,0.4080084015038892,0.6420459356074986,5021.33935546875,11500.0,375.0,0.0016168124857358,-0.0189990866929292,-1.315824031829834,2000.0,1500.0,1275.0,1500.0,2000.0,1021.7000000000002,250.0,289.15,1635952345.1185572,1635952346.638513,e1432f40-6af5-4271-b138-d8b482905c6f
-0.0529758504774548,0.0218947860758559,-0.1069764323622053,-0.1100957484004696,-0.0925058716616781,-0.0349033868201267,-0.2175094181792255,-0.2445761509216462,-12.29285956697579,3.7553326283342137,-17.542405055569517,0.1805000325823217,0.3314395869038641,0.5483080359332638,6660.0048828125,10964.4375,797.125,0.0016342735907528,-0.017099316464737,-1.2572479024529457,1000.0,1500.0,1350.0,1500.0,1000.0,1021.7000000000002,250.0,289.15,1635952351.6888616,1635952353.184981,88376be5-f28b-49b5-be57-b1d618f8cd7e
-0.0513766599551621,0.0216700662124976,-0.1061152573380846,-0.1135113989532542,-0.0916088145000167,-0.031725075461857,-0.2159354641549953,-0.2398746690494115,-12.35215588589105,3.741626159979282,-17.559141919508622,0.1952664961098277,0.3316396751022492,0.5435547724397152,6660.0048828125,10971.0,797.3125,0.0015654711605748,-0.0164905133424326,-1.2214703410863876,1000.0,1500.0,1350.0,1500.0,1000.0,1021.7000000000002,250.0,289.15,1635952353.2944062,1635952355.041996,88376be5-f28b-49b5-be57-b1d618f8cd7e
-0.0516937650598063,0.0237605779224394,-0.1043501875478063,-0.1128489024621833,-0.0898181380672575,-0.0346620942417751,-0.2145664034838866,-0.2390216113500617,-12.34110227964335,3.6912594105884793,-17.586120943418717,0.1869274578988268,0.3396707190630822,0.537009682230693,6660.0048828125,10976.25,798.625,0.0021095294214319,-0.0158711716067045,-1.187159389257431,1000.0,1500.0,1350.0,1500.0,1000.0,1021.7000000000002,250.0,289.15,1635952355.1786397,1635952356.75891,88376be5-f28b-49b5-be57-b1d618f8cd7e
-0.048790094536255,0.0349369698062051,-0.1302503812851676,-0.1417760366295842,-0.116101835315313,-0.0154869121418019,-0.2353166918814803,-0.2592856722214975,-12.564171881379194,3.314481598271153,-17.264236167549402,0.2914208402500902,0.3822281842653351,0.6392091700151549,6670.37109375,11054.5,792.5,0.0027179179014638,-0.0162425003945827,-1.137429416179657,1250.0,1500.0,1350.0,1500.0,1250.0,1021.7000000000002,250.0,289.15,1635952360.1308196,1635952361.5906384,ea890a18-2ecd-4cf4-81fa-01b01abe7dfa
-0.0487421565739045,0.0362312946255071,-0.1284766771297499,-0.1424745609560337,-0.1154033110756031,-0.016507305615021,-0.2339538843274587,-0.2590391341304601,-12.504313770248928,3.35673937865374,-17.309172070626587,0.2910949981744147,0.3872564574056734,0.6340112805811773,6675.56591796875,11050.9375,791.5,0.0028564619569806,-0.0156791664776392,-1.1266403645277023,1250.0,1500.0,1350.0,1500.0,1250.0,1021.7000000000002,250.0,289.15,1635952361.704324,1635952363.3126602,ea890a18-2ecd-4cf4-81fa-01b01abe7dfa
-0.0479611612941389,0.0357638631192069,-0.1290284734092702,-0.1445481324333508,-0.1153132632995182,-0.01353675488386,-0.2331479728132367,-0.2593824223910486,-12.527716188809398,3.283007436075206,-17.221495888646825,0.3019336337092106,0.3851109394820857,0.6335561591243976,6675.56591796875,11049.0,790.5,0.002570706186816,-0.0157253742218017,-1.116180658340454,1250.0,1500.0,1350.0,1500.0,1250.0,1021.7000000000002,250.0,289.15,1635952363.4223864,1635952365.1650076,ea890a18-2ecd-4cf4-81fa-01b01abe7dfa
-0.0497025270767338,0.0364729985884022,-0.1303220870550197,-0.1355171114911575,-0.1157167206142925,-0.0226123451872033,-0.2381929697639386,-0.2624213789210144,-12.629567775153856,3.354954882388945,-17.255389571284727,0.2615236625198239,0.3875992079832893,0.6430684514928537,6675.56591796875,11047.8125,791.9375,0.0030738191562704,-0.0153465596958994,-1.095555990934372,1500.0,1500.0,1350.0,1500.0,1500.0,1021.7000000000002,250.0,289.15,1635952369.7048366,1635952371.2168243,b66f423a-853c-4beb-a9f4-c46c7f604d9b
-0.0486594181920623,0.0365924365102304,-0.1317712583911831,-0.1358433295391139,-0.1169856826851908,-0.0221540613131981,-0.2393490710073968,-0.2627215521223132,-12.626435583160516,3.330621455833286,-17.22608004261245,0.2630621360600237,0.3877131163195645,0.6484833530992846,6671.669799804688,11047.3125,790.875,0.0031464142812183,-0.0156316381762735,-1.0922996327280998,1500.0,1500.0,1350.0,1500.0,1500.0,1021.7000000000002,250.0,289.15,1635952371.3252475,1635952372.938481,b66f423a-853c-4beb-a9f4-c46c7f604d9b
-0.0485983427149378,0.0369366673904614,-0.1299079676776079,-0.137619130293525,-0.1162319530613181,-0.021821570104357,-0.2381587284866635,-0.2644150342205333,-12.62878789994136,3.417592410025371,-17.35252770355623,0.2684630394457288,0.3904797797076253,0.6430324804191638,6670.37109375,11050.0,792.0,0.0026677241548895,-0.0154790636152029,-1.0897687673568726,1500.0,1500.0,1350.0,1500.0,1500.0,1021.7000000000002,250.0,289.15,1635952373.0478525,1635952374.579774,b66f423a-853c-4beb-a9f4-c46c7f604d9b
-0.0425855532846474,0.0458394305164746,-0.1263742551410634,-0.1393585936302163,-0.1154170075597806,-0.0293615260764246,-0.2381587284124521,-0.2620112878648372,-12.621656758600926,3.493793111713717,-17.399352373935145,0.256120779203931,0.4246745636856282,0.6380753101196425,6670.37109375,11038.125,791.625,0.0022782154555898,-0.0153786236187443,-1.0871699750423431,1750.0,1500.0,1350.0,1500.0,1750.0,1021.7000000000002,250.0,289.15,1635952378.128831,1635952379.6979816,86d9ec9a-7743-4dea-bee3-e2c76fa62ea8
-0.0428457879424122,0.04728441741941,-0.1271207186839314,-0.1440085761588605,-0.1165332780746456,-0.0258141178052692,-0.2372753018183188,-0.2613743986098857,-12.580866252677293,3.42043638217573,-17.30135973995149,0.2740941945497421,0.4294608781872442,0.639686326454742,6670.37109375,11037.0625,793.0,0.0026737515290733,-0.0158935225335881,-1.0869095399975777,1750.0,1500.0,1350.0,1500.0,1750.0,1021.7000000000002,250.0,289.15,1635952379.807311,1635952381.452648,86d9ec9a-7743-4dea-bee3-e2c76fa62ea8
-0.0416336424129956,0.0474145347686218,-0.1244772812879703,-0.136920605902902,-0.1128899919791909,-0.032936327840159,-0.2363918716838886,-0.2608196868281056,-12.601745557613304,3.4062068336204554,-17.353971699136096,0.2421193126700351,0.4298576320741459,0.6298578529951618,6665.83203125,11032.0625,791.5625,0.0026464530819794,-0.0160431440453976,-1.0869629830121994,1750.0,1500.0,1350.0,1500.0,1750.0,1021.7000000000002,250.0,289.15,1635952381.562312,1635952383.1870568,86d9ec9a-7743-4dea-bee3-e2c76fa62ea8
-0.0409214213651819,0.0545298969303019,-0.1334964662645384,-0.1404474704977324,-0.1243882541889282,-0.0365316750502565,-0.2504993292826576,-0.2737218471327404,-12.787850806564393,3.62012236787712,-17.426241037061338,0.242859605801349,0.4583683869588117,0.6784092207962834,6660.652221679688,10991.75,794.625,0.0023673220421187,-0.0160472027491778,-1.0920879691839218,2000.0,1500.0,1350.0,1500.0,2000.0,1021.7000000000002,250.0,289.15,1635952388.240235,1635952389.856211,b1172d0c-7da0-4665-82f2-31872a11c4de
-0.0411490173722677,0.0537384106793442,-0.128524906476392,-0.1356307983944853,-0.119572602121308,-0.0408832466527633,-0.2473527630176509,-0.274965028507472,-12.802599896644198,3.7131677101286855,-17.494316330943768,0.2230618945953517,0.4558312852808565,0.6603952524163295,6665.18359375,10995.1875,795.125,0.0021683830709662,-0.0162625696975737,-1.0941594019532204,2000.0,1500.0,1350.0,1500.0,2000.0,1021.7000000000002,250.0,289.15,1635952389.966158,1635952391.476188,b1172d0c-7da0-4665-82f2-31872a11c4de
-0.0400792227560208,0.0545377235274236,-0.1323750254894142,-0.1363464688334535,-0.1241034216503019,-0.0411123352021735,-0.2515384509462169,-0.2783121513581004,-12.756659638268472,3.746487700780152,-17.540788584253672,0.2242063684378581,0.4587605254117941,0.6778174050261435,6667.453125,10995.5,794.625,0.0021432150315376,-0.0159284620312973,-1.0952844768762589,2000.0,1500.0,1350.0,1500.0,2000.0,1021.7000000000002,250.0,289.15,1635952391.5860956,1635952393.0719123,b1172d0c-7da0-4665-82f2-31872a11c4de
-0.0495707984444653,0.0195625826707675,-0.1214092549664001,-0.1458713084095606,-0.0923520041542253,-0.0011671601572789,-0.2039241792979932,-0.2274617160926351,-12.304263054072898,1.7303937764890371,-17.73329447320143,0.3228323451347771,0.3279203968844245,0.5483874879844884,7676.191955566406,10494.75,1194.25,0.0012878822890343,-0.0156696285121142,-1.0622435063123703,1000.0,1500.0,1425.0,1500.0,1000.0,1021.7000000000002,250.0,289.15,1635952397.6342258,1635952399.1789367,affd4e9d-c9cf-4699-9a61-1969633e6953
-0.0495557905447505,0.0212583331622202,-0.1203069722635784,-0.1422401173295776,-0.090708415882889,-0.0052838504284169,-0.2044026835511349,-0.2279234644170717,-12.372265713615764,1.721666426095404,-17.604181403858984,0.3053738972188107,0.3332401259577807,0.5457027699612442,7673.61328125,10497.25,1195.8125,0.0011290506299701,-0.0159556022845208,-1.0445606112480164,1000.0,1500.0,1425.0,1500.0,1000.0,1021.7000000000002,250.0,289.15,1635952399.286414,1635952400.801872,affd4e9d-c9cf-4699-9a61-1969633e6953
-0.0497351571678325,0.0194872515511475,-0.1176153076647929,-0.1490900004307387,-0.0892565814979711,0.0025377586161672,-0.1991988656327316,-0.2206819186730284,-12.294126657968684,1.7505788564349996,-17.60601969713322,0.3387664862422084,0.3270752315704819,0.5324129800820746,7672.326416015625,10497.625,1197.375,0.0014351625941344,-0.0165133465779945,-1.0310709178447723,1000.0,1500.0,1425.0,1500.0,1000.0,1021.7000000000002,250.0,289.15,1635952400.9105585,1635952402.4418848,affd4e9d-c9cf-4699-9a61-1969633e6953
-0.0451425842861604,0.0366381115449985,-0.1488424410787133,-0.1820638839388475,-0.1214679725663602,0.0205589339492086,-0.2260490748153537,-0.2499825021872121,-12.562730303691872,1.302759986178457,-17.188695692976193,0.4490512434549,0.391676325009183,0.659451744878289,7687.37744140625,10581.8125,1187.75,0.0013223386231402,-0.0153915152768604,-0.9968874491751194,1250.0,1500.0,1425.0,1500.0,1250.0,1021.7000000000002,250.0,289.15,1635952407.1927998,1635952408.687255,eec9bd7c-d13b-4bda-afc6-e30679097f4f
-0.0447359130655275,0.0359025772039237,-0.1469327913991409,-0.1785376030951535,-0.1196629412999941,0.0166794562489892,-0.2252565689316044,-0.2516429918012937,-12.533283288288274,1.3529372510295736,-17.371287045303617,0.4327925491424702,0.3900152597739607,0.652946194151936,7687.37744140625,10580.25,1189.625,0.0014816690818406,-0.0160782216116786,-0.9914072901010512,1250.0,1500.0,1425.0,1500.0,1250.0,1021.7000000000002,250.0,289.15,1635952408.7957623,1635952410.4274156,eec9bd7c-d13b-4bda-afc6-e30679097f4f
-0.0438250919085957,0.0375050745357031,-0.1457959771094134,-0.1802154310070892,-0.1176084575426419,0.0180970505992099,-0.2232842645174522,-0.2466026577903736,-12.609116706306528,1.237196837699449,-17.152552295118713,0.4390488851779845,0.3949003704073132,0.6462723356989217,7687.37744140625,10580.875,1188.625,0.0017016281926771,-0.0160639050882309,-0.9843707606196404,1250.0,1500.0,1425.0,1500.0,1250.0,1021.7000000000002,250.0,289.15,1635952410.5361664,1635952412.273134,eec9bd7c-d13b-4bda-afc6-e30679097f4f
-0.042982753504684,0.0413675040910994,-0.1505623795419998,-0.1749764979023954,-0.1219023285940452,0.0088861139612925,-0.2314200209081638,-0.2568819260790038,-12.68829184773252,1.2328868434582567,-17.287279643626032,0.4062056935898999,0.4101940344638032,0.6704711266802986,7680.48974609375,10578.5,1192.0,0.0015118781011551,-0.0161542361602187,-0.9733759760856628,1500.0,1500.0,1425.0,1500.0,1500.0,1021.7000000000002,250.0,289.15,1635952415.629324,1635952417.195903,59da0ded-5195-486a-9160-8b9b23c48c11
-0.0436812780232781,0.0401553586624164,-0.1474121706757203,-0.1739150143391562,-0.1190055061575789,0.0083040104888908,-0.2291874815679754,-0.2520812815893419,-12.733226906448197,1.31744552254486,-17.379914310836327,0.4031832059142191,0.4068572593028732,0.6587186638390964,7682.211669921875,10583.0,1191.25,0.0014777932083234,-0.0164097594097256,-0.9706434011459352,1500.0,1500.0,1425.0,1500.0,1500.0,1021.7000000000002,250.0,289.15,1635952417.304753,1635952419.0346096,59da0ded-5195-486a-9160-8b9b23c48c11
-0.0435648572616236,0.0409634556107305,-0.1514252624435236,-0.1761954916309656,-0.1234500395781084,0.0097695422685311,-0.2327280420038595,-0.2574434847642097,-12.694451989002,1.3065037290540162,-17.386696665933787,0.4113667270649039,0.4096999680676838,0.6753833939325297,7687.37744140625,10582.8125,1191.1875,0.0014000191586092,-0.0167822736548259,-0.968683648854494,1500.0,1500.0,1425.0,1500.0,1500.0,1021.7000000000002,250.0,289.15,1635952419.1436892,1635952420.6730578,59da0ded-5195-486a-9160-8b9b23c48c11
-0.0380109025828574,0.0531396962269289,-0.1482271166134065,-0.1788594727077716,-0.1229638124240672,0.000818840702347,-0.233091001851472,-0.258128313333018,-12.686031444754985,1.3016268264796411,-17.300931735550027,0.397407421006456,0.4550791982876352,0.6724573101179394,7687.37744140625,10572.125,1190.6875,0.0009897899217321,-0.0166842787875793,-0.9664514809846878,1750.0,1500.0,1425.0,1500.0,1750.0,1021.7000000000002,250.0,289.15,1635952425.832687,1635952427.4346223,f4eb3f25-12c6-489b-a73c-fae9e37f28c3
-0.03762055063799,0.05347526192316,-0.1454467144002926,-0.1744902703802109,-0.1199231757954821,-0.0040365893467235,-0.2316597105242365,-0.2564847257467083,-12.687138842195369,1.3166603218514363,-17.356405185290594,0.376869475488593,0.4564758466507772,0.6624817331460068,7683.503112792969,10570.0625,1190.0625,0.0006322711597022,-0.0161986591992899,-0.9670657441020012,1750.0,1500.0,1425.0,1500.0,1750.0,1021.7000000000002,250.0,289.15,1635952427.544171,1635952429.1648862,f4eb3f25-12c6-489b-a73c-fae9e37f28c3
-0.0392956106900177,0.0508568878583585,-0.1509406382224721,-0.1758532231678558,-0.1253566306346199,0.0003113399010286,-0.2365470521642769,-0.2611868718924365,-12.703194576633994,1.3732057224556369,-17.322027496586095,0.3898130241363861,0.4462847840623183,0.6840149283467664,7683.0726318359375,10575.5,1190.6875,0.0005802611522085,-0.0163659985410049,-0.9682590775191784,1750.0,1500.0,1425.0,1500.0,1750.0,1021.7000000000002,250.0,289.15,1635952429.273516,1635952431.1201036,f4eb3f25-12c6-489b-a73c-fae9e37f28c3
-0.0374493436901566,0.0618575557257575,-0.1600267025959921,-0.1747984451829679,-0.1387627935895094,-0.0111793465328689,-0.2546219948352647,-0.2795908236643033,-12.85273266322823,1.7519277520687109,-17.393450823674787,0.3635841065372331,0.4885359429771959,0.7413743638312531,7671.899108886719,10525.5,1194.375,0.0005951855637249,-0.015767537523061,-0.9731590375304222,2000.0,1500.0,1425.0,1500.0,2000.0,1021.7000000000002,250.0,289.15,1635952435.2551205,1635952436.740039,ee40e12f-11b0-4633-9775-849efd594d34
-0.0386272477926188,0.0647543778413806,-0.1618551939824896,-0.1603691164370088,-0.1387764908572006,-0.0283685257210544,-0.260867626573719,-0.2866514007757154,-12.86856265189121,1.696601418643554,-17.57488879142872,0.2919139930326318,0.4992274939472438,0.7530106717426643,7673.61328125,10531.1875,1193.75,-5.867046638741158e-06,-0.0166172833414748,-0.9748715870082378,2000.0,1500.0,1425.0,1500.0,2000.0,1021.7000000000002,250.0,289.15,1635952436.8483174,1635952438.6944172,ee40e12f-11b0-4633-9775-849efd594d34
-0.0383053786175543,0.0612823002681225,-0.1624578414901833,-0.1639028296915373,-0.1396393730804155,-0.0214038261265128,-0.2604704250447106,-0.2870965384411401,-12.927164505958295,1.788152135928723,-17.532612522546135,0.316089927645527,0.4866435917933875,0.7539718585494443,7673.61328125,10532.3125,1193.0,0.000774369087594,-0.0158038838417269,-0.9752883091568948,2000.0,1500.0,1425.0,1500.0,2000.0,1021.7000000000002,250.0,289.15,1635952438.804155,1635952440.329141,ee40e12f-11b0-4633-9775-849efd594d34
-0.0497376342511676,0.0201253071618883,-0.1287417222431596,-0.1645579332363805,-0.0880576952741412,0.0167052458227684,-0.1915337462469185,-0.2158448474515914,-12.24387906545255,0.1501711063294975,-17.52233485663265,0.3943699041198101,0.3295429276895867,0.5357846717509888,8313.701171875,10129.125,1516.875,0.0005317952436598,-0.0157405185163952,-0.9556847289204596,1000.0,1500.0,1500.0,1500.0,1000.0,1021.7000000000002,250.0,289.15,1635952444.4683044,1635952446.074041,85befd07-6276-44de-8993-a490e41e30c8
-0.0500034056923811,0.0260632025812356,-0.1358476121003097,-0.16467682965909,-0.0951985550086151,0.0178802370078687,-0.1982199967833613,-0.2224751470370518,-12.194004137161022,0.0295347332717157,-16.596249986767646,0.3962976574856701,0.3428148936587255,0.566824681694761,8313.701171875,10132.5,1514.75,0.0004487720416364,-0.0165391069604083,-0.9450726062059402,1000.0,1500.0,1500.0,1500.0,1000.0,1021.7000000000002,250.0,289.15,1635952446.1826413,1635952447.799057,85befd07-6276-44de-8993-a490e41e30c8
-0.0470729248902956,0.0182858885361547,-0.1320708592801496,-0.1620051268149774,-0.091848435297455,0.0137328020542295,-0.1970869715126253,-0.2186074721405837,-12.283616737692878,0.3044403350139393,-17.902542433091476,0.3827082105782236,0.3257722747773738,0.5525648461542801,8313.701171875,10129.588235294115,1515.6470588235295,-8.687800650745082e-05,-0.0163456592708826,-0.9370077217326443,1000.0,1500.0,1500.0,1500.0,1000.0,1021.7000000000002,250.0,289.15,1635952447.9086602,1635952449.519417,85befd07-6276-44de-8993-a490e41e30c8
-0.0440510851298251,0.0375119228254597,-0.1612319995082047,-0.2057389711095893,-0.1235459157456347,0.0406826754431149,-0.2198875173415336,-0.2447536219509029,-12.583683496356208,-0.1460087538574183,-17.311771682545288,0.5374260271459209,0.3982976773841891,0.6707020721201752,8318.745727539062,10200.75,1509.875,-7.28783052181825e-05,-0.0171401603147387,-0.9173164069652556,1250.0,1500.0,1500.0,1500.0,1250.0,1021.7000000000002,250.0,289.15,1635952454.1389043,1635952455.783058,54347b3c-4dee-4603-86fd-9125482cec92
-0.0443729542842635,0.0389979994305394,-0.1654436918671928,-0.2112860781475823,-0.1306475820063105,0.0408607304333649,-0.2257291008094254,-0.2496980804161146,-12.53559397267828,0.0479589993276799,-17.846581857580443,0.5513541316289018,0.4086902697768134,0.6937638662362451,8319.754638671875,10203.75,1508.25,0.0001700509292277,-0.0172438388690352,-0.9136646836996078,1250.0,1500.0,1500.0,1500.0,1250.0,1021.7000000000002,250.0,289.15,1635952455.893268,1635952457.4201288,54347b3c-4dee-4603-86fd-9125482cec92
-0.0437703056635706,0.0381145714015451,-0.1667448647795923,-0.203752969868452,-0.1261893516846727,0.0408607308185002,-0.2239416991186592,-0.2503897565036311,-12.666513259762487,-0.3836715581834591,-16.97627378699558,0.5315079957036731,0.3975726791432035,0.6881926012149199,8313.701171875,10200.5,1509.5,0.0002022555490839,-0.0164848109707236,-0.9104177951812744,1250.0,1500.0,1500.0,1500.0,1250.0,1021.7000000000002,250.0,289.15,1635952457.5293834,1635952459.170418,54347b3c-4dee-4603-86fd-9125482cec92
-0.0438137266793022,0.0429816581007107,-0.1704188941854232,-0.2017869302553377,-0.1311896159744679,0.0327914180754538,-0.2314484341469891,-0.2542208592951921,-12.700134945221924,-0.2841516152749403,-17.23200130365958,0.5093593676979089,0.4178583983442737,0.7108803576584808,8313.701171875,10197.75,1507.75,0.0003723324334714,-0.0161282215267419,-0.9037970006465912,1500.0,1500.0,1500.0,1500.0,1500.0,1021.7000000000002,250.0,289.15,1635952463.1968925,1635952464.90442,cc644b4a-1a03-4d69-9e14-8b0e217ed22a
-0.0411350294235024,0.0426949045792733,-0.1681808185099713,-0.1976884540497492,-0.1225520415532496,0.0360576093917961,-0.2249020618315242,-0.2496258093836161,-12.920199891321076,-0.8034442147180474,-16.23047633291398,0.5041716391342024,0.4090924383934778,0.6882173181065716,8313.701171875,10193.875,1507.625,0.0002389865312579,-0.0162969885859638,-0.9027772396802902,1500.0,1500.0,1500.0,1500.0,1500.0,1021.7000000000002,250.0,289.15,1635952465.0123415,1635952466.653726,cc644b4a-1a03-4d69-9e14-8b0e217ed22a
-0.0400927795401674,0.0414839248505729,-0.1700594320746137,-0.1944872474405649,-0.1235390672692708,0.032848243646314,-0.22737953556109,-0.2515608123188274,-12.936185679619006,-0.8215919849779318,-16.452670750172146,0.4894813158835817,0.406119436226426,0.6952142577096194,8313.701171875,10196.75,1506.9375,0.0002226746419182,-0.0171263511292636,-0.9030568525195122,1500.0,1500.0,1500.0,1500.0,1500.0,1021.7000000000002,250.0,289.15,1635952466.7665222,1635952468.4778738,cc644b4a-1a03-4d69-9e14-8b0e217ed22a
-0.0403667107485635,0.0541121518930217,-0.1675118724076917,-0.1960007168307271,-0.1348318809878525,0.0118308745495686,-0.2402474544483478,-0.2660586216783615,-12.699080129102422,0.2737648739101442,-17.93288167798628,0.4529380005159211,0.4652902815516844,0.7245873470390735,8313.701171875,10189.5,1505.0,0.0001605283073331,-0.0167770776897668,-0.9041672945022584,1750.0,1500.0,1500.0,1500.0,1750.0,1021.7000000000002,250.0,289.15,1635952471.6261537,1635952473.1000528,cc657c6f-f963-4f99-8143-cce6d065f078
-0.0363604672411872,0.0555776835973451,-0.1651834572610008,-0.2012054097392177,-0.1287437603613848,0.0206172169270113,-0.2315364421348137,-0.2548959250693705,-12.741854551472128,-0.2210780007275656,-17.112826666648868,0.4813673533366905,0.464601562440728,0.7021800841111286,8308.01482077206,10188.235294117649,1506.8823529411766,0.0001963495787469,-0.0169130012612132,-0.9047170737210442,1750.0,1500.0,1500.0,1500.0,1750.0,1021.7000000000002,250.0,289.15,1635952473.2082183,1635952474.8332624,cc657c6f-f963-4f99-8143-cce6d065f078
-0.0387308105069639,0.0551213645932491,-0.1698085614664853,-0.1956766126291655,-0.1331397965372916,0.0166815518608646,-0.2390673136936516,-0.2612792207444783,-12.834417787699206,-0.0925889164805132,-17.060013174986793,0.460635071870012,0.4621054028072341,0.7251448120626478,8305.6455078125,10182.0625,1505.1875,0.0003005165488616,-0.0168177910381928,-0.905005007982254,1750.0,1500.0,1500.0,1500.0,1750.0,1021.7000000000002,250.0,289.15,1635952474.9415271,1635952476.466201,cc657c6f-f963-4f99-8143-cce6d065f078
-0.0391066272897993,0.0664116614750191,-0.1856461172392712,-0.1934394615242235,-0.1579105837641309,-0.0038653828674578,-0.2703524934240141,-0.292383410671166,-12.912844470869391,0.7764562194926904,-18.306160215746917,0.4141511808996969,0.514785815789883,0.8242319257241745,8297.60546875,10138.0,1505.6875,-0.0005262368822513,-0.0176560563268139,-0.9086120501160622,2000.0,1500.0,1500.0,1500.0,2000.0,1021.7000000000002,250.0,289.15,1635952480.1999705,1635952481.7787,72fe6eb0-b98e-472d-8971-6991c223ff3c
-0.0389738872671468,0.0684537600049855,-0.1824345655217432,-0.1938767313825928,-0.1544446257798036,-0.0028709254236329,-0.2658378741137485,-0.2895754700417735,-12.86416924460137,0.665279302776956,-17.907003179546727,0.4168832716568831,0.5188182438808095,0.8095915159303761,8297.60546875,10132.625,1507.3125,-0.0004441612691152,-0.0165784606942906,-0.909889455884695,2000.0,1500.0,1500.0,1500.0,2000.0,1021.7000000000002,250.0,289.15,1635952481.886968,1635952483.5465918,72fe6eb0-b98e-472d-8971-6991c223ff3c
-0.0369806007843837,0.0682019765443336,-0.1818750473691796,-0.1884633847230956,-0.1493460094867467,-0.0023953342067587,-0.2628444478377912,-0.2881906607686331,-12.994146886874892,0.3204761905512212,-17.147767076462024,0.4035385228058292,0.5114278861852362,0.7987607817800292,8297.60546875,10131.9375,1507.0,-0.0005073527736385,-0.0171946824993938,-0.9117597416043282,2000.0,1500.0,1500.0,1500.0,2000.0,1021.7000000000002,250.0,289.15,1635952483.6549232,1635952485.3848307,72fe6eb0-b98e-472d-8971-6991c223ff3c
-0.05263882760868787,0.03195112007084026,-0.0663833246963364,-0.03923674456598541,-0.08937299936121317,-0.10818522361645694,-0.2450275525519864,-0.2695580920991235,-12.549174846928715,8.737063972399216,-17.29186782540153,-0.10905791232268093,0.36268419841167027,0.5278556705366858,-1.0,12032.5,0.0,0.0018303167889826,-0.017957511357963085,-1.155279815196991,1500.0,1500.0,1000.0,1500.0,1500.0,1021.7000000000002,250.0,289.15,1635952489.639963,1635952491.1240664,2802cfe3-cea7-4bab-a74e-54c2acc472b5
-0.05280318631708753,0.032498982418874424,-0.06592448996324664,-0.03942849639194934,-0.08922233720807532,-0.10858242383860978,-0.2449385249094802,-0.26957178873968557,-12.552919119424317,8.758111026633086,-17.295244426352607,-0.10935798176628109,0.3648484964573155,0.5269468557391216,-1.0,12031.125,0.0,0.0025272281491197646,-0.018499993719160557,-1.2887066528201103,1500.0,1500.0,1000.0,1500.0,1500.0,1021.7000000000002,250.0,289.15,1635952491.2322977,1635952492.857029,2802cfe3-cea7-4bab-a74e-54c2acc472b5
-0.05254979997360859,0.03245789274283207,-0.06582176576947331,-0.039428496391943506,-0.08939354419916878,-0.10871938943255859,-0.24502755255082212,-0.26986626475645353,-12.542013809462675,8.782616193397665,-17.320723600737093,-0.109496771126063,0.3648499491242198,0.5271234388447786,-1.0,12027.3125,0.0,0.0027256986941210926,-0.018360288231633604,-1.3961469307541847,1500.0,1500.0,1000.0,1500.0,1500.0,1021.7000000000002,250.0,289.15,1635952492.9654016,1635952494.6017787,2802cfe3-cea7-4bab-a74e-54c2acc472b5
