raw_voltage_G-,raw_voltage_G0,raw_voltage_G1,raw_voltage_G2,raw_voltage_G3,raw_voltage_G4,raw_voltage_G5,raw_voltage_G6,load_x,load_y,load_z,load_l,load_m,load_n,rpm,voltage,current,roll,pitch,yaw,aileron1_pwm,elevator_pwm,throttle_pwm,rudder_pwm,aileron2_pwm,pbaro,pdiff,Tt,sample_start_time,sample_end_time,uid
-0.3978126878920765,-0.1609443709962404,-0.922281503174439,0.0139743866624559,-0.9609058208487068,0.3437053270471087,-1.30345700976779,-1.3245634269824178,-31.19521796369342,29.307159353845787,19.50455698499696,0.8765924693436018,-0.615406802265927,4.396118659995504,-1.0,11.98,0.0,179.38000445287722,1.0800922727071165,96.0670842360118,1553.0,1435.0,1000.0,1528.0,1471.0,1011.0,183.0,293.5,1649157112.7723608,1649157113.872369,278a23c5-6735-45a5-8424-802888701a3a
-0.4073591911462824,-0.1673680575077606,-0.9257604310971868,0.0161521394694574,-0.9613030213409224,0.3502385850245925,-1.3038542103578574,-1.3366985892827783,-31.25701069249033,29.17884734427977,19.81040067839643,0.8853549207427496,-0.6422637129972627,4.401649994202187,-1.0,11.980444444444444,0.0,179.38834790840335,1.063413389498736,96.3866384308804,1553.0,1435.0,1000.0,1528.0,1471.0,1011.0,183.0,293.5,1649157113.9853735,1649157115.0937746,278a23c5-6735-45a5-8424-802888701a3a
-0.4057156038698937,-0.1595199287993882,-0.9227745796395816,0.0101667433421843,-0.9630561819049832,0.3476225425385694,-1.30277218121277,-1.3248647530640163,-31.06319865730355,29.33738305308272,19.76090683158984,0.8942672094828237,-0.6128326438463215,4.399325047691157,-1.0,11.97977777777778,0.0,179.3699322005812,1.0699761696479622,96.73515186891991,1553.0,1435.0,1000.0,1528.0,1471.0,1011.0,183.0,293.5,1649157115.2014978,1649157116.3219664,278a23c5-6735-45a5-8424-802888701a3a
-0.1800236787829682,0.2286679384038801,-0.8812328946971375,-0.3018682783716202,-1.0243346234213868,0.2670046038546924,-1.309387625249128,-1.3348495525142416,-30.566106483852124,27.94980339575017,21.67158839699211,1.4104073595546407,0.8636834345270135,4.48342837830097,-1.0,11.951,0.0,179.24620863613575,1.065920436521117,97.38435072479092,1631.0,1435.0,1000.0,1528.0,1531.0,1011.0,183.0,293.5,1649157118.4561472,1649157119.5973911,65a873c0-83f2-4495-bda6-20e6a4bd8455
-0.1875748662216275,0.2160901153115592,-0.8907016045911389,-0.2988522957056653,-1.0305512214627648,0.2783491887576851,-1.313629727245844,-1.3380468799201717,-30.47531621380653,27.871352720161305,21.874701582891912,1.4281833799926966,0.8130932442148198,4.509729042004245,-1.0,11.952333333333334,0.0,179.24147910959047,1.052744551009405,97.548663826744,1631.0,1435.0,1000.0,1528.0,1531.0,1011.0,183.0,293.5,1649157119.7063649,1649157120.9242742,65a873c0-83f2-4495-bda6-20e6a4bd8455
-0.182841335117525,0.2177731483486369,-0.8889528272024045,-0.2865845603381467,-1.0278294397011494,0.2652530880705849,-1.3162200230133378,-1.340939595697318,-30.529136348779584,27.9202422718002,21.849796108892093,1.371461798173479,0.8186085751461444,4.507544511971956,-1.0,11.95377777777778,0.0,179.23901872366943,1.0547272505753469,97.6298884363538,1631.0,1435.0,1000.0,1528.0,1531.0,1011.0,183.0,293.5,1649157121.0332353,1649157122.3636138,65a873c0-83f2-4495-bda6-20e6a4bd8455
0.1034057918752546,0.7233930721536163,-0.8238930448073479,-0.6664504891013954,-1.099555627012239,0.1288222212602368,-1.326752138512863,-1.3449236555788502,-29.814729034486817,26.711926536675264,23.37632643015373,1.91760031553586,2.74727828218702,4.592547932293265,-1.0,11.926,0.0,179.05616848830894,1.1007353573926837,97.74222683436273,1712.0,1435.0,1000.0,1528.0,1591.0,1011.0,183.0,293.5,1649157123.273496,1649157124.415495,e7403aca-7e02-4df8-b28b-1a5c1b9e3597
0.1067959639892563,0.7198949714275843,-0.8301720981805251,-0.663115101753739,-1.104760870880788,0.1301896856858621,-1.3336168601707783,-1.3492857390268078,-29.89527313642889,26.77886809600045,23.46905360294401,1.913254720150543,2.7330989296077184,4.617623561952533,-1.0,11.927666666666669,0.0,179.0530220478313,1.1001945985094888,97.79100576868522,1712.0,1435.0,1000.0,1528.0,1591.0,1011.0,183.0,293.5,1649157124.523841,1649157125.6367986,e7403aca-7e02-4df8-b28b-1a5c1b9e3597
0.106590515614841,0.7135945550847188,-0.8289257107595227,-0.668497851470966,-1.1042677944135233,0.1414893462015084,-1.3278232103868202,-1.347902385500621,-29.697787512719994,26.804225093749107,23.518892510735284,1.95112624088268,2.7083712380785023,4.606392533271069,-1.0,11.922,0.0,179.05248170397695,1.1014586815405685,97.79166374357528,1712.0,1435.0,1000.0,1528.0,1591.0,1011.0,183.0,293.5,1649157125.7458365,1649157126.8643234,e7403aca-7e02-4df8-b28b-1a5c1b9e3597
0.384472308867233,1.1952077069490947,-0.7626332409311637,-0.988186095488276,-1.167047935828982,-0.0296064201917931,-1.34751395030849,-1.3667636603136253,-28.961203613138032,26.041630783661567,24.61543814155,2.286580729043454,4.543331481311765,4.68741969919368,-1.0,11.883888888888889,0.0,178.8038946924046,1.155475529040797,97.74720604226766,1796.0,1435.0,1000.0,1528.0,1650.0,1011.0,183.0,293.5,1649157128.7986228,1649157129.9384944,0b719d71-e6e8-4bb8-b302-da7ba62f75d7
0.404037567315724,1.205345351546898,-0.7628830662326282,-0.9920518142750744,-1.170032692236615,-0.0365226345304347,-1.3505381531533418,-1.3774798584786154,-28.91418063500112,26.051621904484985,24.52535220857593,2.279822289098973,4.582279709036576,4.69722589173506,-1.0,11.88888888888889,0.0,178.80609249549758,1.1449423219815469,97.74107329130292,1796.0,1435.0,1000.0,1528.0,1650.0,1011.0,183.0,293.5,1649157130.0472727,1649157131.1667657,0b719d71-e6e8-4bb8-b302-da7ba62f75d7
0.422542712209922,1.2137517511984492,-0.7489514684486549,-0.9937775817425404,-1.1581363997679126,-0.043345712374057,-1.3375066865275211,-1.360448444678754,-28.801724002025832,25.970513582640603,24.60455232679688,2.268608087198712,4.613405222106269,4.644704058488529,-1.0,11.883333333333333,0.0,178.78029866555198,1.1221155926160182,97.67250274549542,1796.0,1435.0,1000.0,1528.0,1650.0,1011.0,183.0,293.5,1649157131.2755554,1649157132.597926,0b719d71-e6e8-4bb8-b302-da7ba62f75d7
0.6512889161224611,1.6452207669887495,-0.7110530753085712,-1.2794743142717433,-1.2407541089046104,-0.1941996183048384,-1.385157060946444,-1.4068250398661508,-28.35438297529912,26.03590969811384,25.81825574561692,2.576820307855462,6.255332217616119,4.825117261641505,-1.0,11.818222222222223,0.0,178.41072168302202,1.190897542264685,97.59792770449758,1886.0,1435.0,1000.0,1528.0,1710.0,1011.0,183.0,293.5,1649157133.307639,1649157134.44536,c54a4227-d656-4426-82cd-17a84614cbbc
0.6749017808344603,1.6571641680116709,-0.7086287834294035,-1.2818712144945024,-1.2408910745847748,-0.204458341793408,-1.3855953511214922,-1.411974951864538,-28.26566224771126,25.975449192116955,25.717688075632708,2.558922948306014,6.30083838972914,4.823992422312261,-1.0,11.817666666666668,0.0,178.420399302166,1.186221530725871,97.54612299637276,1886.0,1435.0,1000.0,1528.0,1710.0,1011.0,183.0,293.5,1649157134.5544338,1649157135.6706407,c54a4227-d656-4426-82cd-17a84614cbbc
0.6563840354213678,1.6474670029527505,-0.6997808032317154,-1.2892262725374657,-1.2318787315005235,-0.1867349931510542,-1.371487882021997,-1.396949811343081,-28.27356474484204,26.044648083404155,26.011085850424664,2.6162829776505223,6.263391333191886,4.778712521150607,-1.0,11.824222222222222,0.0,178.4183699770726,1.1988338307673188,97.48483570895024,1886.0,1435.0,1000.0,1528.0,1710.0,1011.0,183.0,293.5,1649157135.7792408,1649157136.904012,c54a4227-d656-4426-82cd-17a84614cbbc
-0.7016101161566836,-0.6908413296054063,-0.9455448474726438,0.4310712846173092,-0.8456147017145933,0.4657969884376849,-1.2520411786051286,-1.284334407067525,-31.43489756852508,30.934324854611905,17.742653917111852,0.2193071332798568,-2.6383312079244576,4.133812414957904,-1.0,11.9665,0.0,179.54195203264777,1.0090540216482933,97.30736918047552,1475.0,1435.0,1000.0,1528.0,1408.0,1011.0,183.0,293.5,1649157137.810077,1649157138.952351,7f4ceec9-e365-4c9b-a2e1-7b5ac8ba0d81
-0.705475834359344,-0.6943783302607764,-0.9370113386699452,0.4294802924858388,-0.8375151008043926,0.4698336378161838,-1.241548509990338,-1.2716590515859698,-31.35403744998267,30.962613366322856,17.688072083281387,0.2326113538615536,-2.6509483175916184,4.095735056485311,-1.0,11.969111111111111,0.0,179.5518019243408,1.011893059145918,97.2536345644552,1475.0,1435.0,1000.0,1528.0,1408.0,1011.0,183.0,293.5,1649157139.0635917,1649157140.180679,7f4ceec9-e365-4c9b-a2e1-7b5ac8ba0d81
-0.7025962688260471,-0.6941153562432254,-0.9439144081529268,0.4297301177103274,-0.8428929201903282,0.4705568160655997,-1.248924934810413,-1.2816915158078317,-31.515096050692588,30.906558980604824,17.80669594772032,0.2328954059128546,-2.6503427595474265,4.12308363418709,-1.0,11.965666666666667,0.0,179.5637486841091,1.0142541938805616,97.20432363428736,1475.0,1435.0,1000.0,1528.0,1408.0,1011.0,183.0,293.5,1649157140.2889912,1649157141.4081304,7f4ceec9-e365-4c9b-a2e1-7b5ac8ba0d81
-0.9532768332847428,-1.1304830268564654,-0.9813684919881238,0.7862547915154384,-0.7690443287592449,0.5608094588009264,-1.2377956497613072,-1.2611209108907475,-32.10229601057936,33.02258577967623,16.403133748020355,-0.3568840536471073,-4.316625361492804,4.004774299513997,-1.0,11.915,0.0,179.69189517549708,0.9841232175279384,97.06189218170526,1396.0,1435.0,1000.0,1528.0,1340.0,1011.0,183.0,293.5,1649157142.3181777,1649157143.4549706,0a6d95a4-c8be-46c2-ae81-0c9a1975d891
-0.9517839074819502,-1.1283600586603733,-0.9691374577327734,0.7835428731472547,-0.7579501114662692,0.5619599696134508,-1.223140319576829,-1.2392611832364846,-31.910495678142752,32.92086088287094,16.61098332114799,-0.3481169217745464,-4.310755068768128,3.95282739580572,-1.0,11.914111111111112,0.0,179.71043838018377,0.966050963870908,96.92457274626196,1396.0,1435.0,1000.0,1528.0,1340.0,1011.0,183.0,293.5,1649157143.5635278,1649157144.6837466,0a6d95a4-c8be-46c2-ae81-0c9a1975d891
-0.9652547549069964,-1.142578192926932,-0.9845964987751874,0.7851656412600163,-0.7689972124957727,0.5730114477627268,-1.2360129040014585,-1.2614556534253396,-32.1571362925534,32.93873545781466,16.306228913796176,-0.3277673385744672,-4.360814539676585,4.0049583246942,-1.0,11.913444444444444,0.0,179.71696652321043,0.9722784837104056,96.77171387154698,1396.0,1435.0,1000.0,1528.0,1340.0,1011.0,183.0,293.5,1649157144.7932708,1649157145.9112556,0a6d95a4-c8be-46c2-ae81-0c9a1975d891
-1.2411934949981098,-1.6253462133294994,-1.0023998448420408,1.1679504608383808,-0.6694089468577623,0.6861428193154516,-1.1962117674992436,-1.221615069914182,-32.46689251881877,35.50042784581671,15.308492275613885,-0.9212344991244764,-6.208667040593323,3.779181196411818,-1.0,11.880777777777777,0.0,179.8853913990439,0.9247210386004032,96.41643626949944,1314.0,1435.0,1000.0,1528.0,1268.0,1011.0,183.0,293.5,1649157147.845372,1649157148.8939943,5976003a-1b44-4255-b45c-49c59afa4000
-1.2302537703617906,-1.606162240981929,-0.988094054492925,1.153697274251706,-0.660914886025783,0.6805809213384656,-1.1821163541172963,-1.202786121106197,-32.19322972455315,35.34667852149124,15.433810322893043,-0.901730288321016,-6.137103913526882,3.730670266169824,-1.0,11.884333333333334,0.0,179.89056261115553,0.93186209624139,96.20023194369202,1314.0,1435.0,1000.0,1528.0,1268.0,1011.0,183.0,293.5,1649157149.0024605,1649157150.2119565,5976003a-1b44-4255-b45c-49c59afa4000
-1.233725028900682,-1.6071878406096007,-0.9917888401879066,1.1561429315413434,-0.661940484497237,0.6764259337236866,-1.186665806253537,-1.2206683628025454,-32.39245499768675,35.22584423917235,14.991482173168595,-0.9177396992405972,-6.136157516691635,3.7427647692973895,-1.0,11.88,0.0,179.89060359229052,0.9513656658424594,96.05383594575169,1314.0,1435.0,1000.0,1528.0,1268.0,1011.0,183.0,293.5,1649157150.3198998,1649157151.435561,5976003a-1b44-4255-b45c-49c59afa4000
-1.5360664561479829,-2.102947067665906,-1.04245079951996,1.5491706240436682,-0.5939748503562238,0.7949482703756368,-1.1865869140248058,-1.2078615222250668,-33.15337220920918,38.42899181953345,14.006646928590136,-1.519806955187425,-8.032989378430806,3.659362023825977,-1.0,11.796555555555557,0.0,-179.9546980874619,0.8906073267676897,95.67181284073416,1227.0,1435.0,1000.0,1528.0,1189.0,1011.0,183.0,293.5,1649157153.3736165,1649157154.5134575,7ea17299-0d3a-4567-95ef-ec06f8ddf04e
-1.5262865539506545,-2.1067065063401054,-1.0562750197205515,1.5560013726360238,-0.6041924865814882,0.7962806714674535,-1.2021023885501672,-1.2239347224725894,-33.47347732034841,38.43358331515005,14.4550062190631,-1.5329689452996949,-8.050515046305861,3.714225107184493,-1.0,11.81088888888889,0.0,-179.93668763753053,0.9011288596581242,95.41014753472106,1227.0,1435.0,1000.0,1528.0,1189.0,1011.0,183.0,293.5,1649157154.6217842,1649157155.741911,7ea17299-0d3a-4567-95ef-ec06f8ddf04e
-1.536586378217563,-2.1118564222605367,-1.0560284813256662,1.5698485948763032,-0.6014120841980684,0.7910485865661615,-1.2065126838281424,-1.23082409654974,-33.79398769196303,38.64049696639073,14.789548407713182,-1.5746861566966992,-8.072212658591884,3.7160424142448334,-1.0,11.807666666666668,0.0,-179.92242013126423,0.8817347213083663,95.24567278495763,1227.0,1435.0,1000.0,1528.0,1189.0,1011.0,183.0,293.5,1649157155.8507037,1649157156.888003,7ea17299-0d3a-4567-95ef-ec06f8ddf04e
-0.3823333821853302,-0.1295759623426583,-0.8939756317856619,0.0275509635340357,-0.9343553004692524,0.3003995510082252,-1.2850444354010435,-1.318297520204858,-31.137340894920936,28.905997678485047,19.679126472621714,0.7474602325923456,-0.4995969719470012,4.299522245481072,-1.0,11.984750000000002,0.0,179.42412785437045,1.091210231708278,94.88623275179336,1553.0,1435.0,1000.0,1528.0,1471.0,1011.0,183.0,293.5,1649157158.9081662,1649157160.041989,29337a09-70f6-41fb-8952-b44f31732ca5
-0.3692898730642934,-0.1211739448929114,-0.8998268047462465,0.026683149604144,-0.941363559562986,0.2967836597664963,-1.2945641000824637,-1.3196518360165612,-31.292457088138733,28.959980039868853,20.16252207299948,0.7413578985401026,-0.4715339180436035,4.332157705601532,-1.0,11.982666666666669,0.0,179.44275264187223,1.081998429094079,95.16058001154788,1553.0,1435.0,1000.0,1528.0,1471.0,1011.0,183.0,293.5,1649157160.150872,1649157161.271867,29337a09-70f6-41fb-8952-b44f31732ca5
-0.3853181368377054,-0.1385433737961405,-0.9045603379817102,0.0322976429586493,-0.941573938824046,0.306671478735572,-1.295537104513777,-1.3183106681846148,-31.40463089276549,28.97570970702515,19.86235071442914,0.7506764875821605,-0.5342165654695543,4.337721186493429,-1.0,11.976000000000004,0.0,179.42690508517796,1.094625705748238,95.33480903035604,1553.0,1435.0,1000.0,1528.0,1471.0,1011.0,183.0,293.5,1649157161.38018,1649157162.5000908,29337a09-70f6-41fb-8952-b44f31732ca5
-0.3871721033850396,-0.1501668221548533,-0.9667011122090556,-0.4121283339946777,-1.0446071870926938,0.7475735222413041,-1.2337907724312354,-1.264361518378985,-31.43526490647254,27.975424355827126,22.75249122780621,2.7346784451604704,-0.5524479939229195,4.474009484522262,-1.0,11.965666666666667,0.0,179.45931357387977,1.2223572631441233,95.68138345358118,1553.0,1522.0,1000.0,1528.0,1471.0,1011.0,183.0,293.5,1649157164.4328604,1649157165.5750847,7663d290-edf7-401d-9a63-e98a6119d0ba
-0.3946761753575811,-0.155219209052192,-0.9777662946725866,-0.4109887798577913,-1.053782243914151,0.7527667088893487,-1.2441097684297389,-1.2635999891965508,-31.550762487420247,27.98898625100724,22.85423071189966,2.743274684574253,-0.5723233146779808,4.515737167585768,-1.0,11.963,0.0,179.4533121143291,1.2493773373471189,95.71061135085948,1553.0,1522.0,1000.0,1528.0,1471.0,1011.0,183.0,293.5,1649157165.682894,1649157166.9860137,7663d290-edf7-401d-9a63-e98a6119d0ba
-0.3975250600701112,-0.1648615871021925,-0.9737258074894228,-0.4049485962990939,-1.0484953687862422,0.7555745031361564,-1.238768106109671,-1.2600388809650054,-31.49947285118733,28.093047158720434,22.735650952179032,2.736856936107898,-0.6082859066332973,4.494135380168022,-1.0,11.968,0.0,179.4418935558566,1.24542244437427,95.77893980440638,1553.0,1522.0,1000.0,1528.0,1471.0,1011.0,183.0,293.5,1649157167.099048,1649157168.237569,7663d290-edf7-401d-9a63-e98a6119d0ba
-0.3785860030067891,-0.1876143122134128,-1.051904718459596,-0.9033375086617234,-1.167836858043129,1.263291655353958,-1.1733987610611905,-1.1906893106020386,-31.73457369946461,26.80168439077283,26.466173590331355,4.990031384425449,-0.668637685491946,4.668681403489644,-1.0,11.948,0.0,179.47699921037068,1.4156014218798652,95.85761371781612,1553.0,1613.0,1000.0,1528.0,1471.0,1011.0,183.0,293.5,1649157169.3500974,1649157170.4876034,b1c79a20-92d0-4f1b-9a72-892b33ea5af9
-0.3855285160162215,-0.1872067025889054,-1.0485386500865037,-0.9110032027785148,-1.166969043560033,1.265947691971569,-1.1691254314853674,-1.1961723214921514,-31.614381508329306,26.880631301902486,25.92519714730913,5.013957004425799,-0.6620063910960831,4.656097536008807,-1.0,11.94811111111111,0.0,179.46210636234042,1.4275506006734564,95.7810199764636,1553.0,1613.0,1000.0,1528.0,1471.0,1011.0,183.0,293.5,1649157170.5955343,1649157171.7178729,b1c79a20-92d0-4f1b-9a72-892b33ea5af9
-0.3881582556986837,-0.1793306328263546,-1.0516680417697355,-0.9097146298456552,-1.1718077674463812,1.2583871916393954,-1.174805672631337,-1.2061653397916938,-31.522658781498617,26.87948918728392,26.08166143529652,4.993968564018425,-0.6348593278492056,4.676290806608248,-1.0,11.954444444444444,0.0,179.45510617735107,1.42025579262834,95.73267741533806,1553.0,1613.0,1000.0,1528.0,1471.0,1011.0,183.0,293.5,1649157171.82607,1649157172.9445238,b1c79a20-92d0-4f1b-9a72-892b33ea5af9
-0.398861296593459,-0.2028010578164919,-1.1269443816644982,-1.3563630308900805,-1.289633334767129,1.716750783031535,-1.126405284788162,-1.1488895729338864,-31.661366793847137,26.39441667350633,29.405166420815785,7.024998219231842,-0.7011504579334786,4.86850499971318,-1.0,11.914444444444444,0.0,179.4621382365565,1.5706254072719,95.63813241902692,1553.0,1710.0,1000.0,1528.0,1471.0,1011.0,183.0,293.5,1649157173.855333,1649157174.992171,c482dba5-a2b6-468b-adb2-dd77590801d3
-0.3765830179757028,-0.1942544044271929,-1.1052402509579349,-1.355983362332303,-1.272324704034972,1.7056499942823633,-1.1060209554890073,-1.1271273684305123,-31.290246177107463,26.42463640364227,29.22707230597076,7.000636299947445,-0.6688138749144175,4.787355377781254,-1.0,11.911555555555555,0.0,179.46089058866815,1.5744974723430956,95.48990820711876,1553.0,1710.0,1000.0,1528.0,1471.0,1011.0,183.0,293.5,1649157175.1003196,1649157176.228111,c482dba5-a2b6-468b-adb2-dd77590801d3
-0.3754462033578252,-0.1948159633971616,-1.1017065362533889,-1.3549013328166597,-1.268434877978717,1.7051158282408714,-1.1030214068213249,-1.1257851043238742,-31.362697733838985,26.44376064790103,29.239862510003626,6.997263464930842,-0.6704295054138155,4.772870795806496,-1.0,11.914666666666667,0.0,179.4531299759512,1.5781266981017683,95.3919268667452,1553.0,1710.0,1000.0,1528.0,1471.0,1011.0,183.0,293.5,1649157176.3411052,1649157177.4502883,c482dba5-a2b6-468b-adb2-dd77590801d3
-0.3708414195026066,-0.2086522282457502,-1.1431435875547424,-1.7353483550264657,-1.3518530238763724,2.088162122291051,-1.0472369283157723,-1.0803716661746765,-31.669041418980537,26.584970607041843,32.0168385447109,8.71537617469507,-0.7005512759741237,4.862181883784912,-1.0,11.8555,0.0,179.46838748019212,1.729268881549202,95.11147190005288,1553.0,1814.0,1000.0,1528.0,1471.0,1011.0,183.0,293.5,1649157179.3878489,1649157180.5183623,4a0bb145-4f01-4885-a54d-7e81f58cdf61
-0.3828461814485745,-0.2080605368868308,-1.1411844304472625,-1.7341386732499708,-1.3512481833430798,2.084861798023423,-1.0449227563353154,-1.0682880057830346,-31.43938972690088,26.59680367994322,31.803653815087465,8.705488773433212,-0.698092577897944,4.855329901995515,-1.0,11.87988888888889,0.0,179.45722505381354,1.7661483115854222,94.92460456482304,1553.0,1814.0,1000.0,1528.0,1471.0,1011.0,183.0,293.5,1649157180.6275494,1649157181.7539036,4a0bb145-4f01-4885-a54d-7e81f58cdf61
-0.357114178162972,-0.1944779323352701,-1.1249983731099653,-1.7463801273937407,-1.339795657705607,2.08303412861379,-1.0275138709548592,-1.0576244058480233,-31.16911954526806,26.46562129563565,31.962675778292297,8.729093207474946,-0.647940796249377,4.7948845216955895,-1.0,11.885666666666667,0.0,179.4465638874291,1.7710606524127055,94.79937380530076,1553.0,1814.0,1000.0,1528.0,1471.0,1011.0,183.0,293.5,1649157181.862478,1649157182.9804642,4a0bb145-4f01-4885-a54d-7e81f58cdf61
-0.3977168119474084,-0.1354139838592065,-0.8345686955981056,0.5357584555027001,-0.8255015693665303,-0.1865432413579115,-1.3621879090057132,-1.3940598341411807,-31.10090967050384,30.1860298896149,16.08824550252548,-1.4822673415134655,-0.548708494360172,4.178302321229682,-1.0,11.978,0.0,179.41997168426053,1.0042272390196365,94.59847745124316,1553.0,1349.0,1000.0,1528.0,1471.0,1011.0,183.0,293.5,1649157184.9152172,1649157186.0526505,9814da64-2970-413e-b720-6c713ae6006b
-0.4042089820567064,-0.1291820493373936,-0.8268438330362399,0.5277596660385627,-0.8205845026838213,-0.1827903838804794,-1.3545863117846615,-1.3867321672071455,-31.10028511164668,30.240548705375428,16.500810277878376,-1.454978722358357,-0.5275204607010658,4.151496083965385,-1.0,11.982,0.0,179.43286708141352,1.014531219712835,94.92382440543784,1553.0,1349.0,1000.0,1528.0,1471.0,1011.0,183.0,293.5,1649157186.161071,1649157187.290902,9814da64-2970-413e-b720-6c713ae6006b
-0.4046335754520765,-0.1341128107072429,-0.8410060813326717,0.5260475963620558,-0.8320074378775398,-0.1764762698514086,-1.367680234385266,-1.399360407071083,-31.32306650837001,30.18724212992317,16.38444989509948,-1.4381173074724094,-0.5440936452655136,4.204092525174328,-1.0,11.973333333333333,0.0,179.44184194998286,1.0025601748275266,95.2278953203679,1553.0,1349.0,1000.0,1528.0,1471.0,1011.0,183.0,293.5,1649157187.3989065,1649157188.7136755,9814da64-2970-413e-b720-6c713ae6006b
-0.4112605196416491,-0.1182023393546045,-0.7657363346631162,1.0107841017435084,-0.7208203692513699,-0.6612041572021445,-1.4377798416410668,-1.464945077909588,-31.35939647899809,32.199770299661864,13.14487180568015,-3.604257859107248,-0.5103258780916788,4.050612531456567,-1.0,11.955,0.0,179.45745728024536,0.8453896483352397,95.72037093227352,1553.0,1264.0,1000.0,1528.0,1471.0,1011.0,183.0,293.5,1649157190.853521,1649157191.995909,94d16228-afb9-4b60-9493-f18b8f8e1bda
-0.4184923041133456,-0.120056305633394,-0.7823825913177935,0.9994104802978112,-0.7359808220404749,-0.6474900622624625,-1.4523486124379916,-1.4812363305036138,-31.66170007755212,32.14632285754101,13.229363739094564,-3.549106238640701,-0.5155444522592972,4.114300762795522,-1.0,11.948444444444444,0.0,179.44935364025008,0.8267332237766962,95.88416038639023,1553.0,1264.0,1000.0,1528.0,1471.0,1011.0,183.0,293.5,1649157192.1040142,1649157193.2195594,94d16228-afb9-4b60-9493-f18b8f8e1bda
-0.4161649844536065,-0.1191358968403146,-0.7882074664236906,0.9963731316038126,-0.7413191949525215,-0.6449129167160771,-1.4581077475711737,-1.4874293736882718,-31.771526636767376,32.113553161140125,13.282674533879945,-3.5370175940051443,-0.5117833856615498,4.137808119871639,-1.0,11.937,0.0,179.44865696095474,0.826842168851348,96.04150062411064,1553.0,1264.0,1000.0,1528.0,1471.0,1011.0,183.0,293.5,1649157193.3273013,1649157194.4489958,94d16228-afb9-4b60-9493-f18b8f8e1bda
-0.4125638844687969,-0.1048980493883853,-0.7240237214770952,1.4278426625521317,-0.6477749506418214,-1.076682905747354,-1.5283273435718578,-1.5585145953434871,-31.98549004849943,34.31003810592822,10.321022111526515,-5.463375083600376,-0.4796363463404265,4.023163399311014,-1.0,11.916555555555554,0.0,179.46122602684738,0.6880610551387236,96.18959202678496,1553.0,1178.0,1000.0,1528.0,1471.0,1011.0,183.0,293.5,1649157195.3592348,1649157196.5020344,2a29870e-fcc7-4c7e-bf6f-e00702fdb151
-0.4118653597851751,-0.0949680438671498,-0.7142032850137795,1.417803084564105,-0.6429126706594775,-1.076477457183664,-1.5199450399351313,-1.5478175704043171,-31.88975073372177,34.433592284137625,10.487133773592566,-5.4388838653759,-0.4426819054066347,3.9925838814262615,-1.0,11.914333333333332,0.0,179.44847330475704,0.6607149816984675,96.28094428911407,1553.0,1178.0,1000.0,1528.0,1471.0,1011.0,183.0,293.5,1649157196.6167424,1649157197.7247732,2a29870e-fcc7-4c7e-bf6f-e00702fdb151
-0.4203572280166107,-0.0978032316442438,-0.7155181551825335,1.414652875930811,-0.6427483119178722,-1.0697935320155287,-1.5171098492000443,-1.5436538111841396,-31.81602891424475,34.24754298012506,10.637624152041148,-5.417995810547553,-0.4548698136150803,3.99008511175148,-1.0,11.928111111111113,0.0,179.46212305835837,0.6599896654120749,96.3940355257515,1553.0,1178.0,1000.0,1528.0,1471.0,1011.0,183.0,293.5,1649157197.832634,1649157199.1640997,2a29870e-fcc7-4c7e-bf6f-e00702fdb151
-0.3944038876857051,-0.0795057241571506,-0.6490679066774061,1.6407513055398026,-0.5708594356228789,-1.3078311471854769,-1.5292817215697945,-1.5565258526521928,-31.70230818669851,36.0518434167835,9.132281347198973,-6.447833789808676,-0.3973004727139643,3.820333321196597,-1.0,11.885875,0.0,179.4466401578748,0.5764977546452024,96.59540989818726,1553.0,1088.0,1000.0,1528.0,1471.0,1011.0,183.0,293.5,1649157200.7702038,1649157201.82907,37aca296-dfae-4133-845f-cec8d9c25fd9
-0.4100300206757372,-0.0827370164159569,-0.6460902738403267,1.6293327574082632,-0.5687457821205856,-1.2934585141606842,-1.5222323688913606,-1.546242464794549,-31.712879348793194,36.06046387874982,9.269110981093448,-6.389557214811179,-0.408962900881584,3.8030497810786734,-1.0,11.887777777777778,0.0,179.4282999615885,0.5584450058621493,96.61286188529029,1553.0,1088.0,1000.0,1528.0,1471.0,1011.0,183.0,293.5,1649157201.946162,1649157203.052219,37aca296-dfae-4133-845f-cec8d9c25fd9
-0.4134957985750658,-0.0789008841075416,-0.6556685542359818,1.619844875858374,-0.5787486554721188,-1.2868852556296608,-1.529623587603574,-1.5550400478523294,-31.711172273666246,35.92655836348116,9.432047002195116,-6.3547216669974045,-0.3954725740335438,3.840920767072786,-1.0,11.894777777777778,0.0,179.43165282556103,0.5548336144863089,96.6463639631692,1553.0,1088.0,1000.0,1528.0,1471.0,1011.0,183.0,293.5,1649157203.1604445,1649157204.4849763,37aca296-dfae-4133-845f-cec8d9c25fd9
-0.3964567282619679,-0.1565888650171837,-0.9180218711762264,0.0140976557020713,-0.9498800847650272,0.3415823606251759,-1.2943898798840223,-1.3169618301471766,-31.40393124426997,28.57350131336446,19.886598564735863,0.8668482477098145,-0.600737391771646,4.36360728269334,-1.0,11.976,0.0,179.44273291021463,1.0284697622499968,96.6758362294378,1553.0,1435.0,1000.0,1528.0,1471.0,1011.0,183.0,293.5,1649157206.3738022,1649157207.4149067,4e8c05fb-4b1e-45d7-b244-5ae6840ffb5c
-0.3982235846998738,-0.1520690003369009,-0.9206242186923338,0.00790681108232,-0.9540986272127974,0.3437053270545487,-1.297129193920465,-1.3143868752739218,-31.40099803618897,28.58121157466836,19.98682072713744,0.8855228506522558,-0.5840967969020144,4.377433439189452,-1.0,11.974333333333334,0.0,179.4263692947831,1.0630170962312673,96.69751752659312,1553.0,1435.0,1000.0,1528.0,1471.0,1011.0,183.0,293.5,1649157207.5262213,1649157208.586398,4e8c05fb-4b1e-45d7-b244-5ae6840ffb5c
-0.4020997115926823,-0.1524662005703831,-0.9111324982501418,0.0097969362261355,-0.9466750880739906,0.3419521676799156,-1.2864184753283685,-1.3170303126874776,-31.07717210790952,28.628215613657414,20.005171391224223,0.8782697588995294,-0.5876713343012736,4.339335831068031,-1.0,11.970888888888888,0.0,179.43966236072777,1.0854315952212643,96.69018342124436,1553.0,1435.0,1000.0,1528.0,1471.0,1011.0,183.0,293.5,1649157208.7034943,1649157209.8092003,4e8c05fb-4b1e-45d7-b244-5ae6840ffb5c
-0.2758946687842944,-0.0956786213674365,-0.611344283738789,-0.0313288994310318,-0.6773902082774984,0.309892909080768,-0.976733573575702,-0.9968379426137988,-29.13672225402113,28.242572287955127,20.31469979140096,0.9123952226321956,-0.3670988505880143,3.13145298784578,-1.0,11.988666666666669,0.0,179.42642848975592,1.0810853893272163,96.61625573039788,1553.0,1435.0,1000.0,1435.0,1471.0,1011.0,183.0,293.5,1649157211.9493291,1649157213.085461,cb43f5cf-7402-4982-9df5-5513e21a164a
-0.2916468091883256,-0.1034232038742107,-0.6145262692493327,-0.0309475871479615,-0.6804012608063617,0.3147842237810308,-0.9784692025522694,-1.0009140412999489,-29.07029843288893,28.359213278905827,19.96073358111397,0.9231183101599648,-0.393725372003641,3.1409283027200723,-1.0,11.981111111111112,0.0,179.4336700080959,1.0750699255171068,96.61831541188758,1553.0,1435.0,1000.0,1435.0,1471.0,1011.0,183.0,293.5,1649157213.193698,1649157214.314931,cb43f5cf-7402-4982-9df5-5513e21a164a
-0.2994702845129969,-0.0991630260585754,-0.608398974779067,-0.027936535718004,-0.6739846946402666,0.3085911881999216,-0.9748270115125592,-1.0071991226442012,-29.2027540267878,28.338931425882805,20.10638275649462,0.9025367280388972,-0.3780831429130393,3.119313829935402,-1.0,11.98377777777778,0.0,179.44250827288192,1.0916830918706608,96.5963085423818,1553.0,1435.0,1000.0,1435.0,1471.0,1011.0,183.0,293.5,1649157214.4238212,1649157215.473118,cb43f5cf-7402-4982-9df5-5513e21a164a
-0.1896934500804646,-0.0479203630418636,-0.2682569189309427,-0.0484682254154415,-0.3691046955793657,0.2577457307873961,-0.6270109606222927,-0.6592663678510532,-26.521044782442388,28.32251356197565,19.96287292668965,0.8527496532387532,-0.1795097515008508,1.7528892970743064,-1.0,11.985333333333337,0.0,179.41363326871073,1.091972331409263,96.57037127846364,1553.0,1435.0,1000.0,1330.0,1471.0,1011.0,183.0,293.5,1649157216.45671,1649157217.5918782,4d9718db-2cd7-4ca9-b5a1-7cdb56fe60de
-0.1762982145588063,-0.0438524849938427,-0.255299972830766,-0.0474135903922669,-0.3576269773945893,0.2506920034773915,-0.6155195440734998,-0.6390639370294537,-26.44789866717868,28.33184646919135,19.75855048024539,0.8352312760122613,-0.1622678296791346,1.703493761971399,-1.0,11.984333333333334,0.0,179.41986391905365,1.0782945337152607,96.59249653791504,1553.0,1435.0,1000.0,1330.0,1471.0,1011.0,183.0,293.5,1649157217.6995747,1649157218.82551,4d9718db-2cd7-4ca9-b5a1-7cdb56fe60de
-0.1775035118028055,-0.040442041791872,-0.2517662602886898,-0.0544125320971376,-0.3565586456619607,0.2539106945731968,-0.6081781862714984,-0.6304487990365709,-26.070108428604964,28.20754284947115,19.81627255579108,0.8578033052027193,-0.1515784599223686,1.6875172099023874,-1.0,11.982666666666669,0.0,179.42324106814323,1.0838478095335655,96.59770949007157,1553.0,1435.0,1000.0,1330.0,1471.0,1011.0,183.0,293.5,1649157218.9392254,1649157220.048875,4d9718db-2cd7-4ca9-b5a1-7cdb56fe60de
-0.0989400461262001,-0.0021464630102055,0.0139332970152502,-0.0371822607656593,-0.1160470487773296,0.1843458767085536,-0.347683274133568,-0.3642698099107642,-24.104337935565454,28.49553551487024,19.52891736180813,0.6786975153000608,-0.0045857703454777,0.632500795263806,-1.0,11.97775,0.0,179.39499368246578,1.0815653909504117,96.54258606892002,1553.0,1435.0,1000.0,1210.0,1471.0,1011.0,183.0,293.5,1649157221.7823715,1649157222.9136617,28e7734e-3217-404b-843c-fa518d25f4de
-0.0912869566390178,-0.0010868971974206,0.0246319529738452,-0.0379163963350888,-0.1074204077953652,0.1829028073419504,-0.3390610151345266,-0.3604013531228554,-24.140644007498025,28.68351785379124,19.44762692793409,0.6788584212912699,0.0011374997777231,0.5937958694594645,-1.0,11.976666666666668,0.0,179.38906735499592,1.0684098507461095,96.53503415642771,1553.0,1435.0,1000.0,1210.0,1471.0,1011.0,183.0,293.5,1649157223.0221949,1649157224.1419036,28e7734e-3217-404b-843c-fa518d25f4de
-0.0942969125216279,0.0009215661804886,0.0212609559663407,-0.0357304255643211,-0.1097192383080649,0.1813326338804161,-0.3429579605752025,-0.3733917195340816,-24.20997835000857,28.60540302640541,19.763464540272093,0.6697287768030232,0.005877761421069,0.607761644465232,-1.0,11.976444444444446,0.0,179.38885486022176,1.0742830782383477,96.53938422801907,1553.0,1435.0,1000.0,1210.0,1471.0,1011.0,183.0,293.5,1649157224.250471,1649157225.3741806,28e7734e-3217-404b-843c-fa518d25f4de
-0.0204176726285267,0.0324236513316391,0.2844814115994402,-0.0132132827247327,0.1278749673111138,0.1144934297958557,-0.0883389092383642,-0.1173482223131587,-22.437064671127104,29.281247341800952,19.57352384152255,0.4871880401241282,0.1270908192220233,-0.4324682295521782,-1.0,11.958444444444446,0.0,179.3762448131941,1.0697277808067394,96.49352026665235,1553.0,1435.0,1000.0,1071.0,1471.0,1011.0,183.0,293.5,1649157227.3079505,1649157228.4501972,82cf609f-cb1e-4977-987b-d4b1ddec11c3
-0.017154604470055,0.035111463994433,0.2823463921791425,-0.0125394119453545,0.1261793334151174,0.1098223555826997,-0.0932461124887627,-0.1151255444371146,-22.631670542083008,29.3023095256376,19.34590156393997,0.4750704953981345,0.140348574339836,-0.4203962804218629,-1.0,11.963,0.0,179.37967356815747,1.0691729465163489,96.47142915814682,1553.0,1435.0,1000.0,1071.0,1471.0,1011.0,183.0,293.5,1649157228.5631807,1649157229.8835003,82cf609f-cb1e-4977-987b-d4b1ddec11c3
-0.0202533138851596,0.0311772644957154,0.2845772874946876,-0.0043105193328369,0.1293678921668725,0.1078505990490006,-0.0930779187763894,-0.1252785303356873,-22.734597140913053,29.448155122129645,19.60268383327144,0.4531443632730355,0.123176316137386,-0.4281931954852443,-1.0,11.963333333333336,0.0,179.38691356867764,1.0881521212291103,96.45985654096312,1553.0,1435.0,1000.0,1071.0,1471.0,1011.0,183.0,293.5,1649157229.991897,1649157231.109456,82cf609f-cb1e-4977-987b-d4b1ddec11c3
-0.49315445399468,-0.2024038575875454,-1.237165607538654,0.0873879407441903,-1.2408773780886175,0.3319947702591148,-1.6424335142133426,-1.669963634086626,-33.45833688288004,29.54870307960982,19.167046210556595,0.6694033918346216,-0.7808925918614532,5.682771331554203,-1.0,11.927,0.0,179.4565131963201,1.0872797780060528,96.64549652914462,1553.0,1435.0,1000.0,1613.0,1471.0,1011.0,183.0,293.5,1649157231.752484,1649157232.7527611,e5673f68-7d2f-4efc-9134-dff2edbdcb63
-0.5069699020998012,-0.199974087871505,-1.2289257507395304,0.0843533312601685,-1.232397009483729,0.3344020772462894,-1.633432672005327,-1.6539315177911484,-33.556513190288705,29.46631258619277,19.51814428311489,0.6815289285084313,-0.7733017926538718,5.64790139469539,-1.0,11.936333333333332,0.0,179.47601869876982,1.0743951123134834,96.50541845618652,1553.0,1435.0,1000.0,1613.0,1471.0,1011.0,183.0,293.5,1649157232.8856058,1649157233.975537,e5673f68-7d2f-4efc-9134-dff2edbdcb63
-0.4949651393182722,-0.1945042296912968,-1.220720957252935,0.0821706477749626,-1.226164522078573,0.3278540269770792,-1.6251884287148832,-1.6427419617756494,-33.34300559745437,29.386050987657267,19.12685236330102,0.6716597646197527,-0.7500421286475096,5.616763523559878,-1.0,11.928777777777778,0.0,179.49890590376862,1.0766961983016736,96.39953989931264,1553.0,1435.0,1000.0,1613.0,1471.0,1011.0,183.0,293.5,1649157234.0838788,1649157235.20399,e5673f68-7d2f-4efc-9134-dff2edbdcb63
-0.5929613047405883,-0.2336046213849234,-1.4806495684641952,0.2025212092031003,-1.4585432985363571,0.2677168248783179,-1.9292672704576248,-1.946552357732352,-35.33801489512752,30.71983138877953,18.709403827287883,0.2598703626848251,-0.9101455470863454,6.714319359663937,-1.0,11.90377777777778,0.0,179.49184197034702,1.033463128567903,96.20784684570668,1553.0,1435.0,1000.0,1694.0,1471.0,1011.0,183.0,293.5,1649157237.3518364,1649157238.4775178,cb141f85-882f-4247-99bb-1e18e45402e4
-0.5851953536358218,-0.2285779838036296,-1.469445771348365,0.2021377055485448,-1.4476956125101392,0.26086854594274,-1.917447121092419,-1.93995060655154,-35.20613133109142,30.53364403227111,18.47614660191428,0.244699275897284,-0.889404365641045,6.667887552665644,-1.0,11.883333333333333,0.0,179.5018884197062,1.0470891306606995,96.10892825159704,1553.0,1435.0,1000.0,1694.0,1471.0,1011.0,183.0,293.5,1649157238.5933175,1649157239.564581,cb141f85-882f-4247-99bb-1e18e45402e4
-0.6012751185199068,-0.2413431778950971,-1.479129248833349,0.2125196965354276,-1.4524757165856894,0.266853941730182,-1.9281167576153704,-1.94938754993064,-35.61192325469158,30.66984361274125,18.82995925397257,0.2350028767593355,-0.9394351580734108,6.701494945089164,-1.0,11.892,0.0,179.49784950117703,1.0437713662713657,95.97899983974558,1553.0,1435.0,1000.0,1694.0,1471.0,1011.0,183.0,293.5,1649157239.672554,1649157240.7335708,cb141f85-882f-4247-99bb-1e18e45402e4
-0.6414197451896656,-0.2405350808478535,-1.6536647072275017,0.2933567809957471,-1.614643161237879,0.1985902970207191,-2.14282440222592,-2.16617708274983,-36.87750236604996,31.6307301522198,18.317134619659907,-0.1037829800813891,-0.9439027899002204,7.464785704286164,-1.0,11.849555555555556,0.0,179.49099654470973,1.0262211596251158,95.79854092950453,1553.0,1435.0,1000.0,1774.0,1471.0,1011.0,183.0,293.5,1649157242.8776646,1649157244.0105517,c589cdfd-90a6-4c6a-bcdc-ac00ee8eb62a
-0.6325794353975822,-0.2466914107399529,-1.66075569873969,0.297559432780716,-1.6197448616719583,0.2010743048101676,-2.148770364056496,-2.17611970763501,-36.88468783348087,31.62148337347412,18.31284671091242,-0.1080999182280476,-0.9678710336713356,7.489150644470268,-1.0,11.861333333333334,0.0,179.51925227839618,1.0126040510078012,95.63913949247454,1553.0,1435.0,1000.0,1774.0,1471.0,1011.0,183.0,293.5,1649157244.1198514,1649157245.238536,c589cdfd-90a6-4c6a-bcdc-ac00ee8eb62a
-0.6464737771388134,-0.2580529813905338,-1.6558150694011182,0.2998215562766162,-1.6131502341504549,0.2099721367547211,-2.1409890595316123,-2.1653278944588075,-36.90774564702857,31.70777733931705,18.339363471321764,-0.0923974144835203,-1.0105194940073512,7.460985923401913,-1.0,11.853666666666664,0.0,179.52333824933964,1.0209857129045956,95.53430215999413,1553.0,1435.0,1000.0,1774.0,1471.0,1011.0,183.0,293.5,1649157245.346145,1649157246.4660313,c589cdfd-90a6-4c6a-bcdc-ac00ee8eb62a
-0.6354617401936884,-0.2439181312054167,-1.6469944744132567,0.29616457536482305,-1.6083427363056488,0.19745348274411678,-2.1339764080398194,-2.1699847337276528,-36.605313976848045,31.599569465201053,18.110649324864514,-0.11244158687850885,-0.9566110650242896,7.43404155481246,-1.0,11.671888888888889,0.0,179.49682193716185,1.023092921127283,95.3318409337067,1553.0,1435.0,1000.0,1856.0,1471.0,1011.0,183.0,293.5,1649157247.3804448,1649157248.5152228,ef7a2db4-ad35-4883-b0f3-772749c1b41d
-0.6398720335757176,-0.24508233881354227,-1.652336139026837,0.29558931990553267,-1.6117531834948295,0.20239794015473037,-2.1387017298491755,-2.1652183217212935,-36.799813772003,31.535996618844695,18.538863264688803,-0.10075015328399722,-0.963665063942595,7.453043953420351,-1.0,11.686444444444444,0.0,179.50178520795873,1.0263455615601553,95.03074115106557,1553.0,1435.0,1000.0,1856.0,1471.0,1011.0,183.0,293.5,1649157248.6248531,1649157249.7506955,ef7a2db4-ad35-4883-b0f3-772749c1b41d
-0.6372422934476415,-0.24793122333884296,-1.6436662066225523,0.2961919684597579,-1.6031380377387496,0.20313755430223498,-2.128730616086437,-2.155836161546755,-36.72111066713134,31.53693298846837,18.397497765411288,-0.09999257430947066,-0.9731787909675976,7.41481083966012,-1.0,11.693333333333335,0.0,179.4859179196069,1.0176740079365567,94.74593516414448,1553.0,1435.0,1000.0,1856.0,1471.0,1011.0,183.0,293.5,1649157249.8651493,1649157250.974036,ef7a2db4-ad35-4883-b0f3-772749c1b41d
