raw_voltage_G-,raw_voltage_G0,raw_voltage_G1,raw_voltage_G2,raw_voltage_G3,raw_voltage_G4,raw_voltage_G5,raw_voltage_G6,load_x,load_y,load_z,load_l,load_m,load_n,rpm,voltage,current,roll,pitch,yaw,aileron1_pwm,elevator_pwm,throttle_pwm,rudder_pwm,aileron2_pwm,pbaro,pdiff,Tt,sample_start_time,sample_end_time,uid
0.0381225154241307,0.172830906397887,0.1549881261658472,-0.0445696368260724,-0.0789666275797529,0.003423105683124,-0.2136092872441476,-0.2318596796896393,-12.75712002523746,29.1980755809292,18.20588877541219,0.305985815911751,0.5929624831250874,0.2257184105103221,-1.0,11.99088888888889,0.0,179.26526031046063,1.0887872458161505,95.41475639459102,1553.0,1435.0,1000.0,1528.0,1471.0,1011.0,183.0,293.5,1649155488.766565,1649155489.817252,00279655-1525-4f86-8f65-c86de1425b84
0.0465771271242925,0.1808121647145746,0.1581832592306281,-0.0505128477357968,-0.0774545274626783,0.0020030464636135,-0.2100854363104115,-0.2331482523375495,-12.677008201171082,29.08104641180242,18.36448441099237,0.3156500840603288,0.6218567195952931,0.2155277071967651,-1.0,11.990000000000002,0.0,179.27102802575976,1.096701774948772,95.34573885084784,1553.0,1435.0,1000.0,1528.0,1471.0,1011.0,183.0,293.5,1649155489.9472415,1649155491.0236323,00279655-1525-4f86-8f65-c86de1425b84
0.041633217296554,0.1680184837225453,0.149518268690576,-0.044977246422983,-0.0827666009682861,0.0071573354807366,-0.2170542460137778,-0.2359883711964656,-12.769483382597596,29.128579593350064,17.97977465580334,0.3145212692755148,0.5767067677681378,0.2423701015631998,-1.0,11.990111111111112,0.0,179.25796415060728,1.0967759346763226,95.28944519061852,1553.0,1435.0,1000.0,1528.0,1471.0,1011.0,183.0,293.5,1649155491.1385896,1649155492.244465,00279655-1525-4f86-8f65-c86de1425b84
0.2598002144355408,0.5840114268551876,0.1824831448020595,-0.2161278107310914,-0.1457137966821676,-0.235056456784632,-0.2827752729279242,-0.3060731231131501,-12.208203358606164,28.27570674739903,18.966937605986875,0.1527358052577021,2.1473590547214783,0.4277138245445162,-1.0,11.984666666666667,0.0,179.08240400382087,1.0958122258151488,95.22980018423642,1631.0,1435.0,1000.0,1528.0,1531.0,1011.0,183.0,293.5,1649155493.3561697,1649155494.5068157,ace38aa2-0d50-4f4b-8c1b-7f73fdf369c7
0.2668676382859959,0.5890928496057413,0.183469296987876,-0.2199217578353494,-0.146289052181089,-0.2355632294833104,-0.2834874940636597,-0.3139212523962847,-12.284105058184103,28.33429225119653,19.10671177966792,0.1605767824904962,2.166246504566948,0.4288687621720607,-1.0,11.96,0.0,179.08496456584973,1.1077241350174876,95.178765769668,1631.0,1435.0,1000.0,1528.0,1531.0,1011.0,183.0,293.5,1649155494.640323,1649155495.6138103,ace38aa2-0d50-4f4b-8c1b-7f73fdf369c7
0.2680592388122091,0.6008444957417763,0.1869071330679444,-0.2290710599932957,-0.1458918519442656,-0.2385490795959491,-0.2816795480751641,-0.3056211362318202,-12.288770777758614,28.2931045762778,19.14214460515289,0.1744072054913372,2.211385021982626,0.4224728268955949,-1.0,11.953666666666669,0.0,179.08386566430326,1.1122867132410237,95.17119108987843,1631.0,1435.0,1000.0,1528.0,1531.0,1011.0,183.0,293.5,1649155495.7219703,1649155496.67706,ace38aa2-0d50-4f4b-8c1b-7f73fdf369c7
0.5312796812688224,1.0829085314876568,0.2152727047322074,-0.4341907550078137,-0.231399475186313,-0.5159044434475822,-0.3699264891632682,-0.3863623633769519,-11.705932189127942,27.580564871643386,19.78394244858445,0.0109370438606438,4.036645588775605,0.6840532666891618,-1.0,11.94588888888889,0.0,178.58979710050122,1.0989886076602569,95.15133876560088,1712.0,1435.0,1000.0,1528.0,1591.0,1011.0,183.0,293.5,1649155498.8903415,1649155500.0195863,30377bdb-e6e8-4fa8-a005-d06e2a55e75f
0.549882893265197,1.1017336285655577,0.2280685770260405,-0.4471301707217521,-0.2237074870447352,-0.5214729178055312,-0.3588103602193709,-0.3809790667331459,-11.601228574218933,27.47843068104392,20.013251121670645,0.0276614375233453,4.106880301921139,0.6429102631033546,-1.0,11.931,0.0,178.59484385138796,1.1011544891051892,95.230791320576,1712.0,1435.0,1000.0,1528.0,1591.0,1011.0,183.0,293.5,1649155500.1283092,1649155501.2514417,30377bdb-e6e8-4fa8-a005-d06e2a55e75f
0.5536872490167267,1.0959339580622274,0.2258738405840271,-0.4376148954039555,-0.2240855120982773,-0.5257111820531083,-0.3620646631177782,-0.3880744334982091,-11.60793962074816,27.53630964650388,19.826979666311907,-0.0030853054888385,4.0855167426561865,0.6501407510071137,-1.0,11.932555555555556,0.0,178.57429408890508,1.0963560796278111,95.35255993309896,1712.0,1435.0,1000.0,1528.0,1591.0,1011.0,183.0,293.5,1649155501.3599646,1649155502.4833975,30377bdb-e6e8-4fa8-a005-d06e2a55e75f
0.8182214605658577,1.5765856586000355,0.2669887158714793,-0.6455703517412834,-0.3001014219915881,-0.8062343372567308,-0.4372817950556069,-0.4595425431240701,-10.74998003497796,26.96839221672749,19.54711103134608,-0.1656920158065397,5.912861495166329,0.8615001147453885,-1.0,11.904999999999998,0.0,178.32444273342642,1.0909459294749264,95.53019038611376,1796.0,1435.0,1000.0,1528.0,1650.0,1011.0,183.0,293.5,1649155504.4153092,1649155505.5572033,2f301085-ccd7-485b-9675-4bff69d7f793
0.8353706461035069,1.5864625221865225,0.2674976799603897,-0.6422278423695239,-0.3003616566446824,-0.8186395901634986,-0.4409842495699765,-0.4658435094193465,-10.802637053622623,26.920217002515443,19.58544709045139,-0.2014225692020813,5.94955857474971,0.8676937222693265,-1.0,11.878,0.0,178.31716934087024,1.0864066877310548,95.59358592526011,1796.0,1435.0,1000.0,1528.0,1650.0,1011.0,183.0,293.5,1649155505.665767,1649155506.7854874,2f301085-ccd7-485b-9675-4bff69d7f793
0.8169898661347851,1.5824083403227218,0.2602658974351019,-0.6404335926162277,-0.3064155364238325,-0.8154208973614331,-0.4479147097722433,-0.4654052197372308,-10.866348262112188,26.958965424465305,19.658482316839702,-0.1983607794388124,5.933477840890784,0.8952322672718758,-1.0,11.885777777777776,0.0,178.28954198458746,1.0881048435134493,95.62429976813786,1796.0,1435.0,1000.0,1528.0,1650.0,1011.0,183.0,293.5,1649155506.8940308,1649155508.0086472,2f301085-ccd7-485b-9675-4bff69d7f793
0.92456810675479,1.7710680587384786,0.266199794142433,-0.7375981123808734,-0.3506055723460587,-0.9407455705246284,-0.4894952801811905,-0.5174888620425212,-10.267438724110558,26.81159665932272,15.26567492174314,-0.2618829225145374,6.688097605951367,1.0227935568894695,-1.0,11.847111111111111,0.0,178.2473648075527,1.0881651175612808,95.69835723257856,1886.0,1435.0,1000.0,1528.0,1710.0,1011.0,183.0,293.5,1649155510.354007,1649155511.49631,09540daa-b373-47d6-ad5c-b76ca0707878
0.9155218044678918,1.7615878466194477,0.2594808107361104,-0.7349289257877288,-0.3552207655001564,-0.9323698460969192,-0.4948336521949222,-0.5166210478321086,-10.389579542546848,26.90804335549309,15.43822650012356,-0.2488117629523801,6.651123262937659,1.044833701376675,-1.0,11.735555555555557,0.0,178.2302301396549,1.0850401992942946,95.45834514405422,1886.0,1435.0,1000.0,1528.0,1710.0,1011.0,183.0,293.5,1649155511.6045809,1649155512.7601364,09540daa-b373-47d6-ad5c-b76ca0707878
0.9299196256955556,1.7595497982397448,0.2574164655309165,-0.7290646048929008,-0.3546290740917647,-0.9365248365469528,-0.4969900389641793,-0.517068103613122,-10.463446022424172,26.78212266350365,15.317082387781136,-0.2723710801157035,6.644220820955501,1.0495459366742748,-1.0,11.744555555555555,0.0,178.22259702380245,1.0746459201800371,95.33601266146974,1886.0,1435.0,1000.0,1528.0,1710.0,1011.0,183.0,293.5,1649155512.8723247,1649155513.9505866,09540daa-b373-47d6-ad5c-b76ca0707878
-0.2576694777711587,-0.3757886173345364,0.1166848792159266,0.1900847345314501,0.0067563002457636,0.320160944483032,-0.1221831073804593,-0.1502199655334549,-13.116373495125169,30.491144612508,17.724042447920805,0.4948222768073411,-1.4891782568137308,-0.034786257356058,-1.0,11.801555555555556,0.0,179.4557831249888,1.1006307582630503,95.18323043665548,1475.0,1435.0,1000.0,1528.0,1408.0,1011.0,183.0,293.5,1649155515.885996,1649155517.0265892,4655bf6f-6a0e-4e5f-a54c-cacbfc295a7b
-0.2665311523147047,-0.3721316354930191,0.1204925224314551,0.1860990361507024,0.0083724941855417,0.320558144658504,-0.1188411468696071,-0.1471108459710743,-13.05172306718324,30.55587118949421,17.79450154750079,0.505368048159177,-1.4758112017626763,-0.0464104772886296,-1.0,11.981555555555556,0.0,179.4435586041943,1.0947709421318397,95.15333090410876,1475.0,1435.0,1000.0,1528.0,1408.0,1011.0,183.0,293.5,1649155517.1369443,1649155518.255458,4655bf6f-6a0e-4e5f-a54c-cacbfc295a7b
-0.2730918047794844,-0.389334516342577,0.1041662248848241,0.1979602554191877,-0.0020779802015968,0.326790078396644,-0.1345100109450395,-0.1474943497614505,-13.337744714573354,30.64155347849409,17.714281420886447,0.4922143247776209,-1.540091001406991,0.0100612302456248,-1.0,11.978333333333332,0.0,179.44807715378522,1.0974555147828042,95.138121590647,1475.0,1435.0,1000.0,1528.0,1408.0,1011.0,183.0,293.5,1649155518.3641422,1649155519.4856217,4655bf6f-6a0e-4e5f-a54c-cacbfc295a7b
-0.5038925585101395,-0.8024913399190402,0.0842788220669662,0.3866714281734515,0.0687880144122298,0.5569470296633788,-0.0629454883678121,-0.0872568816949574,-13.606525234597823,32.05316450124036,17.77088536977816,0.59196275995672,-3.112750803814472,-0.2102695910526465,-1.0,11.966444444444445,0.0,179.58713676964703,1.1079114790430031,95.08330021563872,1396.0,1435.0,1000.0,1528.0,1340.0,1011.0,183.0,293.5,1649155520.3908217,1649155521.5293791,d3b1d27f-6dba-4429-b5aa-674e7b2fae72
-0.4975236571567931,-0.7885208437172708,0.0822380348541509,0.3778234519928231,0.0642818466594674,0.5523449864116646,-0.0673009941852228,-0.0893935444188008,-13.669393058163864,31.95606218930605,17.881187331685464,0.6008208369657477,-3.059927236141487,-0.1933845874104414,-1.0,11.92122222222222,0.0,179.57437797627745,1.105616499907977,94.9372851904721,1396.0,1435.0,1000.0,1528.0,1340.0,1011.0,183.0,293.5,1649155521.6376016,1649155522.7594032,d3b1d27f-6dba-4429-b5aa-674e7b2fae72
-0.4855112243066714,-0.7855251310367969,0.0907173002645586,0.3787394777698277,0.0710862969395982,0.5481735629203651,-0.0586124449146717,-0.0820697202236895,-13.451087074735929,31.938676757677666,17.890507261147462,0.5897990976813846,-3.0498947476086262,-0.2260378494625581,-1.0,11.923555555555554,0.0,179.57318800554205,1.100372361297419,94.8300793001695,1396.0,1435.0,1000.0,1528.0,1340.0,1011.0,183.0,293.5,1649155522.868193,1649155523.986992,d3b1d27f-6dba-4429-b5aa-674e7b2fae72
-0.795697843962062,-1.337958673240048,0.0624328112578087,0.6272788512545998,0.1615137143369399,0.8611338705317634,0.0355190735840737,0.0125499444581811,-13.691741870008036,34.007486000513005,18.196558016705943,0.7446524164042069,-5.155224149029184,-0.5099226294278664,-1.0,11.904333333333334,0.0,179.7752902674431,1.1110324248909411,94.58606547970145,1314.0,1435.0,1000.0,1528.0,1268.0,1011.0,183.0,293.5,1649155525.9275796,1649155527.057821,0dc752b6-e623-4ccc-887d-81a406c22e6c
-0.8050525978465535,-1.3449850145444433,0.0506126811946725,0.6335655710376749,0.153008151704318,0.8622158985523088,0.0227127911966197,-0.0009137732117925,-13.931823895547572,34.0469329233649,18.10069031255865,0.7324393800768618,-5.18055098028869,-0.4651065530945462,-1.0,11.892777777777775,0.0,179.7782059993088,1.1065285436055854,94.4050351102998,1314.0,1435.0,1000.0,1528.0,1268.0,1011.0,183.0,293.5,1649155527.1671667,1649155528.4949226,0dc752b6-e623-4ccc-887d-81a406c22e6c
-0.797396217908623,-1.3479708671901385,0.0573513880365157,0.6387428696797977,0.1606234380638191,0.8606134013385608,0.0306704918245647,0.0064412787602859,-13.816859294834302,33.99618330354064,18.191241598264952,0.7172310594778123,-5.19357708691325,-0.4960814704811294,-1.0,11.89522222222222,0.0,179.7822950058919,1.1142636024029844,94.27591721422988,1314.0,1435.0,1000.0,1528.0,1268.0,1011.0,183.0,293.5,1649155528.604109,1649155529.740103,0dc752b6-e623-4ccc-887d-81a406c22e6c
-0.9116940577501386,-1.5683487352518692,0.0619671282655511,0.7202373853588342,0.2081367980220031,0.9694599437283168,0.0797315646603691,0.051050970861729,-14.017260145850807,35.03855969693972,13.834051870673408,0.7843365467274577,-5.989815458029728,-0.6696052414853066,-1.0,11.863,0.0,179.8358785988406,1.1296961183834455,93.9840708200943,1227.0,1435.0,1000.0,1528.0,1189.0,1011.0,183.0,293.5,1649155531.3689437,1649155532.3826706,bf177ea7-bd10-4fbe-bb3d-25a1b96ecbe0
-0.9144744605577512,-1.559035064070945,0.0636244118495591,0.7120468441151825,0.2071369492845537,0.9671452254865432,0.0793754541334735,0.057830767396345,-14.074745395327454,35.05409266635504,13.73530552101075,0.7977517343631156,-5.952487718258582,-0.6691261549124722,-1.0,11.753666666666668,0.0,179.8313949591054,1.1051609998097345,93.66046025176864,1227.0,1435.0,1000.0,1528.0,1189.0,1011.0,183.0,293.5,1649155532.490804,1649155533.620744,bf177ea7-bd10-4fbe-bb3d-25a1b96ecbe0
-0.9114371100600112,-1.555171534234993,0.0619479530745123,0.7172263342112665,0.2067150952930517,0.9592412160450928,0.0760696527646006,0.0569251510874014,-14.111624359880445,34.92982371065736,13.81032394404533,0.7673928331760673,-5.939147090672158,-0.6609156993316998,-1.0,11.756888888888888,0.0,179.84905479265944,1.1054752715173264,93.39275478179952,1227.0,1435.0,1000.0,1528.0,1189.0,1011.0,183.0,293.5,1649155533.7527192,1649155534.862332,bf177ea7-bd10-4fbe-bb3d-25a1b96ecbe0
0.0342726866906381,0.1761964246501112,0.1416537049522253,-0.0468931210911952,-0.0906810207949921,0.0012365870455658,-0.2296600120695805,-0.2533139724777384,-13.097848349240955,29.150726095255,17.949093619898758,0.3051233286231353,0.6097127195169203,0.2825087558592707,-1.0,11.887555555555556,0.0,179.26559271300025,1.084154397278341,93.1956097194161,1553.0,1435.0,1000.0,1528.0,1471.0,1011.0,183.0,293.5,1649155535.9562595,1649155537.011507,bf4bacf1-4131-41ce-aadf-2687bd9d8945
0.0260273583563621,0.1681839381545996,0.1387089449301446,-0.0446331888486664,-0.0916397799515826,0.0077150593674305,-0.2304133228770171,-0.2584364855402596,-13.132804354225334,29.159899006140176,18.03562279541564,0.3144938437312023,0.578676755171421,0.2880453416996899,-1.0,11.989777777777778,0.0,179.26051712353703,1.0866484479685516,93.5352621253724,1553.0,1435.0,1000.0,1528.0,1471.0,1011.0,183.0,293.5,1649155537.1473188,1649155538.3278043,bf4bacf1-4131-41ce-aadf-2687bd9d8945
0.0274244073433389,0.1695398973980927,0.1401744766627168,-0.0443318645494554,-0.0900235859472277,0.0056331824130152,-0.2292902049411869,-0.2526428408844858,-13.147436928808244,29.121862238801224,17.9785207796955,0.3089402297565992,0.5844272485889563,0.2823388193049986,-1.0,11.991,0.0,179.2679787257503,1.102848245581712,93.83089244430816,1553.0,1435.0,1000.0,1528.0,1471.0,1011.0,183.0,293.5,1649155538.4439728,1649155539.547207,bf4bacf1-4131-41ce-aadf-2687bd9d8945
0.0584197195499417,0.1726216229809927,0.1217526058021675,-0.4494213315626926,-0.1517402828925197,0.3948208798982861,-0.1358522737618359,-0.1667380165426664,-12.699898110235369,28.20454129589608,21.001385136260367,2.0909883654577293,0.6147182312964391,0.2602484952406972,-1.0,11.987555555555556,0.0,179.25731300590638,1.2316070942594826,94.25440135943442,1553.0,1522.0,1000.0,1528.0,1471.0,1011.0,183.0,293.5,1649155541.2859142,1649155542.418933,c8b6def7-86e8-4c2b-beeb-82f754822fe3
0.0545189396631387,0.1655596776117693,0.1193683089136773,-0.4503253046539238,-0.1526387772243571,0.4018285865760695,-0.1356243630362429,-0.1580297433254741,-12.719336587645875,28.19305218469643,20.887602000464707,2.108551952568723,0.5893376322409097,0.2633660580354437,-1.0,11.98,0.0,179.257604427311,1.2275222735388285,94.37891191345422,1553.0,1522.0,1000.0,1528.0,1471.0,1011.0,183.0,293.5,1649155542.5276115,1649155543.649419,c8b6def7-86e8-4c2b-beeb-82f754822fe3
0.0569815808673443,0.1735940786037977,0.1268888151493443,-0.4476681716612432,-0.1466314661648592,0.3916295819920029,-0.130414739641089,-0.1443989274822834,-12.613008650233118,28.14377155490367,20.95367350729437,2.0797514251533715,0.6182821420170024,0.2386984444268662,-1.0,11.977888888888888,0.0,179.25839369361506,1.2318828750051891,94.5050905514513,1553.0,1522.0,1000.0,1528.0,1471.0,1011.0,183.0,293.5,1649155543.7639458,1649155544.9120605,c8b6def7-86e8-4c2b-beeb-82f754822fe3
0.0701850633172787,0.1553776562833065,0.0906340251871111,-0.9560024499312484,-0.2356454088375193,0.9001279695172087,-0.0277590281424331,-0.0504679235776838,-12.57534632126688,27.62996365261206,24.41953508484177,4.364452882388833,0.5792548302124884,0.2616622570337217,-1.0,11.975444444444443,0.0,179.25535198270467,1.401953031944789,94.60549736789012,1553.0,1613.0,1000.0,1528.0,1471.0,1011.0,183.0,293.5,1649155545.789283,1649155546.9310904,796a951c-339d-4631-abe5-e05579a99d36
0.0714040570323295,0.166389689039717,0.0972631594622394,-0.9606729791949696,-0.2322623584830878,0.8938960358727907,-0.0215407903823692,-0.0364563434415955,-12.329201178373914,27.53198258326847,24.50536429840518,4.3608026082723885,0.6190474235324784,0.2407896432539269,-1.0,11.967111111111112,0.0,179.2639580210589,1.3939056698623715,94.61681954480429,1553.0,1613.0,1000.0,1528.0,1471.0,1011.0,183.0,293.5,1649155547.046562,1649155548.166951,796a951c-339d-4631-abe5-e05579a99d36
0.0692323307205264,0.1531341600501941,0.0943989351660174,-0.958719848822058,-0.2328063858449437,0.9050291456428968,-0.0215462690053929,-0.0445433397728528,-12.4137261925809,27.638619975685742,24.48546722973299,4.38193298230464,0.5696854848164383,0.2437249470338995,-1.0,11.963666666666668,0.0,179.26583859981034,1.405579720098458,94.62749588938692,1553.0,1613.0,1000.0,1528.0,1471.0,1011.0,183.0,293.5,1649155548.2760944,1649155549.5938575,796a951c-339d-4631-abe5-e05579a99d36
0.0850107661191606,0.140458817223196,0.0660240488952955,-1.4351763965448712,-0.3136314324537544,1.376607121554264,0.0789755146120432,0.0660766432800894,-12.157683487226732,27.25187567915852,27.66716287721384,6.513060310940597,0.5489903707609082,0.2484820261649732,-1.0,11.951777777777778,0.0,179.25374612933982,1.580518722841252,94.60525603453944,1553.0,1710.0,1000.0,1528.0,1471.0,1011.0,183.0,293.5,1649155550.2653227,1649155551.6346557,3346736e-a603-4637-b59f-a1aedbc0c14f
0.0817630381784509,0.1456262547074683,0.064380461878798,-1.4337694845226352,-0.3149068561703771,1.369914434908602,0.0748731214269628,0.0499957880810209,-12.275371472833816,27.193410991553293,27.598938731470625,6.494307776002854,0.5695306314571001,0.2587835884030322,-1.0,11.935666666666666,0.0,179.2385906984815,1.5892069724828215,94.49483919641702,1553.0,1710.0,1000.0,1528.0,1471.0,1011.0,183.0,293.5,1649155551.7433443,1649155552.8703792,3346736e-a603-4637-b59f-a1aedbc0c14f
0.0871014087806105,0.1439695190312004,0.0692849255533817,-1.4303245224363417,-0.3097394177639183,1.3661933537407336,0.0798170311728094,0.0629998485360159,-12.19568943893642,27.18126863149981,27.32795445939514,6.478335649147702,0.5650411846525629,0.2375292007148577,-1.0,11.939,0.0,179.24121500894256,1.591521327536431,94.41361989917658,1553.0,1710.0,1000.0,1528.0,1471.0,1011.0,183.0,293.5,1649155553.002125,1649155554.0953314,3346736e-a603-4637-b59f-a1aedbc0c14f
0.0878536237905091,0.1397772764755727,0.0687743178016275,-1.641707597469808,-0.344560458285119,1.573532969986008,0.1251356555865134,0.1063028877861721,-12.080340785188511,28.17826660881828,28.706998710330595,7.427945565812091,0.562289201983485,0.2203844779163497,-1.0,11.918444444444445,0.0,179.24941123594655,1.6618493071048848,94.22553849782176,1553.0,1814.0,1000.0,1528.0,1471.0,1011.0,183.0,293.5,1649155555.7639096,1649155556.9677174,fd6f29a6-59e4-420b-a282-a81b66065b7e
0.0987423876971948,0.1463927140626194,0.0688975868451359,-1.6707032506557369,-0.3474230395009495,1.5964747089447713,0.1323263486217349,0.1100283512983009,-12.07760928437036,27.979473179634105,29.124428596433688,7.543662034116502,0.5869565403697008,0.2150958518036976,-1.0,11.874000000000002,0.0,179.2439486024304,1.6735692713903918,94.01846461711486,1553.0,1814.0,1000.0,1528.0,1471.0,1011.0,183.0,293.5,1649155557.0997963,1649155558.3905137,fd6f29a6-59e4-420b-a282-a81b66065b7e
0.0968522626447377,0.1345177981196084,0.0732120027959727,-1.6428444133494284,-0.340383007139151,1.5820385338794465,0.1327235489070798,0.1170957757727925,-11.95112165744383,28.21892716303556,29.07962043139614,7.450238036151942,0.5387678237884775,0.1977949051383068,-1.0,11.879888888888887,0.0,179.25186706840816,1.670331465274623,93.833403677193,1553.0,1814.0,1000.0,1528.0,1471.0,1011.0,183.0,293.5,1649155558.5008242,1649155559.6266592,fd6f29a6-59e4-420b-a282-a81b66065b7e
0.0207267901552882,0.1823735723460241,0.1857566221936449,0.4902721886064444,0.001839235627592,-0.5210132612208678,-0.3377943571044643,-0.3598321239267388,-13.192024365781942,30.81178018625344,14.621056921221887,-2.0675256998118305,0.5997311521229717,0.2503518196362327,-1.0,11.881,0.0,179.24868420025493,0.974406526381655,93.65022635166224,1553.0,1349.0,1000.0,1528.0,1471.0,1011.0,183.0,293.5,1649155561.2650745,1649155562.2149732,c7fcd89e-576d-4d80-a0a9-250b3f9e8472
0.0022791690739173,0.1773803551346611,0.1842834203991912,0.4899379926178723,0.0022528716937524,-0.5150037575205281,-0.3378513348371685,-0.3564041486262077,-13.339111752814256,30.7944414808058,14.731138881177737,-2.053512466653991,0.5810164059510268,0.2513300979424869,-1.0,11.989666666666666,0.0,179.25464923213005,0.9565890055783574,93.99559942050335,1553.0,1349.0,1000.0,1528.0,1471.0,1011.0,183.0,293.5,1649155562.323815,1649155563.3948624,c7fcd89e-576d-4d80-a0a9-250b3f9e8472
0.0071398038324132,0.1703069046635642,0.1774428114332117,0.4914911822137384,-0.0035298154363244,-0.5085493895449091,-0.3427388155903335,-0.3651737833148975,-13.298640381244502,30.845168545693365,14.820702511873897,-2.042481946802756,0.5527823907266735,0.2747810962324612,-1.0,11.990666666666668,0.0,179.25722193671743,0.9668667090159996,94.2691689873299,1553.0,1349.0,1000.0,1528.0,1471.0,1011.0,183.0,293.5,1649155563.5027444,1649155564.7416155,c7fcd89e-576d-4d80-a0a9-250b3f9e8472
-0.0058034443063956,0.1911804591691059,0.2196282101603884,0.9666795425389298,0.0778140464715196,-0.986915601436693,-0.4458191358364816,-0.4692402574374424,-13.748438082813516,32.60236193391595,11.677761248750258,-4.176321437738458,0.6063085499285507,0.2544725034683761,-1.0,11.984444444444444,0.0,179.24730298422276,0.7962992763593272,94.88010512347049,1553.0,1264.0,1000.0,1528.0,1471.0,1011.0,183.0,293.5,1649155566.8818836,1649155568.0206835,7fa293f6-8435-476f-8b14-3ae0feddc624
-0.0032558843178894,0.195960557946798,0.2184366096187566,0.9539417439884538,0.0745405689897455,-0.978040226036326,-0.444874073068493,-0.4758693928613614,-13.736000800389164,32.55949592015249,11.937190924015434,-4.127939813936962,0.6233415074675892,0.2600687124487965,-1.0,11.963666666666668,0.0,179.25140261554463,0.8005132362729604,95.07100815186244,1553.0,1264.0,1000.0,1528.0,1471.0,1011.0,183.0,293.5,1649155568.1289842,1649155569.217137,7fa293f6-8435-476f-8b14-3ae0feddc624
-0.0026532357280166,0.1953579093894324,0.2223264320773313,0.9407108693837066,0.0767868045840605,-0.9667405583145252,-0.4375601091478715,-0.4583377941945021,-13.719465311917846,32.5523784878592,11.770834106571796,-4.072574030108658,0.6243140682754668,0.2408843990459781,-1.0,11.958444444444446,0.0,179.25924215489192,0.7988973807126746,95.2342747170527,1553.0,1264.0,1000.0,1528.0,1471.0,1011.0,183.0,293.5,1649155569.3254993,1649155570.2929935,7fa293f6-8435-476f-8b14-3ae0feddc624
-0.0149253525031357,0.2082052808042701,0.2595673729656896,1.3835890795340386,0.1481458735296124,-1.4058251886710702,-0.5382298401433346,-0.5657736279058615,-14.231838172983291,34.657995538831244,8.850811355430688,-6.043191202284053,0.6498748592846291,0.2363563097594836,-1.0,11.956,0.0,179.24300907196456,0.637476419199312,95.51795675840036,1553.0,1178.0,1000.0,1528.0,1471.0,1011.0,183.0,293.5,1649155572.3084118,1649155573.4428003,c377631e-f1ec-4e19-b9b8-da1746d3b453
-0.0175227679238917,0.201350427460824,0.2526829351404185,1.384627826576084,0.1433778276972684,-1.3981759266557123,-0.5428001090843998,-0.566822784482467,-14.2906035862998,34.63878263877927,9.075686602838948,-6.028809346296524,0.6220232005554688,0.2582055221397519,-1.0,11.931888888888889,0.0,179.25179876651646,0.636048915591763,95.62364406997752,1553.0,1178.0,1000.0,1528.0,1471.0,1011.0,183.0,293.5,1649155573.5514748,1649155574.6906471,c377631e-f1ec-4e19-b9b8-da1746d3b453
-0.0224009343503908,0.1960515030947541,0.2528801655848294,1.3858506554014285,0.1451134555636058,-1.3949281954245898,-0.5421295253553773,-0.5723715357975614,-14.423000782928924,34.671823772434166,8.96308293566841,-6.024125403437281,0.6039465980480974,0.2537225037888539,-1.0,11.940111111111111,0.0,179.25490270803928,0.6262212813033359,95.7437142421269,1553.0,1178.0,1000.0,1528.0,1471.0,1011.0,183.0,293.5,1649155574.822838,1649155576.2454884,c377631e-f1ec-4e19-b9b8-da1746d3b453
-0.0406200971438244,0.2094242744645932,0.2603617732801309,1.5837916933691922,0.1609932450538381,-1.5958514598217433,-0.6069044060362047,-0.6282299551244038,-14.834335279535075,36.356143319214105,7.936330652162632,-6.910965925748161,0.6422461057891402,0.3150476264635133,-1.0,11.911555555555555,0.0,179.25178358831832,0.544921367672148,95.99102400832444,1553.0,1088.0,1000.0,1528.0,1471.0,1011.0,183.0,293.5,1649155578.352702,1649155579.402172,5410639e-503d-4979-922e-e4363779a777
-0.0196095756512025,0.2257642681042325,0.2671552659481889,1.5773269171504534,0.1631436046549573,-1.6058225674384483,-0.6020284296100573,-0.626545278932277,-14.567277016231287,36.26372185791748,7.993166496772968,-6.918920296819809,0.7023621653038221,0.2981414399938034,-1.0,11.889333333333331,0.0,179.26484442783118,0.5240131625534851,95.98856665804306,1553.0,1088.0,1000.0,1528.0,1471.0,1011.0,183.0,293.5,1649155579.509907,1649155580.733866,5410639e-503d-4979-922e-e4363779a777
-0.0349184935275688,0.2052292926737466,0.2632150402054289,1.5559422035391328,0.1609444852831076,-1.5662690482442625,-0.5925284934292712,-0.6183525414086868,-14.527386408675762,36.20135709052674,7.978287211680864,-6.782391495737995,0.6275751300893453,0.2903420654383212,-1.0,11.877250000000002,0.0,179.2422911431918,0.5598058128503226,95.97483683944644,1553.0,1088.0,1000.0,1528.0,1471.0,1011.0,183.0,293.5,1649155580.846236,1649155581.85617,5410639e-503d-4979-922e-e4363779a777
0.0387651579532974,0.1831679727219489,0.1520356960828806,-0.0423869531848907,-0.0838601342687535,-0.0082551282516028,-0.2209763929625816,-0.2440003108075486,-12.730291359720724,29.218865030446818,18.23116855227025,0.2748280044984432,0.6308632751775902,0.248213028052299,-1.0,11.898444444444443,0.0,179.24746539094303,1.0417420293199968,95.92607118604734,1553.0,1435.0,1000.0,1528.0,1471.0,1011.0,183.0,293.5,1649155583.784404,1649155584.9210942,b54c0ba4-bf2e-4464-a138-60e7a99cbd70
0.0324159811902372,0.1788398603574166,0.1513985321966768,-0.0398229573235379,-0.0826351140127878,-0.007490312398898,-0.2221033459276736,-0.2367772930835464,-12.91163505482974,29.243998928454243,18.066642979821896,0.2707802803725315,0.6170162651237514,0.2481471686655444,-1.0,11.990666666666666,0.0,179.25076968468153,1.0431101897301478,95.92503679184304,1553.0,1435.0,1000.0,1528.0,1471.0,1011.0,183.0,293.5,1649155585.0327215,1649155586.1785383,b54c0ba4-bf2e-4464-a138-60e7a99cbd70
0.0304513468266953,0.1754157208388538,0.1503921090953994,-0.034182714309906,-0.0830383407138416,-0.0085701491077527,-0.224825126341743,-0.2403433293430421,-12.994295116861789,29.37904827062828,18.158928518095315,0.2564489838673162,0.6031848371230218,0.2535955394848195,-1.0,11.987777777777778,0.0,179.2540876387983,1.0426513575430916,95.92734691360232,1553.0,1435.0,1000.0,1528.0,1471.0,1011.0,183.0,293.5,1649155586.2870398,1649155587.2708924,b54c0ba4-bf2e-4464-a138-60e7a99cbd70
0.1062481017109291,0.2119033514645036,0.3893833465539293,-0.0630413643103006,0.1316415208519296,-0.0306216089837405,0.0258629996878001,0.0036197880375402,-11.078543497652042,29.091494749180537,18.2072880570278,0.2829604435433436,0.7447468187314316,-0.7158161064483918,-1.0,11.989555555555556,0.0,179.23873337354414,1.040110847336964,95.87578202100836,1553.0,1435.0,1000.0,1435.0,1471.0,1011.0,183.0,293.5,1649155589.307072,1649155590.680684,3b0df18c-6a6d-4508-8f30-edc5e8af5fd0
0.1147947541327046,0.2118485652347386,0.3872466835827057,-0.0598500660323735,0.1302170788031665,-0.0316351543616721,0.0234387087955838,-0.0030641330334613,-11.0864578431322,29.07056747783407,18.455913504344974,0.2732746121986695,0.7418650667088175,-0.7071367133938896,-1.0,11.986666666666666,0.0,179.224983443835,1.0539979500119383,95.88027780330204,1553.0,1435.0,1000.0,1435.0,1471.0,1011.0,183.0,293.5,1649155590.8132083,1649155591.885882,3b0df18c-6a6d-4508-8f30-edc5e8af5fd0
0.1022624032051152,0.1968371376602507,0.3713860699572208,-0.0504542264657432,0.1189722044589158,-0.0267591793438075,0.0075370040969046,-0.0151581941051281,-11.341522513994088,29.194918279600746,18.16584296340113,0.2628968188853429,0.6877790609766863,-0.6499329148410459,-1.0,11.984333333333334,0.0,179.2189546635276,1.0491566146929014,95.87156096410128,1553.0,1435.0,1000.0,1435.0,1471.0,1011.0,183.0,293.5,1649155591.9941552,1649155593.1138942,3b0df18c-6a6d-4508-8f30-edc5e8af5fd0
0.2136839039845993,0.2641485976438579,0.7131765361587239,-0.089077975527535,0.4215516293403504,-0.0755479664448625,0.3564655879921358,0.3340602111413953,-8.722075106868214,29.066211400945,18.19679873098112,0.2578767824195454,0.9478447163794064,-2.015020651350474,-1.0,11.98,0.0,179.20224953863757,1.053995317543196,95.7852349620914,1553.0,1435.0,1000.0,1330.0,1471.0,1011.0,183.0,293.5,1649155595.450918,1649155596.6013086,530fd149-a4f6-44f2-83f1-589b0977f56a
0.2107254474135533,0.2540241020831248,0.709100440717013,-0.0900509791021481,0.4198554476690279,-0.0644241689107036,0.3549403393385551,0.3398982317467404,-8.891174095664958,29.1136385533384,18.21927598462554,0.2850981992930859,0.910731527309871,-2.006322208912504,-1.0,11.974,0.0,179.18348776789742,1.0560113024233746,95.7898172601146,1553.0,1435.0,1000.0,1330.0,1471.0,1011.0,183.0,293.5,1649155596.7097647,1649155597.8174524,530fd149-a4f6-44f2-83f1-589b0977f56a
0.2100154178744233,0.2584815098783353,0.7057738208895331,-0.0913658487612395,0.4150561739288562,-0.0673431796021639,0.349654563829376,0.3216215452323259,-8.889077890947465,29.174566217746737,18.21916182909021,0.2817441066923668,0.9273877238924928,-1.98722094052288,-1.0,11.975555555555555,0.0,179.1729935616927,1.0583051550515066,95.78211887801008,1553.0,1435.0,1000.0,1330.0,1471.0,1011.0,183.0,293.5,1649155597.9262905,1649155599.0493662,530fd149-a4f6-44f2-83f1-589b0977f56a
0.3102172435692793,0.302547171289343,1.0162062949951325,-0.0910508279087374,0.6940632644321613,-0.1278534830067993,0.6579591395080476,0.6355926614565773,-6.752943912923139,29.57664994289245,18.16228269966157,0.164247900465162,1.0976936297891062,-3.222769026255172,-1.0,11.950222222222225,0.0,179.14461488460117,1.0547692989274249,95.6583937957448,1553.0,1435.0,1000.0,1210.0,1471.0,1011.0,183.0,293.5,1649155601.3894722,1649155602.473409,b9390d1a-f0f7-41ff-8a9d-f901328cf314
0.315463025180604,0.303697682138049,1.0099058784595314,-0.0877362605662485,0.688310710384393,-0.1322637751810436,0.6485085150022553,0.6230192219142958,-6.923954997373014,29.6544651565319,18.068861789981987,0.1469616865417596,1.103240919256168,-3.193005019349308,-1.0,11.950333333333331,0.0,179.13616518168794,1.0574536344190435,95.6314373158205,1553.0,1435.0,1000.0,1210.0,1471.0,1011.0,183.0,293.5,1649155602.5841026,1649155603.7901895,b9390d1a-f0f7-41ff-8a9d-f901328cf314
0.3121484582102996,0.3065602626982072,1.0097415197688486,-0.0881471573407464,0.6863657992537838,-0.1337567001522196,0.6487139633609256,0.6225946286589285,-6.703473500679677,29.65965102783603,18.20041012778602,0.1446919153834938,1.1112911720316123,-3.189744089051205,-1.0,11.949666666666666,0.0,179.15135400458226,1.058936840828027,95.59277085601916,1553.0,1435.0,1000.0,1210.0,1471.0,1011.0,183.0,293.5,1649155603.9246266,1649155604.9918842,b9390d1a-f0f7-41ff-8a9d-f901328cf314
0.3816995777606009,0.3423493678744139,1.2771942102421614,-0.022102349318597,0.9308904376769463,-0.2448768904423299,0.8914169590199061,0.8748441245885002,-5.140948626595532,30.6472538968032,17.97850213667744,-0.2333754360859422,1.2452699680528443,-4.227636324744899,-1.0,11.951,0.0,179.13019559635336,1.0337104976239369,95.52208522829868,1553.0,1435.0,1000.0,1071.0,1471.0,1011.0,183.0,293.5,1649155606.7657464,1649155607.8569748,b8eb257c-b30a-410a-a5dc-728de41d4252
0.379594142937009,0.3474455830300868,1.2689587434580758,-0.0227165030304952,0.921741137249028,-0.2506097226849336,0.8816244683054739,0.8685678142432836,-5.0702898294314425,30.612683243735272,17.72377333491047,-0.2455167769946886,1.26569436719842,-4.1896907918625095,-1.0,11.942444444444444,0.0,179.1262082836979,1.032938235644968,95.51213060703836,1553.0,1435.0,1000.0,1071.0,1471.0,1011.0,183.0,293.5,1649155607.9657838,1649155609.0885189,b8eb257c-b30a-410a-a5dc-728de41d4252
0.3903147124446316,0.3452804312036981,1.271715587120405,-0.0260332617374919,0.9247954697026308,-0.2460547946145052,0.8857191912773662,0.8586958834635089,-5.127328437608257,30.604732953248742,17.662345581494918,-0.2277533851529373,1.2591048676683787,-4.203853126693004,-1.0,11.940333333333331,0.0,179.14088560131435,1.0366994998696275,95.51337142473756,1553.0,1435.0,1000.0,1071.0,1471.0,1011.0,183.0,293.5,1649155609.2015278,1649155610.3106482,b8eb257c-b30a-410a-a5dc-728de41d4252
-0.0626030744295548,0.1212047434636833,-0.1256894266204519,0.0030993190491455,-0.3298914415156399,0.023246956999962,-0.5106997498139426,-0.5294366479828453,-14.99985499146854,29.767949198115787,17.853950406292945,0.2316200273854586,0.3946728670598605,1.3649475271531597,-1.0,11.960666666666668,0.0,179.3051288835559,1.0692196550495794,95.75845986163505,1553.0,1435.0,1000.0,1613.0,1471.0,1011.0,183.0,293.5,1649155611.4349315,1649155612.5680408,2eca76c6-dad8-4f13-bfd0-dd9e11aa4696
-0.0623729722541195,0.1287170317538462,-0.1177947297246557,-0.0015733990095572,-0.3236638892389958,0.018136496958927,-0.5030384407570607,-0.5274161304334252,-14.911417217535371,29.652707724470623,17.62310967412069,0.2303135219530447,0.425342349216568,1.3354475434799753,-1.0,11.986222222222224,0.0,179.29006603970632,1.078911029435658,95.71037836551778,1553.0,1435.0,1000.0,1613.0,1471.0,1011.0,183.0,293.5,1649155612.6849854,1649155614.019622,2eca76c6-dad8-4f13-bfd0-dd9e11aa4696
-0.0626989503569036,0.127299711911563,-0.1177043324379201,-0.0018040490292552,-0.323823865072202,0.0206583073938291,-0.5018654671825706,-0.5251222305058513,-14.834505537908834,29.663814749505008,17.758231588908334,0.2366390422402186,0.4183189110299324,1.3339384374511194,-1.0,11.988111111111111,0.0,179.3053140575734,1.0820177575807928,95.65247126282452,1553.0,1435.0,1000.0,1613.0,1471.0,1011.0,183.0,293.5,1649155614.1516292,1649155615.2310407,2eca76c6-dad8-4f13-bfd0-dd9e11aa4696
-0.124184996589784,0.0957532508552212,-0.3454118364572619,0.0504691412507403,-0.5302431006771259,0.0138237245459268,-0.7519170486309338,-0.7735861097513053,-16.575242483069395,30.36387504091012,17.39700706104323,0.0957339586104488,0.2946630164802677,2.276126543546062,-1.0,11.985555555555557,0.0,179.31504328259115,1.0659760622457637,95.665288492257,1553.0,1435.0,1000.0,1694.0,1471.0,1011.0,183.0,293.5,1649155616.34525,1649155617.4847,85c77108-bba0-42df-ac42-b4b9f91b257b
-0.1410295733513531,0.0858950159677037,-0.3486009436640832,0.0538861586935138,-0.5301077785738427,0.0209459351283323,-0.7511566153111965,-0.774262720054716,-16.566108021828757,30.25283168757841,17.475526028564868,0.1031527609647725,0.2563033151972596,2.278206458670764,-1.0,11.983111111111112,0.0,179.3075179319456,1.0672186112082098,95.62951727375382,1553.0,1435.0,1000.0,1694.0,1471.0,1011.0,183.0,293.5,1649155617.5930402,1649155618.6414382,85c77108-bba0-42df-ac42-b4b9f91b257b
-0.1261047063499405,0.0957532508568797,-0.3413094425071696,0.0499431933995188,-0.5261144088630612,0.0159538133880303,-0.7455662255860658,-0.7698387297045557,-16.441696150906274,30.266236846564933,17.67150939496976,0.1013749596719149,0.2916080705761766,2.2563848971464986,-1.0,11.983333333333333,0.0,179.3160511149487,1.0654304534539396,95.60336675615156,1553.0,1435.0,1000.0,1694.0,1471.0,1011.0,183.0,293.5,1649155618.753884,1649155619.94199,85c77108-bba0-42df-ac42-b4b9f91b257b
-0.2009520223161377,0.0644325088080794,-0.5609250442709461,0.1146851816804584,-0.7248044255262917,-0.0005439656301752,-0.9919559381605794,-1.0145552760187464,-18.20218195117168,31.16392622354161,17.64303026984225,-0.087615039155733,0.1649705821714711,3.1723126792556573,-1.0,11.971555555555558,0.0,179.31107418377348,1.053764537783427,95.53901423161152,1553.0,1435.0,1000.0,1774.0,1471.0,1011.0,183.0,293.5,1649155621.8900712,1649155623.017598,c4de1452-d06c-4d36-88c6-37ee6006b009
-0.2079098747995744,0.0595976236374742,-0.5638835018873047,0.1173149208951619,-0.7258179713655654,0.0003326141604236,-0.9931064498848814,-1.0168015124025416,-18.17057674609565,31.072254725083287,17.423684340147314,-0.0923513633332823,0.148044304454858,3.1785523463347123,-1.0,11.939333333333334,0.0,179.32366905260295,1.0484318201570706,95.4320527102992,1553.0,1435.0,1000.0,1774.0,1471.0,1011.0,183.0,293.5,1649155623.126836,1649155624.2366726,c4de1452-d06c-4d36-88c6-37ee6006b009
-0.206841543096257,0.0575979260817147,-0.5636095705797654,0.1160274444192674,-0.7255440400134167,0.0049072648069228,-0.9927366425274184,-1.0090492547613,-18.26159937665028,31.15252805007745,17.628807176986015,-0.0786346202044773,0.1395477031686275,3.1772187718985614,-1.0,11.945333333333332,0.0,179.32719039457507,1.0660415893731134,95.36228156901764,1553.0,1435.0,1000.0,1774.0,1471.0,1011.0,183.0,293.5,1649155624.3450077,1649155625.4675145,c4de1452-d06c-4d36-88c6-37ee6006b009
-0.2665064985454162,0.0295232680540536,-0.7496554719973557,0.20499261615824554,-0.892463530940991,-0.040427797367563335,-1.2107805348075131,-1.2336329887212671,-19.57786043722403,32.14853305410398,17.358929596758248,-0.3845589876314505,0.023227813368397684,3.9642913471131487,-1.0,11.918222222222221,0.0,179.31546068304044,1.040560916486179,95.17575820970347,1553.0,1435.0,1000.0,1856.0,1471.0,1011.0,183.0,293.5,1649155627.4004107,1649155628.5380898,34b87c0a-1cdb-4592-8fb6-b15c3dfd66ee
-0.2759341150212738,0.021607752837999702,-0.7588990093501407,0.20355940831657157,-0.900024035292565,-0.032157267175845085,-1.2174469292401704,-1.2476758084068593,-19.612322822299866,32.15441935811666,17.183449345468144,-0.3632076017197255,-0.005070420544100686,3.9954361512110728,-1.0,11.889999999999999,0.0,179.33060397134022,1.0461498136382803,95.08450915912184,1553.0,1435.0,1000.0,1856.0,1471.0,1011.0,183.0,293.5,1649155628.6463578,1649155629.765867,34b87c0a-1cdb-4592-8fb6-b15c3dfd66ee
-0.2838627798669044,0.023750990356078635,-0.7657231857808973,0.20675454137612942,-0.9068482124755707,-0.03614132229152317,-1.2282683154241618,-1.259220374019152,-19.815085533726148,32.29329869429727,17.26529850572856,-0.37887591177727825,0.0028540504479114006,4.029644371789318,-1.0,11.886125,0.0,179.33287994215368,1.0482826528573064,94.9807412255652,1553.0,1435.0,1000.0,1856.0,1471.0,1011.0,183.0,293.5,1649155629.8746583,1649155630.9974136,34b87c0a-1cdb-4592-8fb6-b15c3dfd66ee
