raw_voltage_G-,raw_voltage_G0,raw_voltage_G1,raw_voltage_G2,raw_voltage_G3,raw_voltage_G4,raw_voltage_G5,raw_voltage_G6,load_x,load_y,load_z,load_l,load_m,load_n,rpm,voltage,current,roll,pitch,yaw,aileron1_pwm,elevator_pwm,throttle_pwm,rudder_pwm,aileron2_pwm,pbaro,pdiff,Tt,sample_start_time,sample_end_time,uid
-0.1175843506460896,0.0589894964369349,-0.1766220011460682,-0.0123947762317562,-0.3438734386759822,0.0983961387353343,-0.557105894725885,-0.5706359081292858,-19.35683158411404,29.454876132706257,17.495275953607734,0.4285792885290249,0.1940178876450555,1.5084024496187514,-1.0,11.992,0.0,179.35415598141827,1.1660609941619784,95.15881706383212,1553.0,1435.0,1000.0,1528.0,1471.0,1011.0,183.0,293.5,1649156014.7548969,1649156015.8180382,9229eda5-661f-47a1-8b84-99354e8b4f36
-0.1100753489293363,0.0549134006089345,-0.1840641638916837,-0.0042968227360329,-0.3503404068985681,0.0964961521777342,-0.5662119174493347,-0.5888112471133242,-19.37636218964984,29.578472400976256,17.65228904678361,0.4065067281291223,0.1760099510602681,1.540055081565059,-1.0,11.99088888888889,0.0,179.3360514266583,1.140822520257331,95.51265653160443,1553.0,1435.0,1000.0,1528.0,1471.0,1011.0,183.0,293.5,1649156015.926428,1649156017.0492165,9229eda5-661f-47a1-8b84-99354e8b4f36
-0.1173482219471182,0.0488732182611642,-0.1816124796920994,-0.002338214822192,-0.3463273145634129,0.098564332493559,-0.5621714314750151,-0.5847981542354518,-19.387628843411825,29.554757145567297,17.38685295933697,0.4066529486725891,0.1557017657614487,1.5244081886913798,-1.0,11.99,0.0,179.33281847045114,1.130672396689967,95.7908622790576,1553.0,1435.0,1000.0,1528.0,1471.0,1011.0,183.0,293.5,1649156017.1571586,1649156018.293687,9229eda5-661f-47a1-8b84-99354e8b4f36
0.0958058456259577,0.4475860457293337,-0.1612906200320905,-0.2379869727745029,-0.4223711702379492,-0.06187332172608,-0.6154335295599698,-0.6404949536724674,-18.97517672258204,28.37462182754613,19.152627549501204,0.5713717072297634,1.6628297229129272,1.725556975895242,-1.0,11.976111111111113,0.0,179.2061761385004,1.1164253691332608,96.4022203691069,1631.0,1435.0,1000.0,1528.0,1531.0,1011.0,183.0,293.5,1649156020.4146743,1649156021.5538995,a9409545-cdc0-4917-8b9b-8d313e5260c8
0.1155946331166313,0.4599589678292344,-0.1512055692117058,-0.243049221430359,-0.4162964712861271,-0.0699597702572584,-0.6078993241099175,-0.6317379186304147,-18.8455246580193,28.384951944762744,19.13085882471855,0.5652520116518077,1.7097737784777638,1.69431734354148,-1.0,11.962,0.0,179.17306034576455,1.1003368585432958,96.54349448407964,1631.0,1435.0,1000.0,1528.0,1531.0,1011.0,183.0,293.5,1649156021.6626613,1649156022.7820528,a9409545-cdc0-4917-8b9b-8d313e5260c8
0.1161863244433455,0.45811815051358,-0.1498381047195499,-0.2380395676319081,-0.4143504638551117,-0.0716428035000346,-0.6071366995246196,-0.6310410375028908,-18.84134101902221,28.423195144165607,19.298599862115,0.5505199138560324,1.7008238419133832,1.6887619914981065,-1.0,11.963333333333331,0.0,179.15918140137106,1.0886828482719615,96.6676035747582,1631.0,1435.0,1000.0,1528.0,1531.0,1011.0,183.0,293.5,1649156022.889904,1649156024.0072014,a9409545-cdc0-4917-8b9b-8d313e5260c8
0.3930540239317079,0.9451485540251284,-0.12321034933557,-0.5321074766958686,-0.5107271429082342,-0.2701196510727657,-0.675880299046085,-0.6997945003878133,-18.40458972459437,27.50900795133125,20.27302748058605,0.7635018980709757,3.5536350289040777,1.9400174776081096,-1.0,11.946333333333332,0.0,178.8956059191201,1.0930886285937698,96.89347641279072,1712.0,1435.0,1000.0,1528.0,1591.0,1011.0,183.0,293.5,1649156025.9533594,1649156027.08255,ad440096-afe2-4ed9-be37-ec882b77717b
0.3921363545907494,0.9513257014797968,-0.1182384982575375,-0.5287518189204522,-0.5073440920520897,-0.2796935468106193,-0.6729218412936957,-0.6966579872998239,-18.245528822664024,27.492531289898903,20.24160918031832,0.7346319323791545,3.575857509290703,1.9252707891627685,-1.0,11.933222222222222,0.0,178.871634990773,1.0823303810309284,96.97433674564478,1712.0,1435.0,1000.0,1528.0,1591.0,1011.0,183.0,293.5,1649156027.191244,1649156028.3103406,ad440096-afe2-4ed9-be37-ec882b77717b
0.384082778770863,0.9458196853435638,-0.1168962354529206,-0.5200681983747101,-0.5044815105823224,-0.2807344853864711,-0.6733738279439088,-0.7043006696263022,-18.37903902744108,27.635241249698662,20.465714036554456,0.7136860792241121,3.5531836908908176,1.9197597831489297,-1.0,11.93688888888889,0.0,178.88151144431282,1.0916973332893989,97.03496681708717,1712.0,1435.0,1000.0,1528.0,1591.0,1011.0,183.0,293.5,1649156028.4181774,1649156029.5386188,ad440096-afe2-4ed9-be37-ec882b77717b
0.6758868372320518,1.4334489382001268,-0.0812676495885691,-0.8088114829103108,-0.5943167165744546,-0.4900212281286437,-0.7339427732869537,-0.7655785510186949,-17.54887321881468,26.789243819256328,20.74748602645047,0.8913535782103895,5.411511611027705,2.1375868138186074,-1.0,11.9075,0.0,178.43094663206432,1.1102944739403808,97.07797386210606,1796.0,1435.0,1000.0,1528.0,1650.0,1011.0,183.0,293.5,1649156030.450405,1649156031.588042,adf2f290-ec82-4a9e-bbb6-ebfda1c43d37
0.6614890162432191,1.437853751732365,-0.0814385826109885,-0.802934012919086,-0.5945665418448113,-0.4997775632602,-0.7372167999342187,-0.7627910254169789,-17.555300836193872,26.78876728316002,20.73026794387701,0.8561540076712668,5.427495949724039,2.1433775348350173,-1.0,11.8825,0.0,178.4168696121849,1.1188889329895195,97.0958877407517,1796.0,1435.0,1000.0,1528.0,1650.0,1011.0,183.0,293.5,1649156031.6967556,1649156033.0214632,adf2f290-ec82-4a9e-bbb6-ebfda1c43d37
0.6758742363990944,1.4374165575245816,-0.0946667195567142,-0.8070796892071875,-0.6074111786189854,-0.4957294073486258,-0.7508963805721015,-0.7817958310856588,-17.705329050845304,26.82473987413371,20.59900932183027,0.8740857345135384,5.42775384852175,2.19798654822476,-1.0,11.889666666666669,0.0,178.4131198383306,1.117127420087793,97.11261013084214,1796.0,1435.0,1000.0,1528.0,1650.0,1011.0,183.0,293.5,1649156033.1302853,1649156034.2503307,adf2f290-ec82-4a9e-bbb6-ebfda1c43d37
0.7718854592966395,1.6306136589066156,-0.0853305968909853,-0.9320937233454656,-0.6514083749352716,-0.5974592559295894,-0.7842760043661466,-0.8180287239830655,-17.292941397563883,26.6647498070934,16.592358818791382,0.9264593992427208,6.20093355591149,2.309695391951619,-1.0,11.84933333333333,0.0,178.30171338168844,1.115576113372554,97.08237895466576,1886.0,1435.0,1000.0,1528.0,1710.0,1011.0,183.0,293.5,1649156035.3653877,1649156036.5094192,f3057dde-c593-4740-934a-c07b4605304f
0.7719117567006402,1.6213043805800214,-0.0954945396002356,-0.9180114616692032,-0.657456777359626,-0.6001152934055662,-0.7951499811071545,-0.820474382376331,-17.385793631151877,26.68002330230432,16.680788652952284,0.8882873063589064,6.163513627517297,2.346320904471908,-1.0,11.745222222222225,0.0,178.2788838538426,1.109996251991542,96.85985366823648,1886.0,1435.0,1000.0,1528.0,1710.0,1011.0,183.0,293.5,1649156036.6417618,1649156037.731313,f3057dde-c593-4740-934a-c07b4605304f
0.7770923425224991,1.6224351686159166,-0.0960993796586628,-0.9301871612705926,-0.6601785584601827,-0.58988560444443,-0.7941506797291322,-0.8238010043690467,-17.429215520140446,26.75449714207672,16.699513037759917,0.9391848849695952,6.169358154493152,2.349425285541124,-1.0,11.752666666666666,0.0,178.28542262160803,1.1151937650746409,96.67525110989892,1886.0,1435.0,1000.0,1528.0,1710.0,1011.0,183.0,293.5,1649156037.840252,1649156038.9604332,f3057dde-c593-4740-934a-c07b4605304f
-0.4168618654385141,-0.4829472278028722,-0.2098093136686291,0.3079994969784574,-0.2476118195879108,0.3279066217692884,-0.4885485738412052,-0.5173442265819164,-19.774281018120423,31.183981239227773,16.69488486070804,0.2310612250049384,-1.870047839383861,1.2600219644056927,-1.0,11.829,0.0,179.45205535952178,1.067241283641705,96.34855177824858,1475.0,1435.0,1000.0,1528.0,1408.0,1011.0,183.0,293.5,1649156040.8950183,1649156042.038468,a50c9dfd-f8ea-481f-98c3-944cf10afc7b
-0.4025297835940712,-0.4670241527551049,-0.2169753538361761,0.3079600508763075,-0.2586172796679865,0.3147710750988686,-0.5013291098159454,-0.5227351930631303,-19.673342665206505,31.24021851644773,16.962150046989183,0.2017422746513324,-1.813858286585294,1.3053274701299502,-1.0,11.976,0.0,179.4603790833903,1.06055762337373,96.33349348785842,1475.0,1435.0,1000.0,1528.0,1408.0,1011.0,183.0,293.5,1649156042.1466854,1649156043.259904,a50c9dfd-f8ea-481f-98c3-944cf10afc7b
-0.3986903634705173,-0.4627902715760988,-0.2176590861231081,0.3086306343425072,-0.258051885668326,0.3109053586505038,-0.5022495187931953,-0.5246943495027917,-19.73986771291976,31.062261425648284,17.086373490284178,0.1903153921888821,-1.7987377254903465,1.3075197520413715,-1.0,11.978777777777776,0.0,179.46557002715952,1.0598924744134637,96.33087221303695,1475.0,1435.0,1000.0,1528.0,1408.0,1011.0,183.0,293.5,1649156043.370639,1649156044.490811,a50c9dfd-f8ea-481f-98c3-944cf10afc7b
-0.6475968954514401,-0.9013531499954852,-0.2274411693236377,0.5829704884963477,-0.1656285944295236,0.4846976897587455,-0.4376559850857449,-0.4667748757905016,-20.16863948737788,32.96005881078728,16.80796854609031,-0.0261600984360478,-3.4724779808673047,1.0508703921203797,-1.0,11.958444444444446,0.0,179.60123731573356,1.031699184782878,96.24634710423824,1396.0,1435.0,1000.0,1528.0,1340.0,1011.0,183.0,293.5,1649156046.2529724,1649156047.5661173,1087078c-153a-4858-bcb6-ba3be54fc695
-0.6570749173238859,-0.914337494758073,-0.2433017860342607,0.5826965573517341,-0.1780376776022787,0.4960247426909361,-0.4513525468390356,-0.4799235752965868,-20.39950793639833,33.024758845181665,16.46061617365913,-0.0006212082874344,-3.5174352171691816,1.1066413392777972,-1.0,11.92988888888889,0.0,179.6046539281384,1.0390341320473349,96.125510433082,1396.0,1435.0,1000.0,1528.0,1340.0,1011.0,183.0,293.5,1649156047.6750362,1649156048.7980082,1087078c-153a-4858-bcb6-ba3be54fc695
-0.6540068871063841,-0.9087629922608712,-0.2338374629080072,0.5838607647231293,-0.1698197417054223,0.4889573191056542,-0.4432304856731504,-0.4621865275869513,-20.31858116721274,32.985751764623274,16.45255030920131,-0.0188766911542037,-3.496572748521943,1.071729165098199,-1.0,11.930333333333332,0.0,179.62196314531502,1.0433677092061986,96.00470867178151,1396.0,1435.0,1000.0,1528.0,1340.0,1011.0,183.0,293.5,1649156048.9112017,1649156050.2210548,1087078c-153a-4858-bcb6-ba3be54fc695
-0.9501951059239792,-1.4567764405080377,-0.2577379605335038,0.9327120797894334,-0.0668490077415847,0.7028701507489314,-0.3750763961866077,-0.4076194266502718,-20.62457726044908,35.43624298489116,16.3380775745167,-0.3102268551859354,-5.593200703812279,0.8023893163983479,-1.0,11.911111111111111,0.0,179.79192405480185,1.021823525726849,95.69855758479424,1314.0,1435.0,1000.0,1528.0,1268.0,1011.0,183.0,293.5,1649156052.257434,1649156053.501817,219b1bd3-4aa8-42e5-b15c-70a2e1764b9d
-0.964809342488544,-1.4529277033501142,-0.2609703487487835,0.9228642549590867,-0.0714236584998411,0.7093075326627521,-0.3769939147385785,-0.3938132921744698,-20.651886109462662,35.397845792883544,16.480859531761087,-0.2739533956929849,-5.578830876370979,0.816333788396813,-1.0,11.89,0.0,179.8104702951281,1.0255789558315926,95.5132674540802,1314.0,1435.0,1000.0,1528.0,1268.0,1011.0,183.0,293.5,1649156053.610212,1649156054.729472,219b1bd3-4aa8-42e5-b15c-70a2e1764b9d
-0.9461496881907956,-1.4511126334436195,-0.2597875137991272,0.925015162337314,-0.0700912572192479,0.7044589513924955,-0.3770739026560087,-0.398493133273097,-20.66840347567562,35.376220970428754,16.33066557146986,-0.2898174377548074,-5.570765393580563,0.8130445330984821,-1.0,11.890555555555554,0.0,179.82501404460078,1.0350531752623406,95.36246674303514,1314.0,1435.0,1000.0,1528.0,1268.0,1011.0,183.0,293.5,1649156054.8378153,1649156056.1610873,219b1bd3-4aa8-42e5-b15c-70a2e1764b9d
-1.0692867591724518,-1.6807154461115588,-0.2470683400491474,1.0594737209973497,-0.0082140385621695,0.7738046208954289,-0.3326855399016033,-0.3612428698679912,-21.029238150909617,36.7073527180901,12.016982257781509,-0.4287057229332762,-6.40685539652452,0.6147425695183175,-1.0,11.853222222222222,0.0,179.87093264748088,1.018273878786787,95.07873992600288,1227.0,1435.0,1000.0,1528.0,1189.0,1011.0,183.0,293.5,1649156056.7539775,1649156057.8023236,a7f89fd9-480b-44ba-9836-0af9bd2816cd
-1.0780936525323028,-1.6714428634664256,-0.2463150292739836,1.0520638832203817,-0.0110218331646358,0.7712022750038733,-0.3330005608479428,-0.365338141668837,-20.88956574651101,36.72283196419909,11.969416709496905,-0.4176359140706207,-6.371684240576262,0.61906981406376,-1.0,11.74688888888889,0.0,179.88697144947187,1.0174559992075798,94.74346263566493,1227.0,1435.0,1000.0,1528.0,1189.0,1011.0,183.0,293.5,1649156057.9102929,1649156059.031766,a7f89fd9-480b-44ba-9836-0af9bd2816cd
-1.0755186975514737,-1.677496750489934,-0.2474107540632548,1.052324117822051,-0.0106794191615376,0.776543932351652,-0.3331238298798076,-0.3538193336615269,-21.01200046952573,36.76871612630532,11.915036959818655,-0.406040209376605,-6.393142193819121,0.6193611458581776,-1.0,11.753,0.0,179.913575795199,1.0186511044428224,94.44375089924516,1227.0,1435.0,1000.0,1528.0,1189.0,1011.0,183.0,293.5,1649156059.141103,1649156060.1882143,a7f89fd9-480b-44ba-9836-0af9bd2816cd
-0.0944557926082129,0.0722959769794251,-0.1878904348721325,-0.0244652796515224,-0.3558650517470761,0.0983566926707774,-0.5698338365326543,-0.5982087319646162,-19.59575453790966,29.264877420248187,17.674106736850227,0.4538063681222322,0.2447999016272594,1.559884822545912,-1.0,11.759,0.0,179.31127605380894,1.0966165398797545,94.00757501884812,1553.0,1435.0,1000.0,1528.0,1471.0,1011.0,183.0,293.5,1649156061.7543628,1649156062.717457,351425cf-86c0-48d9-8d2c-94cd29f0cd62
-0.0888150016125776,0.0740316048619518,-0.1864703755433394,-0.0151560025786222,-0.3541951670367136,0.0886924010143717,-0.5714116805381907,-0.5870717827049803,-19.56838388565932,29.3077701571546,17.759314314798054,0.4114723769613359,0.2493052264368397,1.5583345462093725,-1.0,11.977666666666668,0.0,179.32958551424403,1.1129036951380806,94.2637959051828,1553.0,1435.0,1000.0,1528.0,1471.0,1011.0,183.0,293.5,1649156062.826136,1649156063.9472978,351425cf-86c0-48d9-8d2c-94cd29f0cd62
-0.1140079050419049,0.0696530890566521,-0.1824074280173225,-0.0156950990567226,-0.3502374087642213,0.0934916751160926,-0.5657577394406296,-0.5883866529768207,-19.521090902252293,29.365745766490644,17.797553294374346,0.4240895928308207,0.2325344175815755,1.538884368081207,-1.0,11.986666666666668,0.0,179.33220223560602,1.1156565933966804,94.53362101052436,1553.0,1435.0,1000.0,1528.0,1471.0,1011.0,183.0,293.5,1649156064.0562484,1649156065.1752298,351425cf-86c0-48d9-8d2c-94cd29f0cd62
-0.0856817767096431,0.0647612262086352,-0.217470073592304,-0.4260549974782028,-0.4267946117441187,0.4961754048242577,-0.4871690560786053,-0.5093711840176637,-19.308962231591305,28.53262168376754,20.81742529962984,2.247964492155741,0.2342076865178569,1.5796183013175895,-1.0,11.989777777777778,0.0,179.32889794186758,1.263265957841909,94.96843312981709,1553.0,1522.0,1000.0,1528.0,1471.0,1011.0,183.0,293.5,1649156066.28799,1649156067.42704,7299c9be-d48f-483e-a724-d18902c5cbde
-0.0981456456824028,0.0457914925730651,-0.2287560390976727,-0.4189601786577856,-0.432478684795538,0.5094062792210242,-0.4952226345672436,-0.509809473657885,-19.565287613231227,28.59109760994485,20.91090017243388,2.261403411534085,0.1624573921096606,1.6119062596394444,-1.0,11.984111111111112,0.0,179.32269309446156,1.2746896270982648,95.0985072523708,1553.0,1522.0,1000.0,1528.0,1471.0,1011.0,183.0,293.5,1649156067.5354311,1649156068.6560624,7299c9be-d48f-483e-a724-d18902c5cbde
-0.1014739096040655,0.0461886927748691,-0.2190862676987003,-0.4156319141595061,-0.4222062636691172,0.5050507739934676,-0.4843201712177127,-0.5001807904274377,-19.430138164688028,28.45153729031586,20.86293472617558,2.2437249731105084,0.1636165608237821,1.5693724872530428,-1.0,11.981777777777776,0.0,179.32439153483517,1.2712043689206909,95.18301035278222,1553.0,1522.0,1000.0,1528.0,1471.0,1011.0,183.0,293.5,1649156068.764762,1649156070.089884,7299c9be-d48f-483e-a724-d18902c5cbde
-0.0900772765302908,0.0308644350885573,-0.2854143261963144,-0.925151207774899,-0.5397627593873285,1.012677513880896,-0.4116418318574051,-0.4336133083527896,-19.37979750178228,27.769580520186736,24.223427690429208,4.5265182844357295,0.1345173342435959,1.7151556813251168,-1.0,11.973,0.0,179.33340738453958,1.4467213527060625,95.27474282897508,1553.0,1613.0,1000.0,1528.0,1471.0,1011.0,183.0,293.5,1649156070.7539177,1649156071.9338925,b3281245-6c55-42f4-8c54-c86602ad3ccc
-0.0891700164648867,0.0411072695275429,-0.276512657594942,-0.9278992868708074,-0.5333724911867177,1.0057744487934015,-0.4050411850009071,-0.4286036539449619,-19.34092713834492,27.747978230277035,24.36874012511214,4.517547938099117,0.172273474979959,1.6863763240932004,-1.0,11.969555555555557,0.0,179.31855703546412,1.4455514693672862,95.28943380696992,1553.0,1613.0,1000.0,1528.0,1471.0,1011.0,183.0,293.5,1649156072.0424693,1649156073.168812,b3281245-6c55-42f4-8c54-c86602ad3ccc
-0.095954196195434,0.0317936096295625,-0.2781184423526605,-0.9242127190608268,-0.5328470910651041,1.0117686102968004,-0.4044966097278181,-0.4280136060708829,-19.364915604057263,27.776902777723908,24.401821894756853,4.522806610787714,0.1366629662240449,1.6859975947632988,-1.0,11.967333333333332,0.0,179.33224473456085,1.4337491989306868,95.31895540238251,1553.0,1613.0,1000.0,1528.0,1471.0,1011.0,183.0,293.5,1649156073.286874,1649156074.3909504,b3281245-6c55-42f4-8c54-c86602ad3ccc
-0.0806962291602137,0.0243426817000371,-0.3266453566190992,-1.4137965939822372,-0.6330922346413623,1.4896415392546765,-0.3235362373295502,-0.3483133167552426,-19.37011475193736,27.22894438798405,27.33825552160569,6.695448830546357,0.1399213309211045,1.7725808672192187,-1.0,11.966555555555557,0.0,179.3320641140028,1.6151781976193642,95.30670204301153,1553.0,1710.0,1000.0,1528.0,1471.0,1011.0,183.0,293.5,1649156075.301109,1649156076.2773132,117977d2-4444-49d0-af1d-a2e301794370
-0.0802853324348669,0.0154673116081698,-0.3231664302216408,-1.4064004449267025,-0.6280382028221417,1.4923397615866671,-0.3182493649119857,-0.3476147918061025,-19.276028842695123,27.27816044788584,27.48633574680569,6.685398648006623,0.1039657044596221,1.7526729345956156,-1.0,11.929222222222222,0.0,179.31860105223885,1.6146102365591628,95.2056524298808,1553.0,1710.0,1000.0,1528.0,1471.0,1011.0,183.0,293.5,1649156076.3853714,1649156077.422876,117977d2-4444-49d0-af1d-a2e301794370
-0.0766146545240246,0.0219457838945194,-0.3151402455981404,-1.402359955868219,-0.620600968926479,1.4829987078357467,-0.3138253757637261,-0.3377395711779208,-19.36609144707921,27.292571332629183,27.63788716846076,6.655767704457201,0.1275697499791642,1.7262679377924977,-1.0,11.929555555555554,0.0,179.32193418455375,1.6130542933787058,95.1477430504578,1553.0,1710.0,1000.0,1528.0,1471.0,1011.0,183.0,293.5,1649156077.5364628,1649156078.495808,117977d2-4444-49d0-af1d-a2e301794370
-0.0803603894745112,0.0119566096843903,-0.3229407111256765,-1.6601114160704966,-0.664688563496378,1.738932639698921,-0.2599190008621263,-0.2850330145827103,-19.240920247969203,28.0176905661486,29.05589354269489,7.817017105273841,0.1079030989084355,1.71851976252185,-1.0,11.91522222222222,0.0,179.32718887675526,1.665195791491041,94.9673122198833,1553.0,1814.0,1000.0,1528.0,1471.0,1011.0,183.0,293.5,1649156080.2533534,1649156081.3549538,5cba7e62-12a9-450d-a2b3-af6527b4770f
-0.0594671102669698,0.0154936090269233,-0.3184701536092953,-1.6568899783408175,-0.659731502893294,1.7333312930068423,-0.2559086481021895,-0.2816669473805506,-19.20502942006749,27.899403543566585,29.207780668133445,7.796644100259632,0.1194535742044719,1.70070841000458,-1.0,11.870444444444445,0.0,179.317175819432,1.701846503571558,94.77970665504066,1553.0,1814.0,1000.0,1528.0,1471.0,1011.0,183.0,293.5,1649156081.4633343,1649156082.5913906,5cba7e62-12a9-450d-a2b3-af6527b4770f
-0.0679085735938551,0.0058819119259954,-0.3189829528449108,-1.6577577948473046,-0.6598366925678073,1.739813602120538,-0.2549356443800512,-0.2844676202703938,-19.219565295030307,28.049721028466525,28.67723843793392,7.814047346094213,0.0882858172991349,1.6981745671227113,-1.0,11.875333333333334,0.0,179.31628182356064,1.7206988810398838,94.64470720718543,1553.0,1814.0,1000.0,1528.0,1471.0,1011.0,183.0,293.5,1649156082.7006233,1649156083.821193,5cba7e62-12a9-450d-a2b3-af6527b4770f
-0.1270042964198617,0.0774305428216956,-0.1380300267852065,0.5231439262260079,-0.2564093941927716,-0.4322184501806305,-0.6765103410342291,-0.69994516328067,-19.89204047724616,31.06143386869596,14.411686997258965,-1.9600159110297133,0.2308383663831811,1.5082188856486225,-1.0,11.914666666666667,0.0,179.32863839467913,0.9873445410691478,94.58095801602208,1553.0,1349.0,1000.0,1528.0,1471.0,1011.0,183.0,293.5,1649156084.927653,1649156086.066018,2ae6f0b6-c19d-45f5-86fa-1b13b189a36e
-0.1311680504854425,0.0703905117604403,-0.1443578372742001,0.526321527527987,-0.260340306966015,-0.428287536958188,-0.681016510456998,-0.713874567781378,-19.92339714554704,31.02276545641529,14.364804008272111,-1.9589451920362864,0.204278391171451,1.5277180927688256,-1.0,11.988222222222223,0.0,179.3297312249463,0.975773085966219,94.98257238030892,1553.0,1349.0,1000.0,1528.0,1471.0,1011.0,183.0,293.5,1649156086.1748629,1649156087.2972567,2ae6f0b6-c19d-45f5-86fa-1b13b189a36e
-0.1320720234095515,0.0612686037829826,-0.1493707780979397,0.5232398021214452,-0.2632165846405125,-0.4165906735198861,-0.6822628977699603,-0.6971510632354375,-20.0031723730526,30.99680894700841,14.330263022261386,-1.9261765032824616,0.170997647954887,1.5390188416758424,-1.0,11.989222222222224,0.0,179.32893588736297,0.9825350325343682,95.24799277254571,1553.0,1349.0,1000.0,1528.0,1471.0,1011.0,183.0,293.5,1649156087.4069138,1649156088.5252895,2ae6f0b6-c19d-45f5-86fa-1b13b189a36e
-0.1383587442176276,0.0805533581692495,-0.0991591910190461,0.9916620636298528,-0.1767091112725962,-0.8873278664175778,-0.7742490231894189,-0.7999848688356672,-20.191868180209813,32.83884551064661,11.23599954628599,-4.026508630848261,0.2176287037190216,1.4849057342333805,-1.0,11.98,0.0,179.35215701272116,0.808307567119954,95.5672737598475,1553.0,1264.0,1000.0,1528.0,1471.0,1011.0,183.0,293.5,1649156089.4309886,1649156090.571462,29d2e81f-5295-4809-88c7-495a510d063f
-0.1381669923818078,0.084840380963295,-0.0857776525863354,0.992757788246447,-0.1656285944430952,-0.891313567153543,-0.7634972199818991,-0.785699351875062,-20.198638759840907,32.987738914744135,11.50097594312887,-4.036244544589409,0.2321230232260588,1.4371011030260537,-1.0,11.95925,0.0,179.35003737734874,0.7887763654905625,95.73047316151091,1553.0,1264.0,1000.0,1528.0,1471.0,1011.0,183.0,293.5,1649156090.679594,1649156092.0063612,29d2e81f-5295-4809-88c7-495a510d063f
-0.1475633801252645,0.0770558049990432,-0.1032654195371285,0.9892333900348942,-0.1793043354434301,-0.8776317935145549,-0.7769258798544952,-0.7997520271446309,-20.38980295090037,32.84644649325677,11.783793333591312,-3.999408156551324,0.201095441587042,1.498035613948577,-1.0,11.958666666666666,0.0,179.326112742506,0.7931363473781313,95.9087999143661,1553.0,1264.0,1000.0,1528.0,1471.0,1011.0,183.0,293.5,1649156092.115141,1649156093.2332926,29d2e81f-5295-4809-88c7-495a510d063f
-0.1504823909554596,0.1009995805834469,-0.0462921160901043,1.428991529982294,-0.0929831384855134,-1.3265812053034782,-0.861340550414326,-0.8863625336834349,-20.76804203972984,35.06839769413208,8.735116414355007,-5.983353951457493,0.2701024345105341,1.424267351523648,-1.0,11.944666666666668,0.0,179.32565739656133,0.6297364986353162,96.27452087565464,1553.0,1178.0,1000.0,1528.0,1471.0,1011.0,183.0,293.5,1649156095.369983,1649156096.5093136,879f6de5-9e58-4a39-b8f5-9b3407eaca56
-0.1547261329814239,0.1046182113040845,-0.0450303890877502,1.4248020263798322,-0.0924341804073883,-1.3244812468351632,-0.8599621280508596,-0.8860677830437007,-20.81221953829013,35.03966789780083,8.999841847794714,-5.969292237467766,0.2822362395499142,1.4205925877132286,-1.0,11.929666666666668,0.0,179.31894559733692,0.628173778626542,96.3894790306652,1553.0,1178.0,1000.0,1528.0,1471.0,1011.0,183.0,293.5,1649156096.617487,1649156097.7458866,879f6de5-9e58-4a39-b8f5-9b3407eaca56
-0.1567258307071481,0.0997833262082963,-0.056590284958388,1.4244185226864812,-0.1024737584084853,-1.320988621088252,-0.8686320541141095,-0.8840543877319241,-20.694159144233524,34.92809110085017,8.695701579882334,-5.961883065525431,0.2652749554168891,1.461479402263189,-1.0,11.931111111111116,0.0,179.3325209777673,0.6255699231590497,96.50235929034828,1553.0,1178.0,1000.0,1528.0,1471.0,1011.0,183.0,293.5,1649156097.8582916,1649156098.9667585,879f6de5-9e58-4a39-b8f5-9b3407eaca56
-0.1443550980341781,0.1200520411025951,-0.0194687750058818,1.6305479163212238,-0.0595197050653322,-1.5389986205331854,-0.907005996950559,-0.9376161798764956,-20.882245140709223,36.6427617272166,7.486681535822424,-6.90383029387668,0.3303451452749141,1.4087294391383112,-1.0,11.911,0.0,179.3384131542913,0.5189187841410566,96.60231531430188,1553.0,1088.0,1000.0,1528.0,1471.0,1011.0,183.0,293.5,1649156099.8779576,1649156101.018005,2c19a1c5-e457-4f34-b0fb-af7179697618
-0.153876946361907,0.1135209742093787,-0.0266222138599508,1.6427416899360576,-0.0628359159948166,-1.5435990250107343,-0.916350890247534,-0.9389365283023908,-21.10411873485373,36.66994347724923,7.4565641712831985,-6.941966671567465,0.3057326263472303,1.435410160862605,-1.0,11.891,0.0,179.33275472201888,0.5093990301158419,96.58808651244094,1553.0,1088.0,1000.0,1528.0,1471.0,1011.0,183.0,293.5,1649156101.1268797,1649156102.244599,2c19a1c5-e457-4f34-b0fb-af7179697618
-0.1582532709983888,0.1152790644411545,-0.0209151317296305,1.644551280143788,-0.0582311328692234,-1.5479265960397457,-0.9111346902372692,-0.9426389840573656,-20.96905588843559,36.68299404405786,7.364367255503521,-6.955349314805227,0.3123269515572412,1.414119797869166,-1.0,11.884,0.0,179.31286521115578,0.4889607325257018,96.59498045004318,1553.0,1088.0,1000.0,1528.0,1471.0,1011.0,183.0,293.5,1649156102.3525555,1649156103.4711368,2c19a1c5-e457-4f34-b0fb-af7179697618
-0.1068018712829714,0.0636244118314398,-0.1816809625076401,0.002743208489532,-0.3469573563626049,0.0849362568472869,-0.5680198637531296,-0.5913314147197825,-19.55359886204781,29.480887660285195,18.14792522531484,0.364111071519788,0.204825814804835,1.5365037256849607,-1.0,11.931666666666665,0.0,179.336629716008,1.055177509452039,96.63297527457615,1553.0,1435.0,1000.0,1528.0,1471.0,1011.0,183.0,293.5,1649156104.3816547,1649156105.5205262,02d77d6a-7af7-4ef4-bc38-ccefc4215f14
-0.1064474042201258,0.0602123251756366,-0.1855236693221724,0.0059608040967949,-0.3491723641870771,0.0843664800334922,-0.5718850337349252,-0.5971173899521244,-19.61926219509624,29.46315032867264,17.983843063666075,0.355204466613139,0.1933073574790772,1.549607142990573,-1.0,11.987888888888888,0.0,179.33643998853103,1.0610193370468424,96.65926846724106,1553.0,1435.0,1000.0,1528.0,1471.0,1011.0,183.0,293.5,1649156105.628919,1649156106.751964,02d77d6a-7af7-4ef4-bc38-ccefc4215f14
-0.1198546923229336,0.0561050012008321,-0.188255311216031,0.0080711698544663,-0.3510526280813335,0.0852786708046978,-0.5753886145129887,-0.6013162092775091,-19.72822347711853,29.553884572863502,17.793264673775564,0.3528740560734422,0.1799312240394921,1.5600192964712312,-1.0,11.981888888888887,0.0,179.3365249864407,1.048122244204533,96.6131183968391,1553.0,1435.0,1000.0,1528.0,1471.0,1011.0,183.0,293.5,1649156106.8612378,1649156107.978213,02d77d6a-7af7-4ef4-bc38-ccefc4215f14
-0.0298956913975326,0.095030072568347,0.0538878022878611,-0.0144722702888787,-0.1332707462302625,0.0560836345361921,-0.3239663093217435,-0.3473183980864296,-17.811113340473803,29.29815109041824,18.006782369990194,0.3494822718430208,0.3285844968254383,0.5816120525369752,-1.0,11.992,0.0,179.32913016829934,1.0619222738255574,96.5778025242806,1553.0,1435.0,1000.0,1435.0,1471.0,1011.0,183.0,293.5,1649156108.7532346,1649156109.8173687,b91676b5-c8c9-4041-914a-4e6bd4536de3
-0.035365549177388,0.0925844151036834,0.0614220052232285,-0.0094626169069478,-0.1246320522288507,0.0543874527226785,-0.3151303840773785,-0.3401260600481744,-17.71717721559346,29.218703337513816,18.144187275398096,0.3342878466147969,0.317388606727605,0.5470355126463798,-1.0,11.990555555555556,0.0,179.33302792958568,1.0503785545081643,96.55516500064148,1553.0,1435.0,1000.0,1435.0,1471.0,1011.0,183.0,293.5,1649156109.9260366,1649156111.261809,b91676b5-c8c9-4041-914a-4e6bd4536de3
-0.0396257269010441,0.0902702445945538,0.0577535189824837,-0.0065567549956627,-0.1272486429521202,0.0527175682942342,-0.320429309457622,-0.3372333464113176,-17.86250460614136,29.28365971224525,17.930448150439776,0.3241211929794023,0.3110427816842576,0.5624602086170163,-1.0,11.990555555555556,0.0,179.3216624948068,1.0618448412990291,96.5556863717481,1553.0,1435.0,1000.0,1435.0,1471.0,1011.0,183.0,293.5,1649156111.3703048,1649156112.48054,b91676b5-c8c9-4041-914a-4e6bd4536de3
0.0574061742073108,0.1413523806719226,0.3482114945286476,-0.0287725735542778,0.1306142790013361,0.0077424524244334,-0.0274029176156314,-0.0493995916785777,-15.76274945777657,29.44237087860113,17.97728261303949,0.2897489586599233,0.508506627468293,-0.5944362719308535,-1.0,11.986555555555556,0.0,179.27957183350156,1.055374067118154,96.44351872846843,1553.0,1435.0,1000.0,1330.0,1471.0,1011.0,183.0,293.5,1649156113.3930156,1649156114.53265,74e87299-0eaa-457d-b07b-258242d7d571
0.0521653230566885,0.141839430289441,0.3473929882374298,-0.0293697435382691,0.1290720465294024,0.0063552649701518,-0.0278576433984764,-0.0510913907064928,-15.643440740442616,29.43443917238509,17.76443634109863,0.287911624061725,0.5113968739801348,-0.5907323618666597,-1.0,11.976,0.0,179.28875008992622,1.0564689013818311,96.44794013759116,1553.0,1435.0,1000.0,1330.0,1471.0,1011.0,183.0,293.5,1649156114.6406832,1649156115.762529,74e87299-0eaa-457d-b07b-258242d7d571
0.0485792689558986,0.1357905244536184,0.344842141355301,-0.0345862360413014,0.1286345995400987,0.0188050576140983,-0.0261660129882804,-0.0521094030922282,-15.746934691292244,29.32669934310152,18.007251976566987,0.3268004740024818,0.4877689598765541,-0.5895313236888531,-1.0,11.979857142857144,0.0,179.27770664977965,1.0607317779516072,96.46903371323076,1553.0,1435.0,1000.0,1330.0,1471.0,1011.0,183.0,293.5,1649156115.8705742,1649156116.9896262,74e87299-0eaa-457d-b07b-258242d7d571
0.1558427912953635,0.1910812960861803,0.6437908728219393,-0.0351288726476742,0.3937684364135982,-0.0516304869935094,0.2660551584858017,0.2435445915528069,-13.597585075581993,29.77175191081447,17.884010589922315,0.1886446964741194,0.7000488005564703,-1.7663818623213303,-1.0,11.979777777777777,0.0,179.23691957886453,1.0353219598073349,96.39873849045,1553.0,1435.0,1000.0,1210.0,1471.0,1011.0,183.0,293.5,1649156117.7528994,1649156118.832285,669ee661-4cb8-40bc-b40f-99cc1adecdfb
0.1566185644239849,0.1916203926239856,0.6483797673644685,-0.0337745569004719,0.3983967771181866,-0.0535107506138787,0.2705388636499639,0.2492905715654387,-13.579951349472784,29.75053610768145,17.904172939770714,0.1814644330988737,0.7018910411467381,-1.785198257101576,-1.0,11.972,0.0,179.23806097936583,1.0428068747843495,96.38914435139588,1553.0,1435.0,1000.0,1210.0,1471.0,1011.0,183.0,293.5,1649156118.9410057,1649156120.2829144,669ee661-4cb8-40bc-b40f-99cc1adecdfb
0.151503721747479,0.1845069482340099,0.6466441396296341,-0.0308818436153873,0.3971213536978361,-0.0495529928775388,0.2700786593215316,0.2432027252964878,-13.50403624067576,29.849384153026293,17.84462481461487,0.1844303651068961,0.6747372567331291,-1.7813468308501126,-1.0,11.967555555555556,0.0,179.2354988995172,1.0540077565509032,96.40455098143369,1553.0,1435.0,1000.0,1210.0,1471.0,1011.0,183.0,293.5,1649156120.3909168,1649156121.498145,669ee661-4cb8-40bc-b40f-99cc1adecdfb
0.2229427771265045,0.2147248423991218,0.8821032999359399,0.0102078330466303,0.6114593276197863,-0.1277028208781123,0.4888751397535811,0.4659881922542969,-12.215515052146491,30.674615456396413,18.054889985119686,-0.0659939982234465,0.7869711529769844,-2.700883611951719,-1.0,11.958777777777776,0.0,179.20887482213246,1.038152183870757,96.31533049703556,1553.0,1435.0,1000.0,1071.0,1471.0,1011.0,183.0,293.5,1649156123.4319365,1649156124.5674243,5bd0bb48-258d-4de2-aa2c-6a8f2285bbf9
0.2259149302344875,0.2244357019996536,0.8895405306288496,0.0046196370484962,0.6146643220153716,-0.1330992653300561,0.4963397635074391,0.4668921650981492,-11.867805390825922,30.637784134354103,17.96486108066458,-0.0652280861845021,0.8228885837052466,-2.7247574106580896,-1.0,11.953,0.0,179.2097657823642,1.0312190794024692,96.30648008969102,1553.0,1435.0,1000.0,1071.0,1471.0,1011.0,183.0,293.5,1649156124.6757252,1649156125.7110388,5bd0bb48-258d-4de2-aa2c-6a8f2285bbf9
0.231133318807487,0.2243809157624337,0.8926359526178723,0.0023734013352461,0.6187595926372743,-0.1332088378402474,0.4987366610409825,0.4820268609969849,-12.083617950417109,30.61057781892988,17.670413898932676,-0.0605891465391314,0.8272925797339905,-2.7385487626405123,-1.0,11.955333333333334,0.0,179.19822731612632,1.034166057012016,96.29978878103412,1553.0,1435.0,1000.0,1071.0,1471.0,1011.0,183.0,293.5,1649156125.8196144,1649156127.0235298,5bd0bb48-258d-4de2-aa2c-6a8f2285bbf9
-0.2068963293664205,0.0063043138017793,-0.4836216466639856,0.0381488127877752,-0.6182040705297496,0.1211773503066085,-0.8816848814163155,-0.913022625351984,-21.84103813506425,29.986149245815465,17.586851482923933,0.3527572114274735,-0.0124887359819794,2.7548984238278416,-1.0,11.962333333333332,0.0,179.33286552286543,1.0705902463430286,96.5400953266027,1553.0,1435.0,1000.0,1613.0,1471.0,1011.0,183.0,293.5,1649156129.3714075,1649156130.4081738,2a381d60-2a00-4076-ad5d-2cdd5ad06447
-0.2131693538041631,0.0081670458098718,-0.4753352265445857,0.0411894488412061,-0.6110544644275318,0.1151234715605293,-0.8745352739395112,-0.8980522790267025,-21.72363799989594,30.019707711510424,17.442225322763885,0.3329655210964212,-0.0048999531084977,2.723801978045691,-1.0,11.978111111111112,0.0,179.33225687711942,1.0652513744316383,96.47242864249536,1553.0,1435.0,1000.0,1613.0,1471.0,1011.0,183.0,293.5,1649156130.5172698,1649156131.7373292,2a381d60-2a00-4076-ad5d-2cdd5ad06447
-0.2193054127451028,0.0026336360249065,-0.4853748064588707,0.0469556999999781,-0.6194230644906916,0.1169451137911817,-0.8844926772997613,-0.9074344262809668,-21.74159357840596,30.07145188300314,17.60765021561097,0.3239121901588886,-0.028338202791048,2.762643126708483,-1.0,11.979111111111113,0.0,179.32330932930668,1.069403548406608,96.42960487421922,1553.0,1435.0,1000.0,1613.0,1471.0,1011.0,183.0,293.5,1649156131.8454924,1649156132.9628716,2a381d60-2a00-4076-ad5d-2cdd5ad06447
-0.2997453114573128,-0.027375524517066,-0.7395556253421778,0.1007557818134904,-0.850141690600565,0.1083847648304128,-1.1618755633167568,-1.1859952234458373,-23.57206322892681,30.64758892219423,17.209940924963586,0.1734941048469168,-0.1471381778631334,3.81306392859128,-1.0,11.974333333333334,0.0,179.35461588082237,1.0508973524359029,96.3609144206463,1553.0,1435.0,1000.0,1694.0,1471.0,1011.0,183.0,293.5,1649156133.830161,1649156134.872537,796acf85-1f62-4430-af39-fd7ace5de018
-0.3020463337328977,-0.0352099562721003,-0.7479105295691948,0.1053989150894037,-0.8563051450028727,0.1122198011283618,-1.1698195734419352,-1.2012395049335642,-23.67111697494842,30.71530887909545,17.208634339614353,0.1716210082894394,-0.1769095789204322,3.843151845568428,-1.0,11.958333333333334,0.0,179.36325379339274,1.056497111486059,96.28929533373928,1553.0,1435.0,1000.0,1694.0,1471.0,1011.0,183.0,293.5,1649156134.9819438,1649156136.0421722,796acf85-1f62-4430-af39-fd7ace5de018
-0.3108258290131093,-0.0392778342670362,-0.7468148043901072,0.1162876789794254,-0.8532234177606285,0.1070561986794752,-1.1702852567560602,-1.1876525079815048,-23.719105823879392,30.75454777107862,17.33549725830227,0.1357660660305671,-0.1942218355205332,3.837856386316527,-1.0,11.954333333333333,0.0,179.35341073188886,1.0400656921974512,96.22763314482228,1553.0,1435.0,1000.0,1694.0,1471.0,1011.0,183.0,293.5,1649156136.1509998,1649156137.266919,796acf85-1f62-4430-af39-fd7ace5de018
-0.365003397390201,-0.0635432062135065,-0.962532973082148,0.1801678785950081,-1.0499718588388856,0.0822495399249362,-1.414401434771044,-1.4387528465643096,-25.343454606105052,31.61417643784216,17.019438639009856,-0.069986667721279,-0.292459595338415,4.743141376668862,-1.0,11.93611111111111,0.0,179.37498957620662,1.0424135815826103,96.11879483930808,1553.0,1435.0,1000.0,1774.0,1471.0,1011.0,183.0,293.5,1649156139.4071703,1649156140.5411851,1361ed77-271b-4a43-8734-0bd8965b3710
-0.3707625274524346,-0.057613143977665,-0.9609682774488656,0.1836128369249722,-1.049551100386634,0.0735188056999143,-1.4155322239412556,-1.442815797610982,-25.28313781340972,31.62353101815589,17.056468891870974,-0.0972005864313853,-0.2712981582331965,4.742883752354464,-1.0,11.906222222222222,0.0,179.36341316447337,1.0390630773455365,95.9796069676718,1553.0,1435.0,1000.0,1774.0,1471.0,1011.0,183.0,293.5,1649156140.6491678,1649156141.8069165,1361ed77-271b-4a43-8734-0bd8965b3710
-0.3863305865821692,-0.0643715741167528,-0.9694886377472336,0.1832709708166718,-1.05584933020225,0.0800668563937053,-1.4213571024756115,-1.444735509306342,-25.31537527835792,31.55669555064847,16.947004488279262,-0.0826160702554261,-0.2959472191065421,4.770399471873987,-1.0,11.907333333333334,0.0,179.35303127693493,1.0401075033901828,95.86048467399726,1553.0,1435.0,1000.0,1774.0,1471.0,1011.0,183.0,293.5,1649156141.9223783,1649156142.8716495,1361ed77-271b-4a43-8734-0bd8965b3710
-0.3883072743214264,-0.07872392457362788,-0.9724383303321175,0.19233097002256647,-1.0547547004049203,0.08642918168049861,-1.4220008413436567,-1.4466135837115068,-25.40434352721653,31.594637284074764,17.0244548450825,-0.08868400729926652,-0.3511358357759617,4.772220099494375,-1.0,11.662444444444443,0.0,179.3647063469562,1.0519793919528537,95.52475507335424,1553.0,1435.0,1000.0,1856.0,1471.0,1011.0,183.0,293.5,1649156144.93389,1649156146.0720465,1301e080-01c6-402e-a199-bea2fccbeec8
-0.3817329249794441,-0.0677255875155746,-0.9657270125113285,0.18804394737751995,-1.0529330568415405,0.0807177168444932,-1.419097167962903,-1.4451069616054333,-25.30963662266457,31.77654937463042,17.21749837606612,-0.09022941728556279,-0.31131026588912775,4.7580135304583155,-1.0,11.679,0.0,179.3630079065826,1.0430914422838322,95.05611833947181,1553.0,1435.0,1000.0,1856.0,1471.0,1011.0,183.0,293.5,1649156146.1802614,1649156147.3051999,1301e080-01c6-402e-a199-bea2fccbeec8
-0.37777461882002644,-0.07239611420476351,-0.9670281862962664,0.1904134519229701,-1.0507689990596454,0.08240239352597781,-1.417207040631918,-1.4325061137090565,-25.32713598361597,31.533086521500604,17.121959239139056,-0.09349151822280717,-0.32823531667144196,4.753557086285821,-1.0,11.685555555555558,0.0,179.3535048367174,1.0320232748874014,94.70991426428165,1553.0,1435.0,1000.0,1856.0,1471.0,1011.0,183.0,293.5,1649156147.413477,1649156148.5386784,1301e080-01c6-402e-a199-bea2fccbeec8
