raw_voltage_G-,raw_voltage_G0,raw_voltage_G1,raw_voltage_G2,raw_voltage_G3,raw_voltage_G4,raw_voltage_G5,raw_voltage_G6,load_x,load_y,load_z,load_l,load_m,load_n,rpm,voltage,current,roll,pitch,yaw,aileron1_pwm,elevator_pwm,throttle_pwm,rudder_pwm,aileron2_pwm,pbaro,pdiff,Tt,sample_start_time,sample_end_time,uid
0.1642974027792834,0.2729187775504208,0.4252332639857513,-0.1313773338329518,0.1351335953622318,-0.0218486890298894,0.0835118147769854,0.0635915400327576,-7.644666782023793,28.370094389420107,19.357391774131,0.4557382665583921,0.9497683677812906,-0.8404161659430989,-1.0,11.98911111111111,0.0,179.19516739137816,1.1485918960121222,94.26356823221047,1553.0,1435.0,1000.0,1528.0,1471.0,1011.0,183.0,293.5,1649156193.8817725,1649156195.0195267,011c3b25-4621-438a-95ec-7c8731ba92ba
0.1735672333337997,0.2825041765354586,0.4327411689191922,-0.1328105418531725,0.1409584676607367,-0.0292382565106208,0.0883636836550891,0.0675624462627653,-7.677422142171824,28.333993166187817,19.50255071281704,0.4425070630443722,0.9853165436931176,-0.8641480692895481,-1.0,11.988666666666669,0.0,179.19523569326986,1.153124011117641,94.16537515597264,1553.0,1435.0,1000.0,1528.0,1471.0,1011.0,183.0,293.5,1649156195.1291437,1649156196.2479317,011c3b25-4621-438a-95ec-7c8731ba92ba
0.165020581040546,0.2806502104770189,0.4265086874198078,-0.1386354146866845,0.1349495136289283,-0.022716503014742,0.0846689000428655,0.0546635749883963,-7.649329194065968,28.2692736407531,19.37141393417862,0.4695556677500373,0.9796474335790398,-0.8426216655370432,-1.0,11.99,0.0,179.17315141495348,1.159724713046322,94.07243221847683,1553.0,1435.0,1000.0,1528.0,1471.0,1011.0,183.0,293.5,1649156196.3566496,1649156197.4752464,011c3b25-4621-438a-95ec-7c8731ba92ba
0.4015458896242769,0.708787063485485,0.4635775982883369,-0.2649971374797268,0.0785947502963971,-0.3171536399960951,0.0049620510345533,-0.011131405834822,-7.306654479629686,27.60863061850121,20.44996593294145,0.0907679179064036,2.5913329907740783,-0.6501792415999784,-1.0,11.965333333333332,0.0,178.89131048904207,1.1552571645728007,93.90155226909172,1631.0,1435.0,1000.0,1528.0,1531.0,1011.0,183.0,293.5,1649156199.3659077,1649156200.5485666,e2c2d87e-f019-43b6-9899-abf5e3c8fa17
0.3980943571152882,0.6966108240827676,0.4651527023884355,-0.2614908180567479,0.0827722006364408,-0.3102094837818021,0.0091395014665024,-0.017089408930793,-7.367934397078694,27.65242262061658,20.22218437984241,0.0987645422485329,2.5477861291863526,-0.665788595421442,-1.0,11.96388888888889,0.0,178.86932183337407,1.1443932506632686,93.92914775115842,1631.0,1435.0,1000.0,1528.0,1531.0,1011.0,183.0,293.5,1649156200.657438,1649156201.7855775,e2c2d87e-f019-43b6-9899-abf5e3c8fa17
0.398231322702276,0.706362772849964,0.4756853550151499,-0.2637918401932236,0.0905655423838018,-0.3175508402502904,0.0186175201157282,-0.0098028396025558,-7.186578217921482,27.583392861495582,20.312537453449966,0.0876306182689275,2.5832273231225984,-0.7028128484920777,-1.0,11.963111111111113,0.0,178.8693946887252,1.1321433656766873,93.94398975222484,1631.0,1435.0,1000.0,1528.0,1531.0,1011.0,183.0,293.5,1649156201.8940506,1649156203.0058973,e2c2d87e-f019-43b6-9899-abf5e3c8fa17
0.6764259337250538,1.2045827271860063,0.5152229331981936,-0.4197545791246179,0.0176105491367668,-0.6627557038911636,-0.0777963935773468,-0.1089325080790448,-6.528000851952381,26.95412932191484,20.0049655260316,-0.3381973491652912,4.471617971726669,-0.4608645242705354,-1.0,11.931777777777777,0.0,178.43404905576733,1.1189867849357542,93.95082677158403,1712.0,1435.0,1000.0,1528.0,1591.0,1011.0,183.0,293.5,1649156203.9151127,1649156205.062228,fa7adfea-9ee8-476a-b8ce-ebb03df68b53
0.6904747664334683,1.218737298446824,0.5203909182105843,-0.4203709244200473,0.0198776035473065,-0.6732094691504086,-0.0770803374465157,-0.1074730030198578,-6.532609371869188,26.962347668034187,20.43210940956573,-0.3599204505775302,4.521356719738203,-0.4697132247531693,-1.0,11.935555555555554,0.0,178.43540750450225,1.1263621441528002,94.05917254456811,1712.0,1435.0,1000.0,1528.0,1591.0,1011.0,183.0,293.5,1649156205.1708868,1649156206.331391,fa7adfea-9ee8-476a-b8ce-ebb03df68b53
0.675479227685609,1.203267857589896,0.5190623521504552,-0.4108792073669695,0.0235932060038196,-0.6669501395891224,-0.0740490149647373,-0.0958232572942456,-6.529592184239679,26.857783879552947,20.41750291990269,-0.3680260187726917,4.462190382353718,-0.4790431410917678,-1.0,11.94,0.0,178.42623683717662,1.1321695243525711,94.14158864273313,1712.0,1435.0,1000.0,1528.0,1591.0,1011.0,183.0,293.5,1649156206.440304,1649156207.5107658,fa7adfea-9ee8-476a-b8ce-ebb03df68b53
0.9459292578334948,1.688693651320649,0.5756565269161297,-0.5466532260557663,-0.0324432513267504,-1.0229238768716369,-0.1547261329307776,-0.1737369582528187,-5.501859102140149,26.51632203381882,19.560906802688283,-0.8607384069752403,6.303448858655884,-0.3077997251871988,-1.0,11.886666666666668,0.0,178.27006835635382,1.10261906664753,94.3590588302667,1796.0,1435.0,1000.0,1528.0,1650.0,1011.0,183.0,293.5,1649156209.4464328,1649156210.5834246,4109624d-489b-48dd-aeb1-a477ed0ed488
0.9452033402846116,1.6894469621809245,0.587832766335028,-0.5442015413469535,-0.0211025005048222,-1.0282244484929246,-0.1427964294882346,-0.1665599606964125,-5.375893573271042,26.51390432781007,19.3255635885746,-0.8775637382532547,6.307938533097868,-0.3569593488074942,-1.0,11.893,0.0,178.25733688374098,1.1029255002387306,94.46337403273056,1796.0,1435.0,1000.0,1528.0,1650.0,1011.0,183.0,293.5,1649156210.691583,1649156211.8128462,4109624d-489b-48dd-aeb1-a477ed0ed488
0.9404122844711322,1.6905191290018855,0.5869096183731964,-0.5523986601226847,-0.0220064734054247,-1.021688994415353,-0.1410810723968637,-0.1692718795783824,-5.395066184116695,26.39125600708425,19.335552702907577,-0.8452540844834422,6.312955614385149,-0.3568031785131256,-1.0,11.888875,0.0,178.24271515627527,1.0932006315417415,94.51193582395572,1796.0,1435.0,1000.0,1528.0,1650.0,1011.0,183.0,293.5,1649156211.9221883,1649156213.0371215,4109624d-489b-48dd-aeb1-a477ed0ed488
1.1563533107168886,2.0432987519070887,0.6586357494366104,-0.6678968466787354,-0.0417952618437638,-1.2724611220462152,-0.1712310353134546,-0.1881928549697508,-4.512834871691285,26.813868744868536,17.856873114889012,-1.141655511194951,7.661729492384841,-0.3446619800875952,-1.0,11.823,0.0,178.09068482145207,1.0685388061405956,94.57170766315616,1886.0,1435.0,1000.0,1528.0,1710.0,1011.0,183.0,293.5,1649156214.9746282,1649156216.113818,04ade7b1-7faa-4676-9b21-e59f8b5bda0e
1.1415347305656796,2.035988073735313,0.655177642660615,-0.6614934289407945,-0.0445827855432645,-1.269344878199102,-0.1738081799878763,-0.1914142859223996,-4.405145991550068,26.931362626423493,18.094436890177107,-1.1483986693682382,7.630436656525863,-0.3329484834829544,-1.0,11.828222222222225,0.0,178.09785652008057,1.062481270262473,94.56788123940116,1886.0,1435.0,1000.0,1528.0,1710.0,1011.0,183.0,293.5,1649156216.221833,1649156217.3421097,04ade7b1-7faa-4676-9b21-e59f8b5bda0e
1.157470949905452,2.0454814362647737,0.6517063871904881,-0.6590740679944134,-0.0477910675505971,-1.282230611976237,-0.1807112461172966,-0.1959768841623345,-4.473536418068557,26.780957015430022,17.864035892579288,-1.1840531748097909,7.6680481417987805,-0.3131596358644909,-1.0,11.829,0.0,178.09703689738018,1.0662287436711524,94.59713873416584,1886.0,1435.0,1000.0,1528.0,1710.0,1011.0,183.0,293.5,1649156217.4510715,1649156218.7752235,04ade7b1-7faa-4676-9b21-e59f8b5bda0e
-0.1461109969658235,-0.2917328234672333,0.3841375650287027,0.0574472639197966,0.21668345019646,0.3552241320199645,0.1912215488493537,0.1677045583469464,-7.961119690803572,29.521015333225648,19.27338135288903,0.8825398292636087,-1.1908681620843302,-1.1163071882708062,-1.0,11.97777777777778,0.0,179.37370701846248,1.1777789544510102,94.5698673066298,1475.0,1435.0,1000.0,1528.0,1408.0,1011.0,183.0,293.5,1649156219.8915532,1649156221.031313,07da8d73-edf8-41bd-8101-d71ca44eee4d
-0.1435908299760975,-0.2851447778697678,0.3825624609113556,0.0520508198478549,0.2128347174051153,0.3538818693781607,0.1881124301771727,0.1633216598384513,-7.956531479582115,29.5639830017063,19.275218853510538,0.8919056522690706,-1.165642452276398,-1.103753309036987,-1.0,11.979333333333336,0.0,179.3832207130664,1.1667414161841387,94.5020169663248,1475.0,1435.0,1000.0,1528.0,1408.0,1011.0,183.0,293.5,1649156221.1394596,1649156222.2649314,07da8d73-edf8-41bd-8101-d71ca44eee4d
-0.1309352089405819,-0.2772007727952705,0.3883834978595175,0.0438739743448048,0.2160534085299284,0.3529368068909781,0.1946730814795294,0.1675128065321055,-7.813240303666582,29.47257739344381,19.225038858178248,0.9079749708934808,-1.1350428217959827,-1.1244564892348603,-1.0,11.978666666666667,0.0,179.3600800321584,1.161205192122824,94.40987999115106,1475.0,1435.0,1000.0,1528.0,1408.0,1011.0,183.0,293.5,1649156222.3729267,1649156223.4659796,07da8d73-edf8-41bd-8101-d71ca44eee4d
-0.3549314942288089,-0.6750760368235571,0.3432774466096609,0.1711215759362888,0.255444161206504,0.6314573969445749,0.2546815368605414,0.223887291431699,-8.062170386010987,30.49482692212002,20.10210752686981,1.2513536522414264,-2.651837589394911,-1.2484466937824894,-1.0,11.921,0.0,179.51400062183433,1.179036610463808,94.26115717543344,1396.0,1435.0,1000.0,1528.0,1340.0,1011.0,183.0,293.5,1649156225.4213562,1649156226.5581462,60f4a109-fc9b-4505-bd5b-aae56cdc3e65
-0.3642835060642131,-0.685700735252938,0.3401031324159618,0.1737036510670921,0.254746184622415,0.6388113524666955,0.2538696049205163,0.2291884074396177,-8.133219117650837,30.528495714957653,19.990316783652727,1.262065993961061,-2.690711576582189,-1.24349719179685,-1.0,11.922777777777776,0.0,179.50869280593935,1.1731527700908286,94.07613342209709,1396.0,1435.0,1000.0,1528.0,1340.0,1011.0,183.0,293.5,1649156226.6664343,1649156227.7871628,60f4a109-fc9b-4505-bd5b-aae56cdc3e65
-0.3614483179480163,-0.6884948342568645,0.3420617401494565,0.177223666486909,0.2579100894741143,0.6392085526264469,0.2547050949306393,0.2235180323976529,-8.300937356893222,30.595626379975496,20.12914035032601,1.2554985104440275,-2.7015425534085864,-1.2519221673860217,-1.0,11.92988888888889,0.0,179.50917395482088,1.1647842705377474,93.94486098079898,1396.0,1435.0,1000.0,1528.0,1340.0,1011.0,183.0,293.5,1649156227.894963,1649156229.2204263,60f4a109-fc9b-4505-bd5b-aae56cdc3e65
-0.6786524837367387,-1.256288211044641,0.2944826380951827,0.4050105708006872,0.3319695686339803,0.985328227514028,0.3407791945021927,0.3238962695556239,-8.620224595538204,32.48071122903416,20.190459668131663,1.5294205737199216,-4.860426301847104,-1.4781057534774775,-1.0,11.893,0.0,179.70239089952167,1.1979747328937451,93.6530335594111,1314.0,1435.0,1000.0,1528.0,1268.0,1011.0,183.0,293.5,1649156231.3604405,1649156232.498614,3b780859-da2f-4e6d-b345-e8945e9a278f
-0.6689087483334785,-1.2579706978033536,0.2958769476522471,0.4058740017710127,0.3336246606475669,0.9864984614192348,0.3424726368718334,0.3174353293285275,-8.627641138310652,32.49996233112742,20.247153314830047,1.5303049060150735,-4.86720422058568,-1.4848008837624382,-1.0,11.89311111111111,0.0,179.69992292450155,1.1722215757760162,93.48154420537008,1314.0,1435.0,1000.0,1528.0,1268.0,1011.0,183.0,293.5,1649156232.606451,1649156233.728606,3b780859-da2f-4e6d-b345-e8945e9a278f
-0.669264858969718,-1.248040684135775,0.2941648779509578,0.3980669640181181,0.329241762208865,0.983088018553258,0.339075890593524,0.3155862940663103,-8.61104382136323,32.475021697785216,20.104132822660304,1.539986922221468,-4.827958262267639,-1.470708030185623,-1.0,11.892222222222223,0.0,179.7250489137283,1.1834989177157784,93.33554208167187,1314.0,1435.0,1000.0,1528.0,1268.0,1011.0,183.0,293.5,1649156233.837249,1649156235.1687353,3b780859-da2f-4e6d-b345-e8945e9a278f
-0.8150571169383067,-1.5141607023917274,0.271459272339993,0.4747775471678262,0.360305007017173,1.1425866262071116,0.3771879317341388,0.3553216514672691,-9.112828736802465,33.46655715122418,15.804714143962164,1.7298657916347742,-5.795280294015701,-1.5746802285965469,-1.0,11.743000000000002,0.0,179.79176620154098,1.1893221638758087,93.10934367128893,1227.0,1435.0,1000.0,1528.0,1189.0,1011.0,183.0,293.5,1649156235.7705014,1649156236.7992923,bd9c4b3b-141d-472f-b3b3-6560d5bba4ff
-0.8193792049136506,-1.5016464163708,0.2787836435784422,0.4699054077567616,0.3637159977082945,1.1354485280192523,0.381822846800176,0.3702081658731972,-9.002957294824524,33.48745393920946,15.940429609511966,1.725396057178867,-5.749260053497982,-1.5941779924129833,-1.0,11.761111111111113,0.0,179.78525779017187,1.186840160880384,92.7890222185036,1227.0,1435.0,1000.0,1528.0,1189.0,1011.0,183.0,293.5,1649156236.9076574,1649156238.0322523,bd9c4b3b-141d-472f-b3b3-6560d5bba4ff
-0.8141235588968722,-1.5084147155270384,0.2751014609936872,0.4735152724545692,0.3625534339144663,1.1382344078401745,0.3792128308009732,0.357359699153889,-9.101563107424957,33.46626669647307,15.842871607057878,1.7231243429109646,-5.773760970282206,-1.5848443836571602,-1.0,11.76422222222222,0.0,179.7922837780981,1.1864501167616877,92.4803181585865,1227.0,1435.0,1000.0,1528.0,1189.0,1011.0,183.0,293.5,1649156238.141023,1649156239.4634545,bd9c4b3b-141d-472f-b3b3-6560d5bba4ff
0.1709243454698549,0.2985455849829215,0.3978050858433538,-0.1144023658966978,0.1088625008129746,-0.0610843999193891,0.0405418755712883,0.0107337805109364,-8.078289660803419,28.2641457143935,19.30396836844318,0.3269841391444732,1.0455964641149826,-0.7031517458870699,-1.0,11.986555555555556,0.0,179.14167183197884,1.1053469445951078,92.10881430380071,1553.0,1435.0,1000.0,1528.0,1471.0,1011.0,183.0,293.5,1649156241.3964305,1649156242.5335617,d41c27d8-d308-4e0a-9296-80ba9bf9386f
0.1568568845160688,0.2915899250974115,0.39443737628434,-0.1104862456474883,0.1067685709760202,-0.0586995550332222,0.0377927023223443,0.0116185784446298,-8.08668457590739,28.33601806873918,19.162492695273663,0.323791379447376,1.0201273888624829,-0.6928371481165888,-1.0,11.986333333333334,0.0,179.1432033121727,1.1181193983430318,92.49782317451934,1553.0,1435.0,1000.0,1528.0,1471.0,1011.0,183.0,293.5,1649156242.6423657,1649156243.962219,d41c27d8-d308-4e0a-9296-80ba9bf9386f
0.16174655576081,0.2938635536896752,0.3956152802356038,-0.1104588525744623,0.1070014124761974,-0.0587269481912312,0.0390390891674655,0.0097969360230798,-7.997572862025062,28.34191916471684,19.48746891443092,0.3238624617890226,1.0252153118368448,-0.6957408928707883,-1.0,11.985111111111111,0.0,179.1626101563344,1.1343922173188812,92.81073690769487,1553.0,1435.0,1000.0,1528.0,1471.0,1011.0,183.0,293.5,1649156244.0713613,1649156245.1973135,d41c27d8-d308-4e0a-9296-80ba9bf9386f
0.1924224630344968,0.2993871014927043,0.3798702655654808,-0.5553439689003382,0.0437107113879526,0.3650122399324777,0.1428124337801643,0.1192368215544371,-7.773189335679474,27.43022018685589,22.6039479743918,2.273394795492253,1.07048383599929,-0.7341314437339461,-1.0,11.977222222222222,0.0,179.15445794610508,1.283298938251458,93.39325338560894,1553.0,1522.0,1000.0,1528.0,1471.0,1011.0,183.0,293.5,1649156247.3350213,1649156248.4713066,4e177ca5-40f3-4c06-9f27-ee327f1d95b6
0.1922252326018485,0.3046860257437532,0.3915068608379498,-0.5592754302683484,0.052651824843041,0.3635001399712494,0.1567369027006404,0.1394463674084703,-7.4213238299049955,27.32512327363033,22.71016574195664,2.278942095093492,1.088146163472978,-0.7809512890926849,-1.0,11.981000000000002,0.0,179.14877219307598,1.2836469340180772,93.4973606467581,1553.0,1522.0,1000.0,1528.0,1471.0,1011.0,183.0,293.5,1649156248.5804272,1649156249.707555,4e177ca5-40f3-4c06-9f27-ee327f1d95b6
0.1849622217695531,0.2958358580027148,0.3805901566203311,-0.5546109288851664,0.0450929680716639,0.3671812267905407,0.1452148100737713,0.1315867342442833,-7.707087811764623,27.399465234817985,22.525677974392853,2.2764680045001846,1.0573452312270548,-0.7408907076303191,-1.0,11.979111111111113,0.0,179.15758010146567,1.2920639207994848,93.59692203755964,1553.0,1522.0,1000.0,1528.0,1471.0,1011.0,183.0,293.5,1649156249.8226354,1649156251.1364155,4e177ca5-40f3-4c06-9f27-ee327f1d95b6
0.2201623758782692,0.2990271559555514,0.3936703690625662,-1.0756419665374788,-0.0032695808273555,0.8655167688924593,0.2989586731636109,0.2788521263052795,-7.02627886972306,26.70703684883241,26.25182372538588,4.568610660953226,1.0964387501825434,-0.9099140492931972,-1.0,11.960666666666665,0.0,179.1443234631966,1.434643989285861,93.7548602962874,1553.0,1613.0,1000.0,1528.0,1471.0,1011.0,183.0,293.5,1649156251.8048828,1649156252.9772313,1e9f6a77-4625-4fd0-911f-151bf7801e81
0.2122183722505663,0.2893436896290615,0.3870412352190404,-1.0747790827573498,-0.0069265620389132,0.8734607721859353,0.293315691365586,0.2747568553555037,-7.29400535205485,26.767369915931567,26.09881941295853,4.58442615477312,1.0628453715576245,-0.88945438887098,-1.0,11.961555555555556,0.0,179.1473788344853,1.45489060283445,93.74179718004476,1553.0,1613.0,1000.0,1528.0,1471.0,1011.0,183.0,293.5,1649156253.0858958,1649156254.2071412,1e9f6a77-4625-4fd0-911f-151bf7801e81
0.2128210208102613,0.2862208744624528,0.384644337661495,-1.06772535012577,-0.008227735120128,0.8685574046321919,0.2898641588261993,0.2617999118104866,-7.266728111014021,26.795521624121687,25.86729551004457,4.55754023652721,1.0519719063765594,-0.8801356975495792,-1.0,11.960444444444445,0.0,179.15574050384922,1.45619390016342,93.71161912756196,1553.0,1613.0,1000.0,1528.0,1471.0,1011.0,183.0,293.5,1649156254.3154871,1649156255.4354007,1e9f6a77-4625-4fd0-911f-151bf7801e81
0.231802806547942,0.2812419017837437,0.3762149282811241,-1.5517002742968138,-0.0733784314370052,1.3414080605874723,0.4105067253967753,0.3917172399327822,-6.858860714212866,26.47719116004697,29.470119912331853,6.710077292598072,1.0575270985551852,-0.9510258373423668,-1.0,11.923333333333334,0.0,179.16105742666312,1.6255546779246908,93.6565943646984,1553.0,1710.0,1000.0,1528.0,1471.0,1011.0,183.0,293.5,1649156256.3498676,1649156257.4990578,c3f2154d-1a39-4d7a-a37d-6878f5a6a48c
0.2436108830416033,0.2763593528641757,0.3752484991785904,-1.5523237424286112,-0.0730535490526553,1.3459920249527062,0.4109554246144509,0.3906571263221507,-6.93252349856695,26.47273566073344,29.358582675519063,6.721651946531961,1.040739910594483,-0.951593096251545,-1.0,11.921666666666663,0.0,179.15267450782176,1.6200483477989625,93.53487735804914,1553.0,1710.0,1000.0,1528.0,1471.0,1011.0,183.0,293.5,1649156257.6075814,1649156258.7125118,c3f2154d-1a39-4d7a-a37d-6878f5a6a48c
0.2351162778599541,0.2961525224102391,0.3899290174127622,-1.56382338681653,-0.0645819532552841,1.3377395742531106,0.4241945170690777,0.4142278060191101,-6.639182394165077,26.376138837742324,29.54404085126324,6.729315831568289,1.1136013038985315,-0.9991920214627418,-1.0,11.921333333333331,0.0,179.15984165299085,1.6341298381320342,93.45243090348784,1553.0,1710.0,1000.0,1528.0,1471.0,1011.0,183.0,293.5,1649156258.8211155,1649156259.9427938,c3f2154d-1a39-4d7a-a37d-6878f5a6a48c
0.2479937815619347,0.2723325648679973,0.3598535684272161,-1.794068328727228,-0.1245252191512456,1.5852709223137342,0.4487990127393669,0.42810351442895,-6.988693683185822,27.401297100231684,31.24197686908079,7.810321067358856,1.0381458150202056,-0.9147539410586116,-1.0,11.882444444444443,0.0,179.16010423581895,1.7347277812879398,93.34895201974231,1553.0,1814.0,1000.0,1528.0,1471.0,1011.0,183.0,293.5,1649156260.8514135,1649156261.8026898,9df90d9d-1a13-446a-a6c8-2205c1312ea5
0.2451038078551927,0.2795506508086431,0.3644419152520617,-1.7978348894569107,-0.1216078519489823,1.58047712692444,0.451510931145936,0.429062273450322,-7.019449085591496,27.38630477515089,31.10138337852958,7.808136397437631,1.067436148301513,-0.9282164024200954,-1.0,11.884,0.0,179.1415913875286,1.7046188844704466,93.17970372665894,1553.0,1814.0,1000.0,1528.0,1471.0,1011.0,183.0,293.5,1649156261.911651,1649156263.2195845,9df90d9d-1a13-446a-a6c8-2205c1312ea5
0.2466926085529415,0.2872070266110505,0.3609903826816443,-1.7984238412765583,-0.1274562829682386,1.5714100033684475,0.4451968180891434,0.4306647705599033,-6.896261899690754,27.417511418501302,30.76335137675848,7.789133025522903,1.0981305261414895,-0.9060380235734486,-1.0,11.886777777777777,0.0,179.13606804121977,1.7146093405079943,93.03643216080894,1553.0,1814.0,1000.0,1528.0,1471.0,1011.0,183.0,293.5,1649156263.3283608,1649156264.455478,9df90d9d-1a13-446a-a6c8-2205c1312ea5
0.1479535738176872,0.2990583841033415,0.4246941674841789,0.3762938204390972,0.1807201238552734,-0.5322942978479555,-0.0711825990741748,-0.0997678666650091,-8.214485528137157,29.87741627719861,16.28016555681021,-1.8272949005634465,1.016600402521676,-0.6792630076452757,-1.0,11.986222222222224,0.0,179.13590867013914,1.0099175810820666,92.86507637491168,1553.0,1349.0,1000.0,1528.0,1471.0,1011.0,183.0,293.5,1649156266.3859522,1649156267.5194256,28bebe3c-24c6-482e-9a53-ba012e67571b
0.1366133714640418,0.2931239395737194,0.4186391933628015,0.370536883389462,0.1761964246421647,-0.5185067902805733,-0.0742451496966555,-0.0958720170959746,-8.38878387351417,29.87849414459087,16.625555614909146,-1.7836533227438245,0.992840052273524,-0.6608912869397573,-1.0,11.982111111111111,0.0,179.13975330773195,0.9979414491287822,93.21259867661163,1553.0,1349.0,1000.0,1528.0,1471.0,1011.0,183.0,293.5,1649156267.6283827,1649156268.75409,28bebe3c-24c6-482e-9a53-ba012e67571b
0.1357647326977745,0.2931940659387911,0.4240235840354922,0.3659194998993996,0.1810751386411138,-0.5148328244293721,-0.0674615178537646,-0.0908136036856563,-8.38865184077616,29.854161712873733,16.600324923741287,-1.7648788964099424,0.9942351809959832,-0.6845917424983563,-1.0,11.975333333333332,0.0,179.15273218497475,0.9954860672699664,93.46793087944432,1553.0,1349.0,1000.0,1528.0,1471.0,1011.0,183.0,293.5,1649156268.8623807,1649156269.8264408,28bebe3c-24c6-482e-9a53-ba012e67571b
0.1084943372526882,0.3023192605674406,0.4460476483941589,0.8587325900748624,0.2467660221523003,-0.9987708020934648,-0.1918218954011433,-0.224207138121195,-8.835001032085307,31.651338507100164,13.176161758006726,-3.951777898974744,1.002718478153541,-0.6274776818674881,-1.0,11.957222222222224,0.0,179.14022990315402,0.8275130274228738,94.05614449403608,1553.0,1264.0,1000.0,1528.0,1471.0,1011.0,183.0,293.5,1649156271.924308,1649156273.0468588,627f39a0-a2d4-494a-9537-d23c6ee24543
0.1085902131762367,0.298095790032072,0.4450050664402619,0.8650373893743429,0.2472541674672518,-0.9994205672139496,-0.1937613282973556,-0.2176344324994799,-8.926969335399681,31.71466459533893,13.30900153671694,-3.9671173268970032,0.9855101933235596,-0.6243187666159983,-1.0,11.950777777777777,0.0,179.14028909812683,0.8261698339628921,94.20589563267872,1553.0,1264.0,1000.0,1528.0,1471.0,1011.0,183.0,293.5,1649156273.1551092,1649156274.4893672,627f39a0-a2d4-494a-9537-d23c6ee24543
0.1201177845509458,0.302306111868711,0.4447196301827005,0.8562869327845027,0.2447805691174451,-0.9938663353254062,-0.192873791214232,-0.2235234058161886,-8.866835028756958,31.719098937803167,13.541362010261034,-3.934814847384088,0.9998757877784328,-0.6210235369509395,-1.0,11.950333333333331,0.0,179.14343553860448,0.8241056879484876,94.34199929444974,1553.0,1264.0,1000.0,1528.0,1471.0,1011.0,183.0,293.5,1649156274.6027298,1649156275.7067726,627f39a0-a2d4-494a-9537-d23c6ee24543
0.1030113310654432,0.3093406639024921,0.4772889479565075,1.2952298386298904,0.3135088003483206,-1.4256041356528015,-0.2969720318402097,-0.3130002950523414,-9.626821817222394,33.821966002242526,10.311287734329262,-5.880470541347846,1.0083238188513406,-0.6120661173553437,-1.0,11.925222222222224,0.0,179.135975454211,0.6402035975268183,94.66113077649968,1553.0,1178.0,1000.0,1528.0,1471.0,1011.0,183.0,293.5,1649156277.8507073,1649156278.8941205,88989dc6-0ce5-4cf0-b82a-5ef19dc8a75d
0.0997504544417193,0.3182686280730838,0.4822591546943062,1.2968076821728551,0.3160202011661389,-1.4360310627100867,-0.2935270729073428,-0.3141705292526016,-9.361067774026258,33.75772515405264,10.310894202845295,-5.907505133276159,1.040051387529262,-0.6258607843878984,-1.0,11.932444444444444,0.0,179.14722553468397,0.6400669759564672,94.785546466781,1553.0,1178.0,1000.0,1528.0,1471.0,1011.0,183.0,293.5,1649156279.0159614,1649156279.967336,88989dc6-0ce5-4cf0-b82a-5ef19dc8a75d
0.1140167896283967,0.3140215994722933,0.4856778154092551,1.2967156412884062,0.3212402332187913,-1.430245630191339,-0.2889776233869021,-0.3086875224609089,-9.545034991890889,33.74627786749665,10.561369352631097,-5.894255208428351,1.023432430839117,-0.6443934937023209,-1.0,11.938,0.0,179.13071317291048,0.6392110441601654,94.9096859138559,1553.0,1178.0,1000.0,1528.0,1471.0,1011.0,183.0,293.5,1649156280.0806224,1649156281.454036,88989dc6-0ce5-4cf0-b82a-5ef19dc8a75d
0.081776186821164,0.3177558289541186,0.4881892161660176,1.5274752729294077,0.3375446154444209,-1.6533661221865066,-0.3650296946974131,-0.388066215407817,-10.035560830268327,35.53742505106801,9.269406984849176,-6.904628020437665,1.0241386492317337,-0.5621672138912694,-1.0,11.883,0.0,179.12252908846497,0.5511273890169144,95.15314876573092,1553.0,1088.0,1000.0,1528.0,1471.0,1011.0,183.0,293.5,1649156283.379969,1649156284.5196111,d493d7a7-eed7-4c1e-93e1-1f3a9d580730
0.0937020542241542,0.3264339678946253,0.4990500382730801,1.5360613724070555,0.3457494012936763,-1.6690525373979628,-0.3579293975294564,-0.3793091819694716,-9.768113803234352,35.57978120872333,9.4393099595641,-6.958262336661255,1.052920280352067,-0.5967216141936234,-1.0,11.900625,0.0,179.12534464422282,0.5568383157694703,95.18652201865298,1553.0,1088.0,1000.0,1528.0,1471.0,1011.0,183.0,293.5,1649156284.6281557,1649156285.7425416,d493d7a7-eed7-4c1e-93e1-1f3a9d580730
0.0939485922729124,0.3283651825237856,0.5005035169423768,1.5310736332416102,0.3467048731592017,-1.6686761556320615,-0.3575584946601564,-0.3705565315358569,-9.92599684881165,35.611112831181735,9.116580325144511,-6.946016283652909,1.0648480829813929,-0.6009208474695792,-1.0,11.902,0.0,179.11899256829471,0.5233621423612672,95.20385760794892,1553.0,1088.0,1000.0,1528.0,1471.0,1011.0,183.0,293.5,1649156285.8514588,1649156286.955819,d493d7a7-eed7-4c1e-93e1-1f3a9d580730
0.1742241202507222,0.3105870506667266,0.4075312852501693,-0.1445221959819928,0.1101516208838263,-0.041934966714272,0.0546120763037682,0.0271367793582839,-7.811175960580537,28.36236692412378,19.849318784206925,0.4393152400083577,1.088361940210848,-0.7360898413002112,-1.0,11.986666666666666,0.0,179.1356809971668,1.0589586832038105,95.21772289196402,1553.0,1435.0,1000.0,1528.0,1471.0,1011.0,183.0,293.5,1649156288.909242,1649156290.042024,c367c361-7748-4aca-ae29-bf264a1ca882
0.1575258244163161,0.2987691128048231,0.4043794334365973,-0.1361108648096751,0.1104403443261022,-0.0381662215374136,0.0529805422427483,0.0246713990436354,-7.883282861990492,28.39457229882144,19.821636655479583,0.4288260539679399,1.043558309594088,-0.7313227225698519,-1.0,11.986444444444444,0.0,179.1448334506546,1.0721982459999722,95.20399952410166,1553.0,1435.0,1000.0,1528.0,1471.0,1011.0,183.0,293.5,1649156290.1498125,1649156291.4793084,c367c361-7748-4aca-ae29-bf264a1ca882
0.1762890133204541,0.3093538125877574,0.4080873654829763,-0.1370444223360334,0.1120839313387166,-0.0465156439515606,0.0541507762097178,0.0229620681534839,-7.823864448489141,28.34427060853547,20.00579394283069,0.4120801037578754,1.0815537898575271,-0.7386873315233413,-1.0,11.989111111111113,0.0,179.13921751733704,1.0649520200469214,95.22889859926596,1553.0,1435.0,1000.0,1528.0,1471.0,1011.0,183.0,293.5,1649156291.5879834,1649156292.7133017,c367c361-7748-4aca-ae29-bf264a1ca882
0.2680318457062701,0.3393224286390576,0.6897214557819232,-0.1662175465092714,0.3669757784206642,-0.0637809784834808,0.3497592055260037,0.3266531126953373,-5.7752725013278825,28.25857629963588,20.119289814620146,0.4535947328544032,1.199893461809611,-1.8856426364742616,-1.0,11.96922222222222,0.0,179.12353540300268,1.061538419565796,95.14362141074864,1553.0,1435.0,1000.0,1435.0,1471.0,1011.0,183.0,293.5,1649156294.26811,1649156295.3716228,339733c6-0710-4aab-b13a-cc03bcb3c833
0.2578142135341555,0.3405551188278166,0.684023687963666,-0.1661490637073964,0.361825872762255,-0.0663970212822355,0.3426096024506845,0.3203253029207621,-5.885213993095458,28.250750420768068,19.87942684822284,0.4471324881784183,1.207051065240494,-1.860944304977104,-1.0,11.983333333333333,0.0,179.12368718498428,1.0730901074372206,95.13901406869851,1553.0,1435.0,1000.0,1435.0,1471.0,1011.0,183.0,293.5,1649156295.480272,1649156296.6019433,339733c6-0710-4aab-b13a-cc03bcb3c833
0.2659225757752805,0.3450886793971564,0.6850372332001841,-0.1694773277192947,0.3609492930860616,-0.0668353111691118,0.3418699883439025,0.3199144061909928,-5.9263849100646055,28.343530768232245,20.012991581269635,0.4543214269817131,1.2236378979225908,-1.8594380031395392,-1.0,11.982888888888889,0.0,179.1280144892784,1.0765774763329756,95.1473522118553,1553.0,1435.0,1000.0,1435.0,1471.0,1011.0,183.0,293.5,1649156296.7105625,1649156297.829017,339733c6-0710-4aab-b13a-cc03bcb3c833
0.3747817204976876,0.3980154649696226,1.042735431640103,-0.1812766400459382,0.6831317681551197,-0.1262361932835847,0.7034202044912317,0.6717318496126166,-3.3598962909248784,28.45791071887204,20.15029468757534,0.3673390839184767,1.4268944796577414,-3.2923724648621366,-1.0,11.962666666666667,0.0,179.07638584825216,1.0788545855112668,95.07545991738148,1553.0,1435.0,1000.0,1330.0,1471.0,1011.0,183.0,293.5,1649156299.9685242,1649156301.1053998,05203d13-c472-48e5-b69d-95826b222ff9
0.3695353910936376,0.3991199553676574,1.0360164482609204,-0.1824600228222658,0.6767020563171147,-0.1269988176897358,0.696543437022497,0.6739013842922258,-3.375987351385031,28.4134134224887,19.989189005556987,0.3676314671877269,1.432297751725839,-3.264762147593651,-1.0,11.965777777777776,0.0,179.04812252546668,1.0747246096511,95.04874704753756,1553.0,1435.0,1000.0,1330.0,1471.0,1011.0,183.0,293.5,1649156301.2132027,1649156302.333892,05203d13-c472-48e5-b69d-95826b222ff9
0.3559300315264656,0.3929360228698438,1.0375507998761455,-0.1798793380865169,0.6792109284603378,-0.124262877272747,0.6990856866227063,0.6765306175680847,-3.3780038800928125,28.46606446590621,19.86973340356457,0.3683634717327794,1.4099576746507216,-3.274807563597121,-1.0,11.96,0.0,179.03894275122218,1.0589639599992628,95.02469188019067,1553.0,1435.0,1000.0,1330.0,1471.0,1011.0,183.0,293.5,1649156302.441857,1649156303.5695562,05203d13-c472-48e5-b69d-95826b222ff9
0.4786027217312461,0.4400195195444047,1.3823974789458022,-0.1383587442238426,0.9929632366304996,-0.2243594433628983,1.0281907830538075,1.012549314210444,-1.276957748153576,29.252279137956844,20.20762351067344,0.0732672845965185,1.5854467146750846,-4.633104703311425,-1.0,11.934666666666663,0.0,178.96717567688313,1.0552451235816351,94.92126763795852,1553.0,1435.0,1000.0,1210.0,1471.0,1011.0,183.0,293.5,1649156305.4991276,1649156306.63628,c246d099-2c25-40d6-9e92-a1e39d83a74b
0.4727542917258002,0.4468951913651293,1.379534898089238,-0.1478504599926041,0.9872791652078576,-0.224934698860738,1.026478713322698,1.0130834799878283,-1.0570589546304212,29.16681063166807,19.823520680114743,0.0927259387441721,1.6140682799892632,-4.618627309289091,-1.0,11.932777777777778,0.0,178.96729406682874,1.054568863706,94.8886808054284,1553.0,1435.0,1000.0,1210.0,1471.0,1011.0,183.0,293.5,1649156306.7446196,1649156307.8712804,c246d099-2c25-40d6-9e92-a1e39d83a74b
0.4707545943449895,0.4364036283809305,1.3802334226078374,-0.1406734627703146,0.9916209739901692,-0.2222364765125944,1.0285331969777107,1.0076322499640495,-1.1906808935337552,29.15480559023978,19.696762082981024,0.0824673883269708,1.5759481786231058,-4.629892173980765,-1.0,11.935555555555556,0.0,178.96721969365777,1.0557776886094192,94.8450730832175,1553.0,1435.0,1000.0,1210.0,1471.0,1011.0,183.0,293.5,1649156307.985606,1649156309.1001422,c246d099-2c25-40d6-9e92-a1e39d83a74b
0.5206533442222997,0.45429188023642,1.5819503275201927,-0.007753286351287,1.1810465615247852,-0.3752462335660389,1.1866216085974173,1.1564453518502078,-0.0597665588625966,30.69135099656281,19.197815870110247,-0.5404814794873127,1.635906329309712,-5.385156765620077,-1.0,11.918,0.0,178.8995659110189,1.0256374274683937,94.74696348706954,1553.0,1435.0,1000.0,1071.0,1471.0,1011.0,183.0,293.5,1649156309.7695117,1649156310.7353525,0bc73007-6d9d-4350-9749-65246864f441
0.5062560710263941,0.4445667766085117,1.5665614201978473,-0.0035982982301769,1.1695803508215967,-0.3664064729684706,1.172538807405975,1.1496929485120646,-0.297998916987348,30.70582114923581,19.531183682336792,-0.5307271121423013,1.5966759002170845,-5.329354350999824,-1.0,11.907666666666664,0.0,178.89682928189143,1.0263037977992928,94.71760885183664,1553.0,1435.0,1000.0,1071.0,1471.0,1011.0,183.0,293.5,1649156310.8435476,1649156312.1654656,0bc73007-6d9d-4350-9749-65246864f441
0.5174976574297936,0.4602350904240096,1.5799780229133125,-0.0109221222060072,1.1791005545737576,-0.3775209584010598,1.1834264755677977,1.1612446256430224,-0.1898344339199394,30.60223118635485,19.269288261076,-0.5391880459329559,1.6587477179126162,-5.374530810146129,-1.0,11.907555555555556,0.0,178.8821185722391,1.0175835909358253,94.719695854083,1553.0,1435.0,1000.0,1071.0,1471.0,1011.0,183.0,293.5,1649156312.2742164,1649156313.394704,0bc73007-6d9d-4350-9749-65246864f441
0.0728011060222031,0.2439532970262914,0.1228757235536842,-0.0809975533852441,-0.1405091040483258,-0.0216914525284275,-0.2465341742243384,-0.2761461379952463,-10.14717732340564,29.059515898046445,19.51024471829975,0.3307266935517772,0.8321286346352125,0.4122004069593315,-1.0,11.989666666666668,0.0,179.09721792522072,1.070848370575412,94.899217510588,1553.0,1435.0,1000.0,1613.0,1471.0,1011.0,183.0,293.5,1649156315.333841,1649156316.4734905,53a841f9-c7f8-41ff-99bd-c4fd061b8be8
0.0770881288328533,0.2448983595214351,0.1218758748167619,-0.0813947536121217,-0.1419472427773097,-0.0233898258467298,-0.2477394715108029,-0.2756530619828747,-10.097805382428202,29.0548803993844,19.33985470212122,0.3277233846834628,0.8368193536947092,0.4171451736627566,-1.0,11.987777777777778,0.0,179.0872549559514,1.0621418715221536,94.87194987760148,1553.0,1435.0,1000.0,1613.0,1471.0,1011.0,183.0,293.5,1649156316.5867195,1649156317.7013977,53a841f9-c7f8-41ff-99bd-c4fd061b8be8
0.0584882023414794,0.2361599555847195,0.1162328927920809,-0.0727248316703177,-0.1449878790084316,-0.0220612596406952,-0.2532043990602419,-0.2766940006625537,-10.155257558960534,29.11896219874912,19.40321377658156,0.3112766335835819,0.802466007384235,0.4358010834424119,-1.0,11.989555555555556,0.0,179.092895174386,1.0564833443860135,94.88379646126192,1553.0,1435.0,1000.0,1613.0,1471.0,1011.0,183.0,293.5,1649156317.8139126,1649156318.9244444,53a841f9-c7f8-41ff-99bd-c4fd061b8be8
0.001214124649989,0.216405683999199,-0.0966516249357919,-0.0276341155392655,-0.3393897325079551,-0.0330382298429982,-0.4859582799991821,-0.5092314785174333,-11.557281893441647,29.54375950982621,19.280458118362667,0.1763868012514234,0.7203464710841062,1.318837540594488,-1.0,11.981000000000002,0.0,179.15576175332663,1.060018572037828,94.96891048414908,1553.0,1435.0,1000.0,1694.0,1471.0,1011.0,183.0,293.5,1649156319.8342314,1649156320.972274,404db7f1-1924-41d1-a06b-84b95556ad24
-0.0176542548651726,0.2068202848687397,-0.0989132008244043,-0.0263323945657927,-0.3387980411083142,-0.0244258335699759,-0.4854060346328274,-0.5035512401655527,-11.674813092341548,29.522361657301087,19.334301571542564,0.1924986024457254,0.6844460357778892,1.3191822431212363,-1.0,11.980555555555556,0.0,179.13739006227914,1.063543091945162,94.9222800237755,1553.0,1435.0,1000.0,1694.0,1471.0,1011.0,183.0,293.5,1649156321.080413,1649156322.2024963,404db7f1-1924-41d1-a06b-84b95556ad24
0.0110099035063527,0.2111593544298754,-0.0885914737317675,-0.0277656025025187,-0.3304617663181254,-0.0277393050989176,-0.4750711568465612,-0.4950177346070353,-11.513423435462864,29.50737259390844,19.35887450045782,0.1887855007618198,0.7001906660255406,1.2797097561678423,-1.0,11.982666666666669,0.0,179.12859581426775,1.059186391750046,94.9194303170718,1553.0,1435.0,1000.0,1694.0,1471.0,1011.0,183.0,293.5,1649156322.3111122,1649156323.4333885,404db7f1-1924-41d1-a06b-84b95556ad24
-0.0674379598175769,0.1860579464662263,-0.3118119813418469,0.0298486982868281,-0.533860636678152,-0.0438113953044938,-0.7248455152228147,-0.7502252492635245,-13.27331574529166,30.309229489620023,19.29841175735798,0.0160108132564843,0.5978061450101427,2.2124687454060035,-1.0,11.953333333333337,0.0,179.21138833174703,1.060578090225305,94.90034449180104,1553.0,1435.0,1000.0,1774.0,1471.0,1011.0,183.0,293.5,1649156325.36431,1649156326.3100042,000b18db-f284-4e24-b03e-c86133516c60
-0.0848736797384937,0.1758129210278775,-0.3131405477160572,0.0374913780365476,-0.5328470910581329,-0.0411679594054452,-0.7255166468510001,-0.7474174539432159,-13.324453728058606,30.402349663004795,19.23912027080796,0.005226911811336,0.5592448894858201,2.21252454719445,-1.0,11.950666666666669,0.0,179.1957380916288,1.0522014086747808,94.8149762340948,1553.0,1435.0,1000.0,1774.0,1471.0,1011.0,183.0,293.5,1649156326.4199588,1649156327.531885,000b18db-f284-4e24-b03e-c86133516c60
-0.0734967697316334,0.1846252864868733,-0.311396153742293,0.030917029849498,-0.533398788582817,-0.0449509490520605,-0.7236867858684846,-0.7552173728639865,-13.171934553542105,30.285470110439302,19.08264671418047,0.010920029724634,0.5935219918459391,2.2092354363570736,-1.0,11.946666666666664,0.0,179.20519259125993,1.0497966484784076,94.71967839915514,1553.0,1435.0,1000.0,1774.0,1471.0,1011.0,183.0,293.5,1649156327.641202,1649156328.764752,000b18db-f284-4e24-b03e-c86133516c60
-0.13107491386873413,0.15849882794246128,-0.4980419349904219,0.1004604840381279,-0.7023727407856751,-0.07294452444089301,-0.9380500862773292,-0.9639267365533999,-14.606611185687747,31.211994315840094,19.02017221030826,-0.21274207772834672,0.485860964276515,2.9949872557617345,-1.0,11.907625,0.0,179.2637003711452,1.0282113549086436,94.56696409677758,1553.0,1435.0,1000.0,1856.0,1471.0,1011.0,183.0,293.5,1649156329.8761408,1649156331.0131056,eb8c72b2-8e09-4ada-9bb7-352eb27633c1
-0.13795168246186054,0.15794658271921314,-0.4988703030497104,0.09875115354481384,-0.7045948713383843,-0.07344417492047714,-0.939351807960376,-0.9665696260392808,-14.532329842321541,31.31048203264017,18.638908160634433,-0.209420772848718,0.4868027088318303,3.000388385988846,-1.0,11.907666666666666,0.0,179.2478327033384,1.0314317401881894,94.3966954493232,1553.0,1435.0,1000.0,1856.0,1471.0,1011.0,183.0,293.5,1649156331.1220634,1649156332.2367926,eb8c72b2-8e09-4ada-9bb7-352eb27633c1
-0.14481530245036095,0.14541587557071764,-0.5034460505536519,0.10694279118863471,-0.7047132096396824,-0.06622554035985546,-0.9422576715169134,-0.9622437020145073,-14.74290060148636,31.33114447126964,18.963891625550897,-0.21182292429332134,0.4371166927391167,3.0097823763752682,-1.0,11.906666666666666,0.0,179.247482086961,1.0260937339084133,94.26930786784301,1553.0,1435.0,1000.0,1856.0,1471.0,1011.0,183.0,293.5,1649156332.3450825,1649156333.4709263,eb8c72b2-8e09-4ada-9bb7-352eb27633c1
