raw_voltage_G-,raw_voltage_G0,raw_voltage_G1,raw_voltage_G2,raw_voltage_G3,raw_voltage_G4,raw_voltage_G5,raw_voltage_G6,load_x,load_y,load_z,load_l,load_m,load_n,rpm,voltage,current,roll,pitch,yaw,aileron1_pwm,elevator_pwm,throttle_pwm,rudder_pwm,aileron2_pwm,pbaro,pdiff,Tt,sample_start_time,sample_end_time,uid
0.3670179216762042,0.4473640350616737,0.8988826363877815,-0.2857137120377654,0.5143591650675338,-0.0610859171484978,0.6060713127067776,0.5820623013935515,0.9705917895953114,26.67121868978029,21.683169895205587,0.7327420010299074,1.5714542944766487,-2.716827644495816,-1.0,11.976888888888888,0.0,178.94842756652136,1.245857121881918,91.63494792174374,1553.0,1435.0,1000.0,1528.0,1471.0,1011.0,183.0,293.5,1649156933.274381,1649156934.2546272,ea15adfd-d1c9-44df-ae10-080a36ea0ae2
0.393387124229122,0.4569873627296918,0.901741971854683,-0.2912917942388225,0.5152755279758986,-0.0629120688121857,0.60802642250855,0.5782051822328482,0.9771574804453432,26.60032731394991,22.052934497875214,0.740955857156181,1.6050907851380831,-2.7230862911222875,-1.0,11.972666666666663,0.0,178.94811034217992,1.2491581783953132,91.60793376466646,1553.0,1435.0,1000.0,1528.0,1471.0,1011.0,183.0,293.5,1649156934.3629425,1649156935.4736123,ea15adfd-d1c9-44df-ae10-080a36ea0ae2
0.3864577618556096,0.4562115897227706,0.906409758636322,-0.2838364825068126,0.5199564634100473,-0.0687106440935361,0.6108007971472496,0.5866071982995635,1.014121869452759,26.682282793259784,22.123926287941327,0.7119139683812484,1.6006697356489337,-2.739710877991121,-1.0,11.977,0.0,178.94530541116077,1.2458286746183436,91.6023398397362,1553.0,1435.0,1000.0,1528.0,1471.0,1011.0,183.0,293.5,1649156935.5820358,1649156936.7061143,ea15adfd-d1c9-44df-ae10-080a36ea0ae2
0.6091446094398649,0.8659824518411816,0.9630088651282088,-0.3741998163079973,0.4896969331886904,-0.3849927065742964,0.5495234955955561,0.5265543689618516,1.5678969654896868,25.97552660757788,22.397275194271845,0.2034789003957783,3.145919194682872,-2.6385484243698096,-1.0,11.961,0.0,178.52734640419007,1.2071508074524422,91.6993285259504,1631.0,1435.0,1000.0,1528.0,1531.0,1011.0,183.0,293.5,1649156938.846286,1649156939.9834812,28cbe8ac-f772-45cf-ace7-55f8e6613349
0.6104183892654487,0.8690230875861014,0.9631321341424888,-0.3767610733034781,0.4882314015559957,-0.3832669398610475,0.5491810816661683,0.5196513040634713,1.5985582424724134,26.039548473644743,22.72887779158113,0.2136333370355592,3.1544916749069487,-2.63542449953395,-1.0,11.957444444444445,0.0,178.54698547478358,1.2170630127637174,91.76832254348642,1631.0,1435.0,1000.0,1528.0,1531.0,1011.0,183.0,293.5,1649156940.0915349,1649156941.190965,28cbe8ac-f772-45cf-ace7-55f8e6613349
0.6187732891927581,0.8682286872569763,0.9579411388024488,-0.3692416611397744,0.4853962141886663,-0.3907863519277231,0.5415794923706954,0.5257599686198747,1.4458147168199604,25.997695084338584,22.485821932073662,0.1791227027425548,3.1534918779446834,-2.614126570610026,-1.0,11.951777777777778,0.0,178.53462890366512,1.219212708083273,91.8722689157351,1631.0,1435.0,1000.0,1528.0,1531.0,1011.0,183.0,293.5,1649156941.3000443,1649156942.4401467,28cbe8ac-f772-45cf-ace7-55f8e6613349
0.8902500123058945,1.3537283893459315,1.02490580062568,-0.4687597813018748,0.4465472987974974,-0.7811466134207287,0.4651395536782295,0.4375009964475445,2.445640346900168,25.37069220941803,21.557144604012805,-0.4740472640800096,4.992052645427254,-2.486139315224864,-1.0,11.932,0.0,178.3522294607898,1.164132011187946,92.1019643829731,1712.0,1435.0,1000.0,1528.0,1591.0,1011.0,183.0,293.5,1649156944.3756611,1649156945.5085657,a1bcaf63-93da-498c-bec2-5a4bee156215
0.8930638330621538,1.3585539610157011,1.0191335233350505,-0.4749002237424786,0.4397231260195843,-0.7799237840751198,0.4586703956901993,0.4284809914569294,2.376135337514764,25.36023020952917,21.55268871155511,-0.4578405416160904,5.011072815809506,-2.459286135958885,-1.0,11.932444444444444,0.0,178.3448088397116,1.165112961533587,92.19296982347434,1712.0,1435.0,1000.0,1528.0,1591.0,1011.0,183.0,293.5,1649156945.6172314,1649156946.737825,a1bcaf63-93da-498c-bec2-5a4bee156215
0.8851713288126204,1.3572642929789032,1.0180142406440928,-0.467843207320755,0.4389511880446073,-0.7859595863671421,0.4562636366144739,0.4276652246383166,2.464494595512264,25.394760526789224,21.424425321703428,-0.487125490634724,5.0058079459291065,-2.453509768625594,-1.0,11.933666666666666,0.0,178.3413117828565,1.1522223431414282,92.31525904819406,1712.0,1435.0,1000.0,1528.0,1591.0,1011.0,183.0,293.5,1649156946.8467588,1649156947.9751084,a1bcaf63-93da-498c-bec2-5a4bee156215
1.145063511756769,1.826124950624504,1.086497029795848,-0.5509950365633995,0.4055178912335941,-1.177051362503461,0.38141195001154,0.3593467957081837,3.41903138856758,24.92712704726636,20.226977140117203,-1.1777911803773895,6.782748736106086,-2.339575470996368,-1.0,11.886333333333331,0.0,178.13150658539155,1.1096566516657782,92.44255935503487,1796.0,1435.0,1000.0,1528.0,1650.0,1011.0,183.0,293.5,1649156948.880936,1649156950.0181816,53633a45-04d1-4a68-aacc-d8b28d377ed1
1.1490081204946512,1.826357792176105,1.0966872687985143,-0.5535015076159853,0.4133797152809619,-1.174873607987874,0.3937251552622269,0.3615930311332307,3.698623573570501,24.954843597612548,20.32564037782136,-1.1663958812904738,6.781723776055479,-2.3813758548696,-1.0,11.882888888888887,0.0,178.12086818630425,1.1099016491283504,92.53527993192768,1796.0,1435.0,1000.0,1528.0,1650.0,1011.0,183.0,293.5,1649156950.1269925,1649156951.246704,53633a45-04d1-4a68-aacc-d8b28d377ed1
1.144214325210698,1.8373424350554333,1.0953313095697252,-0.5459410051052517,0.4115580731262431,-1.1938022671937574,0.3861235658431171,0.3649349911804606,3.62810381040784,24.91978362164389,20.12097246749032,-1.2263538048871012,6.824218538670652,-2.365151505901686,-1.0,11.886888888888889,0.0,178.1016616943582,1.1048164428536356,92.63486333111658,1796.0,1435.0,1000.0,1528.0,1650.0,1011.0,183.0,293.5,1649156951.3562584,1649156952.477228,53633a45-04d1-4a68-aacc-d8b28d377ed1
1.374963534569205,2.2365583820948696,1.1561034854344978,-0.6130141688374772,0.3821186924335503,-1.528387608730954,0.3198859175751373,0.2900120813643923,4.403923051956264,24.97467441703397,19.35820803431928,-1.8232522525941857,8.334902070276613,-2.2664235968766384,-1.0,11.830111111111112,0.0,177.86761084315947,1.0275729560403803,92.84842361480528,1886.0,1435.0,1000.0,1528.0,1710.0,1011.0,183.0,293.5,1649156954.4114883,1649156955.5476675,54e760bf-dfcf-4538-bfb2-f132a1014890
1.3780534782712486,2.241673227863424,1.168055649977303,-0.610358131399376,0.3914937121167141,-1.5349356671994614,0.331890676425752,0.3159413088039527,4.7455884721662684,24.956625439450384,19.57798142743269,-1.8432754760458017,8.350150164159476,-2.3113785485213363,-1.0,11.825888888888889,0.0,177.84820703463734,1.016406758828206,92.9127655146066,1886.0,1435.0,1000.0,1528.0,1710.0,1011.0,183.0,293.5,1649156955.657272,1649156956.7763278,54e760bf-dfcf-4538-bfb2-f132a1014890
1.3782337250426864,2.234337346879865,1.155623558113431,-0.6083425451643251,0.3819050260918342,-1.5285327925769314,0.3197774407864156,0.2900969999766289,4.505150075467479,25.00106475663772,19.636447501303763,-1.8338701828750663,8.322784194342939,-2.2650993266091803,-1.0,11.832777777777778,0.0,177.83419603991993,1.008729946366229,92.9940599439279,1886.0,1435.0,1000.0,1528.0,1710.0,1011.0,183.0,293.5,1649156956.8847983,1649156958.0053046,54e760bf-dfcf-4538-bfb2-f132a1014890
0.0880481149135818,-0.075876683819813,0.8444268098263581,-0.1085774931136009,0.5723803104115825,0.2905511781648919,0.6896929669441114,0.6730598678292946,0.898075689337733,27.82330009936405,22.07554131515695,1.1282933880457695,-0.4192227863331776,-2.9024138507826662,-1.0,11.979333333333336,0.0,179.2078442224777,1.1845343791371394,93.05938311424,1475.0,1435.0,1000.0,1528.0,1408.0,1011.0,183.0,293.5,1649156958.9162867,1649156960.054484,dcb1926e-4b3b-406b-a53d-19d6c2e2f205
0.0959619863259576,-0.0828739820270804,0.8414382210111756,-0.1077195406463482,0.5711229664528259,0.2968220101506127,0.6881463516983851,0.6641910730582015,0.796577873741079,27.858697818074827,22.08729422337157,1.1404860802961576,-0.4451471906583302,-2.8953335592593983,-1.0,11.976,0.0,179.16000102407148,1.1767802290123726,92.96267901924124,1475.0,1435.0,1000.0,1528.0,1408.0,1011.0,183.0,293.5,1649156960.1622665,1649156961.29024,dcb1926e-4b3b-406b-a53d-19d6c2e2f205
0.0966057246071674,-0.0707251339768604,0.8441227462630646,-0.1228679354015712,0.5706024972713847,0.2986847419974739,0.6903241043047043,0.6616709065230456,0.7216806007782169,27.788700360551783,22.08127792983882,1.1784739440825989,-0.3969641081833199,-2.90007956586451,-1.0,11.976666666666668,0.0,179.15317994182038,1.1817923427765946,92.8715779560916,1475.0,1435.0,1000.0,1528.0,1408.0,1011.0,183.0,293.5,1649156961.4130127,1649156962.5120504,dcb1926e-4b3b-406b-a53d-19d6c2e2f205
-0.1231123662618745,-0.5133632043522091,0.7945148691268504,0.0013451058959224,0.6126709461457638,0.6198268705249367,0.7629706440738211,0.7363951086208902,0.6409130779880763,28.82449985570203,22.41567952957473,1.624337945825246,-2.0779387264921096,-3.0456706011255745,-1.0,11.92311111111111,0.0,179.41446503396966,1.2093861884437729,92.7147036890546,1396.0,1435.0,1000.0,1528.0,1340.0,1011.0,183.0,293.5,1649156964.446501,1649156965.4935403,9c6297ef-deaa-4905-9b36-7da30a8cc49d
-0.1432506075227543,-0.5159504639091771,0.790162145363974,-0.006017658474952,0.6087758981166451,0.6318518577885365,0.7590654816597805,0.7437866981006936,0.3264132227808256,28.930375115702105,22.76932431030272,1.6683514754552726,-2.087918544993709,-3.029014265862133,-1.0,11.930333333333332,0.0,179.41965445991906,1.2034012470415163,92.53050866533748,1396.0,1435.0,1000.0,1528.0,1340.0,1011.0,183.0,293.5,1649156965.6030314,1649156966.8087876,9c6297ef-deaa-4905-9b36-7da30a8cc49d
-0.1440976027724962,-0.5284504945522658,0.7848166529734987,0.0005243658941345,0.607555808796585,0.6380032555870093,0.7567798001836855,0.7271678433607178,0.2660831892407955,28.87433639899452,22.730686680234086,1.6667430985640044,-2.1351771036918183,-3.018340471953977,-1.0,11.915777777777777,0.0,179.40834670229316,1.1913341407630371,92.39358917541556,1396.0,1435.0,1000.0,1528.0,1340.0,1011.0,183.0,293.5,1649156966.9174087,1649156968.0410185,9c6297ef-deaa-4905-9b36-7da30a8cc49d
-0.4618988996344175,-1.083188775598816,0.7125399201778772,0.1770182180851756,0.6513026126826217,1.0210000902419694,0.8270294426580546,0.7975270581957568,-0.149610625240682,30.543527152268865,22.985305993368765,2.1365589418299,-4.241381263530889,-3.145617108242495,-1.0,11.893,0.0,179.62299222714998,1.221425867243867,92.1464099417222,1314.0,1435.0,1000.0,1528.0,1268.0,1011.0,183.0,293.5,1649156969.7719991,1649156970.9089088,1c6fb587-7ab1-4e89-a1a2-d7dbc35e27e0
-0.4772116556206871,-1.0948171620950151,0.7016511571594132,0.1829077380340581,0.6426189953801184,1.0274100792751029,0.8151271343363664,0.7939385602380832,-0.3812277343077876,30.792697414237,22.95829153600323,2.138666424653793,-4.284527215190684,-3.103658511097884,-1.0,11.887333333333332,0.0,179.61558374863023,1.2165814132794273,91.9010672700056,1314.0,1435.0,1000.0,1528.0,1268.0,1011.0,183.0,293.5,1649156971.0174575,1649156972.1374867,1c6fb587-7ab1-4e89-a1a2-d7dbc35e27e0
-0.4635003014816314,-1.079635337897899,0.7229065704452178,0.1710689811428149,0.6600295111026913,1.0240642840942862,0.8380891388088242,0.8217979056515806,-0.1495065468454657,30.54235628656371,23.21944622368593,2.157410419384334,-4.228739978379689,-3.186672405271759,-1.0,11.89,0.0,179.59521612452525,1.2233476049998733,91.699915922219,1314.0,1435.0,1000.0,1528.0,1268.0,1011.0,183.0,293.5,1649156972.2448845,1649156973.450255,1c6fb587-7ab1-4e89-a1a2-d7dbc35e27e0
-0.6307254686437477,-1.3654619375117334,0.6882597591932721,0.2429660490897602,0.6811068691316374,1.2081460238714024,0.8704875235240429,0.8547353867958113,-0.6883586424555003,31.726115200755345,18.96955459978798,2.414057896503344,-5.270311378398261,-3.2550929220569094,-1.0,11.736,0.0,179.6957231170719,1.2551494282361777,91.34119590482976,1227.0,1435.0,1000.0,1528.0,1189.0,1011.0,183.0,293.5,1649156975.3006496,1649156976.4373367,6d06381c-f545-4ddd-aa93-775f98c820aa
-0.6410340501878526,-1.3809774145632487,0.6804757317731084,0.2492248281623177,0.6770833684716513,1.217586787651154,0.8650571124348307,0.8474247123606652,-0.8210752309343218,31.820927781394392,18.918509093124552,2.421320269445165,-5.328374547785705,-3.233296750867384,-1.0,11.746777777777778,0.0,179.68367162773637,1.2423427642525673,90.97892950144144,1227.0,1435.0,1000.0,1528.0,1189.0,1011.0,183.0,293.5,1649156976.5453289,1649156977.662421,6d06381c-f545-4ddd-aa93-775f98c820aa
-0.6248611481789396,-1.3743899111334006,0.6858535480149562,0.2315266839395993,0.679778850940457,1.226370116544532,0.8742349016411103,0.854695940749813,-0.7266536140115403,31.66693212506744,18.825376347349746,2.480259866606936,-5.30099293100011,-3.256726079167285,-1.0,11.75,0.0,179.69488679835354,1.232260468258211,90.7307985947237,1227.0,1435.0,1000.0,1528.0,1189.0,1011.0,183.0,293.5,1649156977.7702932,1649156978.9027195,6d06381c-f545-4ddd-aa93-775f98c820aa
0.3807819084055974,0.4464979912003237,0.8883626266800547,-0.2171824459757402,0.5113101006925896,-0.1229090251794079,0.5738896710239367,0.5461404459107032,0.6386471441995708,27.01398066070031,21.578269229179305,0.4407920465632031,1.5623864928079687,-2.6525396453708274,-1.0,11.982,0.0,178.81586421947011,1.124063441616039,90.3059114992049,1553.0,1435.0,1000.0,1528.0,1471.0,1011.0,183.0,293.5,1649156980.82983,1649156981.9716363,05afe858-5479-4b78-a584-57c1ff9f3dd8
0.3796724872476074,0.4577291682817366,0.896662740487507,-0.2188397296502162,0.516720240841809,-0.1319487543685172,0.580477715072888,0.5566730984574407,0.8255253675865782,26.94293749271351,21.69775017578756,0.4242724462054743,1.602857625824947,-2.67892958601997,-1.0,11.982222222222225,0.0,178.7742440823077,1.1459329958603814,90.78730854427674,1553.0,1435.0,1000.0,1528.0,1471.0,1011.0,183.0,293.5,1649156982.081005,1649156983.20197,05afe858-5479-4b78-a584-57c1ff9f3dd8
0.38657610010347,0.4551728428103038,0.8964956424940901,-0.2218403719991453,0.5173267243970641,-0.1273406838353283,0.5815318021205721,0.5589028980157292,0.7330924387420186,26.92352123028492,21.60815130810282,0.4411982658770326,1.5950767020154553,-2.681547329583255,-1.0,11.984,0.0,178.80224482226512,1.1710596965651736,91.18351719329048,1553.0,1435.0,1000.0,1528.0,1471.0,1011.0,183.0,293.5,1649156983.3169725,1649156984.4234288,05afe858-5479-4b78-a584-57c1ff9f3dd8
0.4078638376561684,0.4590648565538629,0.8963378581692161,-0.7002558000148563,0.4650343641115483,0.3305889555581511,0.7118616666659321,0.6827767533920983,1.123325301338535,25.96357489590474,25.13024785095128,2.5438017215217896,1.6345727912360617,-2.793759495840718,-1.0,11.973666666666666,0.0,178.80319649528946,1.3000258580854078,91.7886529810059,1553.0,1522.0,1000.0,1528.0,1471.0,1011.0,183.0,293.5,1649156986.3600647,1649156987.4950848,c7d19943-97b9-4e09-8105-6281be50c7aa
0.4132679513615736,0.4652973380319893,0.9000194928023487,-0.7067118122700755,0.4659153266913417,0.3279723651947499,0.7136367404859305,0.690153171265564,1.1193405341050138,26.04394289893746,24.801539379717024,2.553146761684141,1.6619195564717442,-2.802307060385462,-1.0,11.968333333333334,0.0,178.7984001846723,1.306673066961875,91.92547760718932,1553.0,1522.0,1000.0,1528.0,1471.0,1011.0,183.0,293.5,1649156987.6107645,1649156988.721527,c7d19943-97b9-4e09-8105-6281be50c7aa
0.4255619813566283,0.4697284482826054,0.9032540718047825,-0.7145352897214776,0.4676772518413892,0.3312332416602968,0.7196588427812941,0.6965960318141324,1.2931366001997286,25.897021976407583,24.89460065879134,2.5774116577813486,1.677649829309776,-2.8169094825031737,-1.0,11.977,0.0,178.80596044517358,1.2997591724006274,92.05351253882084,1553.0,1522.0,1000.0,1528.0,1471.0,1011.0,183.0,293.5,1649156988.829855,1649156989.954498,c7d19943-97b9-4e09-8105-6281be50c7aa
0.4474978398718557,0.4704121804260195,0.9126192299523832,-1.215086736399851,0.417242144487622,0.8144970927021857,0.8612434429909813,0.8382332266636358,1.7015346362191333,25.526592349485394,28.74616956177765,4.791321724548651,1.7054033573497154,-2.9610033053691454,-1.0,11.959666666666667,0.0,178.78122908909887,1.459252828842332,92.30428369310776,1553.0,1613.0,1000.0,1528.0,1471.0,1011.0,183.0,293.5,1649156991.8893406,1649156993.0327568,309c1e5e-f99c-4b25-a370-31274928c49b
0.4634680258130374,0.4744937545272215,0.9308630445689956,-1.2362479371700357,0.4300210325793451,0.8305768510169648,0.8874997435854048,0.8605586151783419,2.1940789227439863,25.421596241482053,29.00026519893076,4.875690399745216,1.7187337678533998,-3.0396060705939334,-1.0,11.962333333333332,0.0,178.78049446430816,1.4772856903319618,92.32568419359724,1553.0,1613.0,1000.0,1528.0,1471.0,1011.0,183.0,293.5,1649156993.1408317,1649156994.2563574,309c1e5e-f99c-4b25-a370-31274928c49b
0.4559760089179703,0.463194094684462,0.9268636497403808,-1.224770211410377,0.4282678732532149,0.8327819967576429,0.8836921006021022,0.8671192662300492,2.203232466767852,25.57599356743314,29.210212355656044,4.855617169223517,1.6727635548816784,-3.027372793034821,-1.0,11.955888888888888,0.0,178.78058705131693,1.4823483427528548,92.35727457741844,1553.0,1613.0,1000.0,1528.0,1471.0,1011.0,183.0,293.5,1649156994.3643,1649156995.4834125,309c1e5e-f99c-4b25-a370-31274928c49b
0.4892586433572766,0.4721105535418582,0.942025738974579,-1.703520247614394,0.3822200469186871,1.2851793039035453,1.0189866962899934,0.9943739821798564,2.5294536691229874,25.512301174814592,32.66958818961723,6.95320551291826,1.7331409145743564,-3.1759376752707205,-1.0,11.918333333333331,0.0,178.7529900514304,1.6280690768868036,92.31077161390937,1553.0,1710.0,1000.0,1528.0,1471.0,1011.0,183.0,293.5,1649156996.3951294,1649156997.5315692,6642002c-69ef-4d99-bf0f-da436a6e9b11
0.4904639403986898,0.4701886526122015,0.940241351456972,-1.6876448186227455,0.3817636776210651,1.2694583938917492,1.0120069304830823,0.9915081144236771,2.4978477453697927,25.63936910998865,32.21037798857169,6.882731838459227,1.728160714196359,-3.163761350161019,-1.0,11.916666666666666,0.0,178.76112101218237,1.6477677574819765,92.18384696747292,1553.0,1710.0,1000.0,1528.0,1471.0,1011.0,183.0,293.5,1649156997.63956,1649156998.962613,6642002c-69ef-4d99-bf0f-da436a6e9b11
0.4883075544198644,0.4661783006076845,0.926974318080616,-1.6959285083886382,0.3709291526287571,1.282672833606871,1.002618762119557,0.9798846678127336,2.316860671051599,25.48717897775067,32.36142064574789,6.929375899843477,1.7132380099634643,-3.117962116952451,-1.0,11.926333333333332,0.0,178.77315428768011,1.6401520016936737,92.1223646402041,1553.0,1710.0,1000.0,1528.0,1471.0,1011.0,183.0,293.5,1649156999.0716374,1649157000.194806,6642002c-69ef-4d99-bf0f-da436a6e9b11
0.504242677099907,0.4645637504150728,0.9294796922794551,-2.064890834848704,0.3176818674471062,1.6408515643641446,1.0852643395741417,1.0674725109186385,2.168832515048756,26.842474993564498,35.06622761326586,8.57600576508523,1.7298665080283222,-3.166797506581774,-1.0,11.884555555555554,0.0,178.76283311293432,1.7671247677614528,91.99607292463077,1553.0,1814.0,1000.0,1528.0,1471.0,1011.0,183.0,293.5,1649157001.753543,1649157002.863314,0010639a-d0ad-4f42-8b82-e6aecc023219
0.5071052575830478,0.4679604966548927,0.935465087923262,-2.0663152790403783,0.3231057042945375,1.6385505420579538,1.0899896520518169,1.068034070035536,2.0848476202092745,26.84536937320144,35.06743555436365,8.574323394462462,1.7437449609433937,-3.188731259575832,-1.0,11.879777777777775,0.0,178.76152171661366,1.7772209494355282,91.79494965651074,1553.0,1814.0,1000.0,1528.0,1471.0,1011.0,183.0,293.5,1649157002.975921,1649157004.0867748,0010639a-d0ad-4f42-8b82-e6aecc023219
0.5051877395460722,0.4582222443398249,0.93542399824197,-2.060836645618953,0.3230920077723648,1.641536392323064,1.093989046964391,1.0801144338780673,2.511371322747164,26.870402094701785,34.86541924718596,8.569020941503807,1.7053155121065953,-3.195478095020066,-1.0,11.872444444444444,0.0,178.77112648040654,1.7884411715467623,91.64117174189744,1553.0,1814.0,1000.0,1528.0,1471.0,1011.0,183.0,293.5,1649157004.1950572,1649157005.3140457,0010639a-d0ad-4f42-8b82-e6aecc023219
0.3557687071158242,0.461734041664824,0.9024651500909248,0.2201530622327256,0.5637942125826079,-0.5565536494103807,0.4587229904753739,0.4370933869410784,0.4266821854266723,28.410734595637354,18.9006196235094,-1.510759152460945,1.5918354733062612,-2.5780952930382632,-1.0,11.98,0.0,178.76538912150374,1.0105687257829414,91.53331091234442,1553.0,1349.0,1000.0,1528.0,1471.0,1011.0,183.0,293.5,1649157007.4543674,1649157008.595254,1e96706c-094d-4c26-8c91-74da013edb72
0.3543064626342877,0.4588385894275618,0.8959779126159031,0.2026718713508314,0.5572346573653116,-0.5351892033666221,0.4583729064736633,0.4280076386120665,0.3487114883961476,28.311016566638383,19.221164453798067,-1.4242893216010557,1.5804260050268837,-2.5598848050665155,-1.0,11.972333333333331,0.0,178.79209819679812,1.009891837435039,91.93103282771426,1553.0,1349.0,1000.0,1528.0,1471.0,1011.0,183.0,293.5,1649157008.7085924,1649157009.8280132,1e96706c-094d-4c26-8c91-74da013edb72
0.3592399626667042,0.46502121544012,0.8965482372626397,0.1974847108986431,0.5568779990152175,-0.5374748856136395,0.4588281800432519,0.4335037931522912,0.3605455847614919,28.202251449146164,19.08366771571123,-1.4184331712182188,1.6054224443085652,-2.5602630463870577,-1.0,11.974555555555558,0.0,178.79715557242355,1.0294133007087778,92.23283004856064,1553.0,1349.0,1000.0,1528.0,1471.0,1011.0,183.0,293.5,1649157009.9425397,1649157011.0494394,1e96706c-094d-4c26-8c91-74da013edb72
0.3292691552779896,0.464495267620518,0.9076884692785278,0.7068695454740069,0.6154313292241346,-1.0268273986842908,0.3208183791940552,0.2974931413354531,-0.2329321107116856,30.129836108320376,15.619583181014322,-3.6546390302016007,1.57637514917088,-2.460392852637689,-1.0,11.938,0.0,178.76651382598706,0.8781538464113957,92.7193808508162,1553.0,1264.0,1000.0,1528.0,1471.0,1011.0,183.0,293.5,1649157012.7774556,1649157013.7684505,dd90969e-4c82-407b-b980-78e1dcef5d26
0.3254346670100183,0.4614184729852029,0.9111301402282076,0.7068520138777455,0.6201889653538621,-1.0233194337483165,0.3258291278711656,0.3109711019289035,-0.2920138629174556,30.07340752760407,15.72088288145831,-3.646932909748157,1.5645750331507515,-2.478946269697676,-1.0,11.95588888888889,0.0,178.7815539025394,0.8394250552048859,92.87664975100527,1553.0,1264.0,1000.0,1528.0,1471.0,1011.0,183.0,293.5,1649157013.8767416,1649157014.9516838,dd90969e-4c82-407b-b980-78e1dcef5d26
0.3383499730224673,0.4679878897734138,0.919481205255062,0.7002130186415552,0.6268405614224405,-1.0237319743478843,0.3348710473702488,0.3186817161016698,-0.233217879355324,29.974628214715818,15.77602115913284,-3.633084603823091,1.5896546477705205,-2.511367056907334,-1.0,11.952000000000002,0.0,178.7814810471883,0.8605841630538409,93.04061603113054,1553.0,1264.0,1000.0,1528.0,1471.0,1011.0,183.0,293.5,1649157015.0866349,1649157016.1690505,dd90969e-4c82-407b-b980-78e1dcef5d26
0.308286028942964,0.4723296984608259,0.9320820381592454,1.1398999093416349,0.6763536159001694,-1.4494761669924705,0.2114513650146169,0.1889205269192002,-0.983562863264042,32.119620526304466,12.968220703131545,-5.567592986150129,1.5828356280807685,-2.421243277975512,-1.0,11.933333333333334,0.0,178.78278333659006,0.6954687036007523,93.42455917821472,1553.0,1178.0,1000.0,1528.0,1471.0,1011.0,183.0,293.5,1649157018.3088138,1649157019.4523723,1936dbc1-a0ac-4953-b54c-c75ed2cefd61
0.3115496447117988,0.4719505777520593,0.927210994445619,1.1466232757489008,0.6728889347779259,-1.4592122392983884,0.2045850065461049,0.1883463673264938,-0.986161555270126,32.07056777379839,12.36725053557605,-5.605302336298622,1.585621050844048,-2.400924479983138,-1.0,11.932666666666668,0.0,178.7903602931093,0.6834961231086769,93.55306463398908,1553.0,1178.0,1000.0,1528.0,1471.0,1011.0,183.0,293.5,1649157019.5827155,1649157020.671889,1936dbc1-a0ac-4953-b54c-c75ed2cefd61
0.2989005997334911,0.4651264050005008,0.9318261864783316,1.1482800114389284,0.6762944467737662,-1.4527299250184404,0.2117773430757441,0.1824689001393071,-0.7307870366691059,32.21233006550624,12.59735037484345,-5.59313810700923,1.556270409965839,-2.4224605359188693,-1.0,11.939,0.0,178.7793545816267,0.6703203680346049,93.67702801396536,1553.0,1178.0,1000.0,1528.0,1471.0,1011.0,183.0,293.5,1649157020.7796545,1649157021.8304398,1936dbc1-a0ac-4953-b54c-c75ed2cefd61
0.2949592782687276,0.4797395360044312,0.9216178682621052,1.3816852579958312,0.6794216447305735,-1.68683781665529,0.1207253638001999,0.0998107189712109,-1.0954329755865786,33.8257867925899,11.499712924598214,-6.63588587948433,1.594030771864991,-2.281816823122783,-1.0,11.895,0.0,178.7697741029509,0.5809954742342955,93.91072521314707,1553.0,1088.0,1000.0,1528.0,1471.0,1011.0,183.0,293.5,1649157023.837054,1649157024.9748142,6b222b75-acae-4692-a1a1-49af6cbe9d28
0.2846183771544301,0.4716859602578451,0.907085820782874,1.3835479900794116,0.669587516619611,-1.6806332671861768,0.1054400046411009,0.0923871844277426,-1.5994930029669427,33.83521089826044,11.391640003716171,-6.627077379428742,1.5671999901314086,-2.2283174575580262,-1.0,11.889777777777775,0.0,178.78357563853376,0.5826998850944454,93.92752064831612,1553.0,1088.0,1000.0,1528.0,1471.0,1011.0,183.0,293.5,1649157025.082873,1649157026.2116537,6b222b75-acae-4692-a1a1-49af6cbe9d28
0.2879740338026064,0.4677413517360533,0.9133725406793288,1.3936423542243268,0.6778191475353182,-1.6871528382338197,0.1082614957108055,0.0941951300841741,-1.835978793349499,33.95810013205594,11.271711381091556,-6.663508612440165,1.55429981887222,-2.252889684467172,-1.0,11.873666666666669,0.0,178.78571880011333,0.564885399930779,93.94904485112056,1553.0,1088.0,1000.0,1528.0,1471.0,1011.0,183.0,293.5,1649157026.3249624,1649157027.4328158,6b222b75-acae-4692-a1a1-49af6cbe9d28
0.3897054895793257,0.4630620598684378,0.904056142220894,-0.2791160999054445,0.5130139524192743,-0.0775071222673983,0.5999794211783521,0.5823338724726104,0.9282610475994808,27.175921136880607,22.38919183333979,0.6846533392993176,1.623897808619334,-2.7106575680128584,-1.0,11.981333333333332,0.0,178.7748208538376,1.0708002035122026,93.92405015330786,1553.0,1435.0,1000.0,1528.0,1471.0,1011.0,183.0,293.5,1649157028.344093,1649157029.4772875,5fc31773-b822-4977-818d-92a8a1a15f13
0.3955961050247563,0.4683741326862376,0.902833313573438,-0.2802863340138226,0.5116464881337822,-0.0828060471185938,0.5978756299827839,0.5829781585441168,0.9301654487159856,27.063568052763195,22.211278397645028,0.6745526163989686,1.645449329424182,-2.703703818761111,-1.0,11.984111111111112,0.0,178.7766558979946,1.1009506032152774,93.91027745630149,1553.0,1435.0,1000.0,1528.0,1471.0,1011.0,183.0,293.5,1649157029.5862195,1649157030.7107804,5fc31773-b822-4977-818d-92a8a1a15f13
0.3787685144524015,0.4576332923746229,0.8980460927877116,-0.2714619140452586,0.5088721134916464,-0.0795457181726398,0.5938866446488088,0.5770946654015182,0.9541253482238066,27.18811659515841,22.29835863090129,0.6625864990096957,1.602835428705798,-2.688853857894,-1.0,11.982777777777777,0.0,178.76038638739163,1.1108636741581666,93.91650810664434,1553.0,1435.0,1000.0,1528.0,1471.0,1011.0,183.0,293.5,1649157030.8232024,1649157031.938388,5fc31773-b822-4977-818d-92a8a1a15f13
0.4861774658057662,0.51549905579363,1.2103155586675167,-0.277906419664473,0.7911088513916468,-0.1479052462379438,0.9043454135081196,0.8758653399018343,2.965479607524178,27.115996470982164,22.184785614339745,0.5395759396012344,1.8272263998756144,-3.932734029742692,-1.0,11.963777777777777,0.0,178.72035237193646,1.101980716693382,93.86677977602722,1553.0,1435.0,1000.0,1435.0,1471.0,1011.0,183.0,293.5,1649157033.876331,1649157035.016201,efbdee37-b308-465b-8b46-4ffbcb59d919
0.4887929604068845,0.5243492232758333,1.2097523562104264,-0.2884182559387658,0.7863780605012368,-0.1455494381054616,0.9050861233384792,0.8853219910137886,3.246108138208508,27.08987265137382,22.37575631795828,0.5685523636585791,1.8579992054740675,-3.925122405820999,-1.0,11.966888888888889,0.0,178.72017175137842,1.0983159407487164,93.84751560692813,1553.0,1435.0,1000.0,1435.0,1471.0,1011.0,183.0,293.5,1649157035.1242793,1649157036.2395215,efbdee37-b308-465b-8b46-4ffbcb59d919
0.4795066945071354,0.5062012848136882,1.2006441448976348,-0.2686130294906027,0.7849399219792136,-0.1450837550071804,0.8947863121235203,0.8646127961832327,2.823706095586713,27.16365144221132,22.433339819550746,0.5247551903172368,1.7893980910087073,-3.8983500859709537,-1.0,11.969,0.0,178.715624363211,1.093989051483415,93.80034480270022,1553.0,1435.0,1000.0,1435.0,1471.0,1011.0,183.0,293.5,1649157036.347593,1649157037.4696782,efbdee37-b308-465b-8b46-4ffbcb59d919
0.5954562701041922,0.5637021717209345,1.5630424999249457,-0.2527003657080268,1.110740485122888,-0.2349627723388477,1.249367186106401,1.2365209102298114,5.4263282830296,27.64393698235579,22.489407004078384,0.30943788730645,2.007166814169943,-5.332139520539279,-1.0,11.923000000000002,0.0,178.5916700901536,1.0731866075751817,93.69846114758086,1553.0,1435.0,1000.0,1330.0,1471.0,1011.0,183.0,293.5,1649157039.4029474,1649157040.7415504,d8f349ae-ba9e-415f-bdb5-72287d220d6b
0.5857262358206319,0.550974234957161,1.5534439505125084,-0.2498865443951119,1.1052048842275044,-0.228335828767841,1.2431215553774988,1.2157722677260638,5.345853998052599,27.567422069114127,21.96761182951731,0.3168733667062101,1.9636673113352248,-5.304899735555477,-1.0,11.927444444444443,0.0,178.58538631611722,1.0736422025371626,93.66368941342624,1553.0,1435.0,1000.0,1330.0,1471.0,1011.0,183.0,293.5,1649157040.8503869,1649157041.976474,d8f349ae-ba9e-415f-bdb5-72287d220d6b
0.5953247831554609,0.561006689245457,1.5547719690078194,-0.2557508636542162,1.1044554085903238,-0.2304527690296619,1.2435423136930808,1.2242663252234829,5.372582392675104,27.491266147596225,22.30372877884851,0.3249730997901199,1.998931862506236,-5.304601708186474,-1.0,11.921555555555557,0.0,178.57848327159604,1.086944861577376,93.65104217981307,1553.0,1435.0,1000.0,1330.0,1471.0,1011.0,183.0,293.5,1649157042.0856602,1649157043.2035143,d8f349ae-ba9e-415f-bdb5-72287d220d6b
0.6700258064488634,0.5890243668185987,1.826124950625432,-0.1809276517807694,1.3546893399057112,-0.3421772566739367,1.4903400638542417,1.4765202353603746,6.937599992626928,28.548297040611505,22.092494831479275,-0.0735967053903481,2.102818459054248,-6.362291861492662,-1.0,11.885,0.0,178.5718534346417,1.0507191627611496,93.5310668714022,1553.0,1435.0,1000.0,1210.0,1471.0,1011.0,183.0,293.5,1649157043.770848,1649157044.8401926,71310f78-0f37-4a49-8266-52651ed5395a
0.6679439297466333,0.5904488087734058,1.8197697458909283,-0.1838998053195362,1.3474027705858365,-0.3428894778440036,1.4836150531045196,1.4656999533530266,6.984381066048985,28.568915517433748,21.74993670115099,-0.0687035329938906,2.110829360867509,-6.3344420622708215,-1.0,11.886888888888889,0.0,178.57907066786467,1.0574009138963878,93.41918533715776,1553.0,1435.0,1000.0,1210.0,1471.0,1011.0,183.0,293.5,1649157044.9486268,1649157046.099753,71310f78-0f37-4a49-8266-52651ed5395a
0.6649169905929565,0.5783410521445427,1.813825437885378,-0.1786677193570406,1.3457728800364783,-0.3335621198981424,1.4805470236461236,1.4614677162130956,6.814194633662345,28.536074069684403,22.040740612475982,-0.0600990268119225,2.063023485888108,-6.320865673874207,-1.0,11.878888888888888,0.0,178.58791500392994,1.0556713107846898,93.36876867525424,1553.0,1435.0,1000.0,1210.0,1471.0,1011.0,183.0,293.5,1649157046.2106514,1649157047.2988677,71310f78-0f37-4a49-8266-52651ed5395a
0.7057080774180011,0.6063959843328971,2.01358268655892,-0.0845548237811387,1.5279354772360685,-0.4619619035878134,1.643959587947536,1.6240919049440508,7.990724046893781,29.89788613952387,21.39125873483106,-0.541463221738951,2.166775022381486,-7.070365842183759,-1.0,11.878333333333334,0.0,178.56245509434373,1.02760124915038,93.21310866406964,1553.0,1435.0,1000.0,1071.0,1471.0,1011.0,183.0,293.5,1649157048.416828,1649157049.5587845,41829b95-5b3b-43fb-a8bd-7247650c9d9a
0.7030783384232153,0.6057911443628174,2.010505890459268,-0.0879077415638421,1.525779090820039,-0.4585037957226774,1.6431443687102072,1.6221853437229874,8.00462088347923,29.762330733517647,21.346294683553275,-0.5271810198682941,2.1650221261607023,-7.062174705048075,-1.0,11.885666666666667,0.0,178.56779630227473,1.0251954810267851,93.18473529934752,1553.0,1435.0,1000.0,1071.0,1471.0,1011.0,183.0,293.5,1649157049.671882,1649157050.777771,41829b95-5b3b-43fb-a8bd-7247650c9d9a
0.7180415533015282,0.6037136505570769,2.0190131001800085,-0.0827403037203514,1.533405335414581,-0.4623958107391341,1.6514411972794352,1.6337036036307742,8.18762041564364,29.84121588054221,21.242915483429144,-0.5465611915465342,2.156755710195158,-7.096227380820518,-1.0,11.872222222222222,0.0,178.5772174098699,1.0316891885164363,93.14042027310256,1553.0,1435.0,1000.0,1071.0,1471.0,1011.0,183.0,293.5,1649157050.8892295,1649157052.015546,41829b95-5b3b-43fb-a8bd-7247650c9d9a
0.2797971888163785,0.4046960978528512,0.5606177070178852,-0.2348236152884384,0.2035210579692353,-0.0434278917117919,0.2402552263823201,0.2236823910917066,-1.6625526741554706,27.76768146466696,22.2016982163816,0.646808799426878,1.3977733761933706,-1.3177951173580678,-1.0,11.989555555555556,0.0,178.7124445306974,1.1091436404260868,93.27785202721222,1553.0,1435.0,1000.0,1613.0,1471.0,1011.0,183.0,293.5,1649157052.9222603,1649157054.0576584,71c09a0f-6ae7-418d-b9df-ada496999f23
0.2744703235780008,0.4121897583822035,0.5749706033192158,-0.2393018425901231,0.215906033520204,-0.047081037934049,0.2562330828854365,0.2413224619703386,-1.4325189218345886,27.590043747600625,22.25759759833144,0.648363276050538,1.4252138522282751,-1.375797459298198,-1.0,11.991,0.0,178.72362023799937,1.1180755001480536,93.37317338835902,1553.0,1435.0,1000.0,1613.0,1471.0,1011.0,183.0,293.5,1649157054.165947,1649157055.286301,71c09a0f-6ae7-418d-b9df-ada496999f23
0.2791397540577553,0.4009432410967046,0.5678631858207105,-0.2345496841517204,0.2108350199304251,-0.0401955038152408,0.2516370659769376,0.2216553005909981,-1.3778883131162598,27.65474616082176,22.245861147103582,0.6532169324082487,1.3817153649564675,-1.3539826804491453,-1.0,11.988,0.0,178.71088876538647,1.131384337189235,93.41284312705844,1553.0,1435.0,1000.0,1613.0,1471.0,1011.0,183.0,293.5,1649157055.395615,1649157056.514571,71c09a0f-6ae7-418d-b9df-ada496999f23
0.1984971604288014,0.3819740567987718,0.3347176459523867,-0.1795936068606283,-0.0019152650893033,-0.0618733217903394,-0.0078979220006901,-0.0302112602423772,-3.0864739862732247,28.220621266381382,21.821676355913887,0.4717510219732655,1.304885022613326,-0.3807223325365338,-1.0,11.988888888888887,0.0,178.76109065578603,1.1233769127407145,93.47673575219436,1553.0,1435.0,1000.0,1694.0,1471.0,1011.0,183.0,293.5,1649157058.4499297,1649157059.592131,a134515f-bc96-4f3f-9090-68a7470efdb3
0.2036514491641473,0.3803567672911722,0.3308913756020824,-0.181394978518903,-0.0037429339233984,-0.0561404900450915,-0.0085553568685635,-0.0381530730005982,-3.0992881409941884,28.029733554153736,22.16046201462717,0.4872885271358237,1.2958832352872207,-0.3717455835495179,-1.0,11.989111111111113,0.0,178.76963446352784,1.1232396686270794,93.51315280302909,1553.0,1435.0,1000.0,1694.0,1471.0,1011.0,183.0,293.5,1649157059.7014878,1649157060.8227494,a134515f-bc96-4f3f-9090-68a7470efdb3
0.1956175960888001,0.3625534339097548,0.3221474931979379,-0.1728746224975829,-0.0089498177204155,-0.0484222050665312,-0.0168258869545816,-0.0405592845255854,-3.302257237045392,28.269818255544205,21.8260956994103,0.4864134024873272,1.2319106743174078,-0.3437508412429495,-1.0,11.988111111111111,0.0,178.75816581700147,1.0983394313819554,93.55122883092216,1553.0,1435.0,1000.0,1694.0,1471.0,1011.0,183.0,293.5,1649157060.9341068,1649157062.044371,a134515f-bc96-4f3f-9090-68a7470efdb3
0.1232455305856224,0.3336109641041891,0.100824264628527,-0.111732632554564,-0.2084166474318654,-0.0634659576373467,-0.2617510527141435,-0.2832957424746368,-4.949256529191669,28.902659574508565,21.865934775636063,0.3070387878217798,1.113114911467383,0.5740180942832646,-1.0,11.973444444444445,0.0,178.78753714825234,1.0982787185893332,93.62767534375256,1553.0,1435.0,1000.0,1774.0,1471.0,1011.0,183.0,293.5,1649157062.954846,1649157064.0953617,92d1334f-a20e-474a-a2d9-9b02cab7ea9f
0.1164492983610962,0.3399245293089366,0.1063116537686998,-0.1166244957396751,-0.2057200687151198,-0.0656601464383559,-0.257683722149597,-0.2721209927708521,-4.898553551884202,28.96755439664985,21.82881884477406,0.3138660344993407,1.1377159787982,0.5577518538207328,-1.0,11.97222222222222,0.0,178.80090003390853,1.1202698169985932,93.6221072217592,1553.0,1435.0,1000.0,1774.0,1471.0,1011.0,183.0,293.5,1649157064.203726,1649157065.3225873,92d1334f-a20e-474a-a2d9-9b02cab7ea9f
0.1317784863997468,0.3440340444582504,0.1109049315627896,-0.1125681227040457,-0.2010615947575548,-0.0739301288720129,-0.2538070477512125,-0.2725850322949303,-4.786223078829148,28.847920635197116,21.79006186449365,0.2856181101152721,1.1524673479024987,0.5402319527338949,-1.0,11.970777777777778,0.0,178.79467849048456,1.1063695994117753,93.62306041260337,1553.0,1435.0,1000.0,1774.0,1471.0,1011.0,183.0,293.5,1649157065.4311588,1649157066.5545976,92d1334f-a20e-474a-a2d9-9b02cab7ea9f
0.060323541192389814,0.3127511067848965,-0.08936615116463202,-0.052810034712405786,-0.38188358711493725,-0.08877719911082045,-0.47919765710716167,-0.4937844962493554,-6.477499639565212,29.740480870075398,21.50426847002714,0.11250297929366226,1.0296022499530533,1.3752043430405767,-1.0,11.945666666666666,0.0,178.8478993244973,1.0844190908246136,93.63144484926451,1553.0,1435.0,1000.0,1856.0,1471.0,1011.0,183.0,293.5,1649157068.2723606,1649157069.2302392,d8c1eaf5-2f33-44aa-bfba-1a065e04f452
0.03779379804451916,0.3085911882702019,-0.0852385560450852,-0.04936891122055962,-0.3774683636323961,-0.08959077478610754,-0.4723756735396813,-0.4910731244918248,-6.201122810689228,29.66600846470418,21.30133690525849,0.10273104730196111,1.0136792049611758,1.3533156777835018,-1.0,11.945,0.0,178.85017908986026,1.0940820060891507,93.56517683611723,1553.0,1435.0,1000.0,1856.0,1471.0,1011.0,183.0,293.5,1649157069.338998,1649157070.4412737,d8c1eaf5-2f33-44aa-bfba-1a065e04f452
0.05983046506994224,0.3102583332755242,-0.08829781951965125,-0.047988845825239164,-0.3801167306992869,-0.09092755888504407,-0.4786497945553118,-0.5023585438344534,-6.470300321745803,29.77341277115737,21.488273553347522,0.09706799243432762,1.01981833472908,1.370271133714682,-1.0,11.947777777777778,0.0,178.85630501063588,1.0764312083062184,93.47856472507212,1553.0,1435.0,1000.0,1856.0,1471.0,1011.0,183.0,293.5,1649157070.54975,1649157071.6696599,d8c1eaf5-2f33-44aa-bfba-1a065e04f452
