raw_voltage_G-,raw_voltage_G0,raw_voltage_G1,raw_voltage_G2,raw_voltage_G3,raw_voltage_G4,raw_voltage_G5,raw_voltage_G6,load_x,load_y,load_z,load_l,load_m,load_n,rpm,voltage,current,roll,pitch,yaw,aileron1_pwm,elevator_pwm,throttle_pwm,rudder_pwm,aileron2_pwm,pbaro,pdiff,Tt,sample_start_time,sample_end_time,uid
-0.1917479340221249,0.0036608779381004,-0.372789070555384,-0.012227130362417,-0.5091931280439271,0.169129000640424,-0.753211100129791,-0.7784264761516037,-22.39175637493891,29.56230476579667,18.36982883885134,0.5767033575666939,-0.0122235248501994,2.272556874384439,-1.0,11.984555555555556,0.0,179.3336714851875,1.0748137222754277,96.10039582750386,1553.0,1435.0,1000.0,1528.0,1471.0,1011.0,183.0,293.5,1649156368.4742787,1649156369.6181383,7c570d5c-7bac-4b74-9d64-0e29397e498b
-0.1849407438015757,0.0040854712742581,-0.3739395816073883,-0.0090632252828294,-0.5103710323339125,0.1673895377392665,-0.7539370179328461,-0.7697565507132694,-22.25777005189789,29.52673314403006,18.588218703550808,0.5654667190345157,-0.0139780317791528,2.2772584841086387,-1.0,11.983444444444444,0.0,179.3256042728678,1.074639742179069,96.43681831289264,1553.0,1435.0,1000.0,1528.0,1471.0,1011.0,183.0,293.5,1649156369.7316787,1649156370.8478854,7c570d5c-7bac-4b74-9d64-0e29397e498b
-0.1804071824956143,0.011399433658638,-0.3593801372131359,-0.0121586476244489,-0.4990713685733625,0.1622533284222765,-0.7400213084863116,-0.7598950242400978,-22.05916977615605,29.533577566912868,18.58011648226852,0.561776499735446,0.013424159827086,2.2231913016673213,-1.0,11.985111111111111,0.0,179.3107797267293,1.0537952617767248,96.6932896394969,1553.0,1435.0,1000.0,1528.0,1471.0,1011.0,183.0,293.5,1649156370.956345,1649156372.0708416,7c570d5c-7bac-4b74-9d64-0e29397e498b
0.0229730257594748,0.388164352938817,-0.3552163826482107,-0.2660243796266026,-0.5871402654599176,0.0390938753074979,-0.7994643991234452,-0.8257070182207723,-21.98783717015294,28.35474974518191,20.11940452322712,0.8503536715659363,1.4438744055900097,2.4681703656958454,-1.0,11.964,0.0,179.17377068543823,1.0761843491427787,97.16446796266052,1631.0,1435.0,1000.0,1528.0,1531.0,1011.0,183.0,293.5,1649156373.8064563,1649156374.7518234,2740cfa9-6867-41c6-bb44-16b631dddc93
0.0377242194333407,0.3944373762808639,-0.3484639781415191,-0.2614360318125915,-0.5808535431244389,0.0279174834826749,-0.7963415823547063,-0.8121200259640204,-22.04407536265002,28.348256585040527,20.04344283492924,0.8151414014369975,1.4683363762123915,2.44661259275028,-1.0,11.957777777777778,0.0,179.18863317707218,1.0595758548283445,97.28927221481462,1631.0,1435.0,1000.0,1528.0,1531.0,1011.0,183.0,293.5,1649156374.8858154,1649156375.9623177,2740cfa9-6867-41c6-bb44-16b631dddc93
0.029369318692431,0.3925609479073743,-0.3400816827904036,-0.2607649004117877,-0.5736491510226552,0.0288214563539536,-0.7877949258044739,-0.8099011829670703,-21.96119217582616,28.455612654548407,20.061869067236017,0.8168325584019621,1.4609992737758903,2.41302406750987,-1.0,11.964222222222222,0.0,179.1784228031729,1.0565803781325036,97.37278341997656,1631.0,1435.0,1000.0,1528.0,1531.0,1011.0,183.0,293.5,1649156376.071439,1649156377.19126,2740cfa9-6867-41c6-bb44-16b631dddc93
0.326858561135407,0.8846097699277123,-0.3037721002522084,-0.5779635684212631,-0.6644984546741756,-0.152014214171993,-0.8390063827982984,-0.8596608040421501,-21.190583208422584,27.362263971198768,21.320197128649244,1.121141666051274,3.331212045616273,2.6197034759567024,-1.0,11.93511111111111,0.0,178.94246860592546,1.0572409024855196,97.53811346120604,1712.0,1435.0,1000.0,1528.0,1591.0,1011.0,183.0,293.5,1649156378.305394,1649156379.4416647,5ccfd26a-df54-4822-8134-2ce65efb8a62
0.3105322643627282,0.8770492702273983,-0.3160168254653822,-0.5757036355312893,-0.6744969461045205,-0.1466999489979186,-0.8524153203838304,-0.8754118550382328,-21.485638251081834,27.511338163699,21.21946894811204,1.1281996199750746,3.3047846851812657,2.6677995650472286,-1.0,11.927888888888887,0.0,178.9404104422556,1.075854081037287,97.53817796854824,1712.0,1435.0,1000.0,1528.0,1591.0,1011.0,183.0,293.5,1649156379.5502365,1649156380.6723237,5ccfd26a-df54-4822-8134-2ce65efb8a62
0.3174079363367294,0.8788572158058944,-0.3082097859451338,-0.5743750690353565,-0.6662927045345778,-0.1503569304635062,-0.8438001808355634,-0.8621535794713705,-21.40926323436486,27.37791578915078,21.189787580896784,1.1165229530815295,3.311617168885404,2.6340138316828186,-1.0,11.937111111111111,0.0,178.92497573255116,1.0665286198064308,97.52577130937584,1712.0,1435.0,1000.0,1528.0,1591.0,1011.0,183.0,293.5,1649156380.7860806,1649156382.1120107,5ccfd26a-df54-4822-8134-2ce65efb8a62
0.6019517254242355,1.3731621629944295,-0.2538443024105368,-0.8867438449706397,-0.7433572437356453,-0.3435841673994225,-0.8820234604748728,-0.9049810967030916,-20.48827185319677,26.62976322163181,21.748056083877124,1.3852430184868545,5.19598786131665,2.778104774083328,-1.0,11.882666666666664,0.0,178.53571414483324,1.102260624011712,97.55466376847492,1796.0,1435.0,1000.0,1528.0,1650.0,1011.0,183.0,293.5,1649156383.7879412,1649156384.8430946,e810c869-7fba-48f0-bdaa-e46a69142754
0.5924320702568947,1.3661670563546409,-0.2641791789894973,-0.8917009063969804,-0.753179324080999,-0.3325918556161975,-0.8904649280469188,-0.9123838169002232,-20.57732145868728,26.734978550661577,21.61444779288108,1.4212428809074285,5.171523325236508,2.8164054560026703,-1.0,11.88511111111111,0.0,178.54146668193422,1.1092279031417849,97.54273370472464,1796.0,1435.0,1000.0,1528.0,1650.0,1011.0,183.0,293.5,1649156384.9509697,1649156386.200506,e810c869-7fba-48f0-bdaa-e46a69142754
0.6072375008044704,1.376515080679083,-0.2614179523851245,-0.8951195690873216,-0.7529032012696885,-0.339902531874952,-0.8895050725975417,-0.9140011072713852,-20.4679355610357,26.67363349997669,21.58353334945853,1.41230744170032,5.210429412659184,2.812179089397876,-1.0,11.890555555555554,0.0,178.52872458458262,1.0981488857052664,97.46445746010656,1796.0,1435.0,1000.0,1528.0,1650.0,1011.0,183.0,293.5,1649156386.3090465,1649156387.6312668,e810c869-7fba-48f0-bdaa-e46a69142754
0.7157038249131308,1.5746286940750196,-0.263613784976856,-1.0304569890540567,-0.8107503687670663,-0.4329580644830637,-0.9341290332338592,-0.9582760808274464,-20.08477155555695,26.585367342653463,18.054758893100697,1.507423199666195,5.998561645441886,2.975609469236358,-1.0,11.728777777777776,0.0,178.3327619038355,1.1347537786001014,97.35971878591414,1886.0,1435.0,1000.0,1528.0,1710.0,1011.0,183.0,293.5,1649156389.2897072,1649156390.3020604,950ba61f-6a40-4dc2-8eeb-94616bb0b702
0.7271815399102838,1.5869419017984978,-0.2452056080147837,-1.0327169228123363,-0.7955197885676416,-0.4428058923227603,-0.9179670850587232,-0.9418128074359696,-19.9719912619776,26.529224818237697,18.207162781291043,1.491017166004701,6.044038952100654,2.908548274610387,-1.0,11.740333333333334,0.0,178.32486924079456,1.1207436257983607,97.09935349257304,1886.0,1435.0,1000.0,1528.0,1710.0,1011.0,183.0,293.5,1649156390.4112575,1649156391.5249505,950ba61f-6a40-4dc2-8eeb-94616bb0b702
0.7207167648814782,1.5842847691040691,-0.2540398892576642,-1.036675231647731,-0.8035185823779317,-0.434190755412303,-0.9259795761558712,-0.9459217771384084,-20.144899946177585,26.56968108316945,18.47900961031436,1.5190901012668612,6.032815514876661,2.9427827714352195,-1.0,11.739555555555556,0.0,178.31897554645076,1.13743472271307,96.89644223271031,1886.0,1435.0,1000.0,1528.0,1710.0,1011.0,183.0,293.5,1649156391.633723,1649156392.7539942,950ba61f-6a40-4dc2-8eeb-94616bb0b702
-0.4929270908836752,-0.5551467384038612,-0.3950613226302358,0.3647624146947988,-0.3926025159403158,0.3600157357067177,-0.6820974433300182,-0.7072509094818347,-22.82737315045205,31.341620228322828,17.189000669877146,0.165534066673326,-2.142340247657645,1.975854427099389,-1.0,11.975444444444443,0.0,179.5017123526076,1.0135358856528485,96.5944264458105,1475.0,1435.0,1000.0,1528.0,1408.0,1011.0,183.0,293.5,1649156393.869869,1649156395.0068717,7f920bc8-a997-4f56-adab-a411f4115f8d
-0.4992283521804431,-0.5564504825872901,-0.400575178883979,0.3744140627501254,-0.39669378411677,0.3498234739961447,-0.6916671692477073,-0.7167382033535346,-22.952558032024,31.42668216728466,16.763766164825828,0.1210174732919536,-2.144111641456984,2.00177278773632,-1.0,11.98175,0.0,179.5018758976927,1.0215604448641304,96.60097906368176,1475.0,1435.0,1000.0,1528.0,1408.0,1011.0,183.0,293.5,1649156395.1153555,1649156396.2356024,7f920bc8-a997-4f56-adab-a411f4115f8d
-0.4946232730685285,-0.5491903772783203,-0.3934966274219384,0.3642759129540818,-0.3931547612584506,0.3516663141974764,-0.6821105919969566,-0.697981074893492,-22.64986177804613,31.33107914827644,16.773443546331677,0.1479003762196856,-2.117414668214162,1.974751286441628,-1.0,11.981000000000002,0.0,179.49423405437634,1.0119144390609762,96.5563489000976,1475.0,1435.0,1000.0,1528.0,1408.0,1011.0,183.0,293.5,1649156396.3439834,1649156397.4647825,7f920bc8-a997-4f56-adab-a411f4115f8d
-0.7279546353725616,-0.9737395039945064,-0.4200148138813047,0.6514943644839285,-0.3166331707408909,0.500352854815331,-0.6433920503228917,-0.6674843059895507,-23.2565070284204,33.16691986702359,16.401590900650145,-0.1553906357392971,-3.739155326496037,1.8009920675288285,-1.0,11.925333333333334,0.0,179.66548662852614,1.0061426327631326,96.4421989841388,1396.0,1435.0,1000.0,1528.0,1340.0,1011.0,183.0,293.5,1649156399.3997743,1649156400.5332687,d66e0bf9-1d5f-4402-a9f0-f3f26a3b9b48
-0.7356521044821341,-0.9889016036605746,-0.4329443679527675,0.6572469185309543,-0.3244265138052351,0.5106800590568761,-0.6534864176256115,-0.6765514310014461,-23.475402716853733,33.16026509484143,16.42338434907388,-0.1459550147174304,-3.796194323809443,1.8416997294342967,-1.0,11.933555555555554,0.0,179.65851831775294,0.9822670187572492,96.30222715856785,1396.0,1435.0,1000.0,1528.0,1340.0,1011.0,183.0,293.5,1649156400.6421344,1649156401.7653365,d66e0bf9-1d5f-4402-a9f0-f3f26a3b9b48
-0.734282448112013,-0.9774238804807172,-0.4213981665639478,0.6525216062777971,-0.3167564397811463,0.5044892151411825,-0.6437070713104877,-0.6647997795082136,-23.3202572684868,33.16232393118501,16.60461576899191,-0.1485119632536471,-3.7545364247393054,1.803300999038271,-1.0,11.924555555555555,0.0,179.63754660136135,0.9981527462482622,96.18234367825578,1396.0,1435.0,1000.0,1528.0,1340.0,1011.0,183.0,293.5,1649156401.8739223,1649156402.993943,d66e0bf9-1d5f-4402-a9f0-f3f26a3b9b48
-1.0564804680593336,-1.525718419772006,-0.4606207362584513,1.039816421252078,-0.224430665471008,0.6814355865052566,-0.6049540152952247,-0.6339731983046687,-23.94490970611197,35.84776462580529,16.05530005180773,-0.609084964873369,-5.85180983945267,1.6105769329440591,-1.0,11.883666666666668,0.0,179.84405357636717,0.9813208834036272,95.86996725329494,1314.0,1435.0,1000.0,1528.0,1268.0,1011.0,183.0,293.5,1649156404.931598,1649156406.2703855,2cdfdf6b-9aaa-422a-95f9-d5e92371a39a
-1.0444099567278475,-1.5201828122166523,-0.45348099246814,1.040394963855372,-0.2176722348301647,0.6769387328264307,-0.5991948844152785,-0.6241116722090951,-23.9926472694758,35.79073401945394,16.31327306193344,-0.6205005045785694,-5.832616055535456,1.5844684265025193,-1.0,11.894444444444446,0.0,179.83528968475215,0.9571932045866554,95.65251603850908,1314.0,1435.0,1000.0,1528.0,1268.0,1011.0,183.0,293.5,1649156406.3793488,1649156407.5087278,2cdfdf6b-9aaa-422a-95f9-d5e92371a39a
-1.0331941112393794,-1.5100583044461473,-0.442843694779692,1.0309542005153165,-0.2120051461435345,0.6737830460344061,-0.5888337084508745,-0.6132508454792798,-23.72721922814258,35.812804828787186,16.11834961017516,-0.6055171907997865,-5.792956946243345,1.5485416608733018,-1.0,11.894333333333334,0.0,179.8344093492591,0.9680011370325216,95.52540166459568,1314.0,1435.0,1000.0,1528.0,1268.0,1011.0,183.0,293.5,1649156407.621323,1649156408.7248952,2cdfdf6b-9aaa-422a-95f9-d5e92371a39a
-1.172668460136592,-1.7378575678298505,-0.436231542745969,1.1692242403374966,-0.1573558724102337,0.7330984526382097,-0.5546246255223666,-0.5745668216617924,-24.079121274421084,37.28696047286447,11.06491562007354,-0.775011973956364,-6.616643376125427,1.3820579310681262,-1.0,11.752999999999998,0.0,179.90136038132337,0.9735857534584248,95.2442452754211,1227.0,1435.0,1000.0,1528.0,1189.0,1011.0,183.0,293.5,1649156410.8683002,1649156412.0053518,d16c3e04-9829-4608-a5f2-c02199c55fdb
-1.1544109333500094,-1.7282562666185612,-0.4199463310355407,1.1747028636216033,-0.1438921542642317,0.7185801019354776,-0.5425305608050729,-0.5656366628338022,-23.941791840950543,37.345402912090215,11.163327422837549,-0.8187119460067525,-6.582118013397317,1.3257226014034709,-1.0,11.75911111111111,0.0,179.89780261167573,0.9687207852105408,94.91698966280836,1227.0,1435.0,1000.0,1528.0,1189.0,1011.0,183.0,293.5,1649156412.114297,1649156413.2392538,d16c3e04-9829-4608-a5f2-c02199c55fdb
-1.1659571409144815,-1.7363235510682593,-0.4362178461290604,1.179482962382608,-0.1569997618290824,0.723579345333663,-0.5590760083240823,-0.5780594447332205,-24.17102469313824,37.41242739589378,11.250071486301694,-0.8187281721470304,-6.613140514692589,1.388312993646661,-1.0,11.767555555555557,0.0,179.92527818597694,0.971767535757026,94.6853339312786,1227.0,1435.0,1000.0,1528.0,1189.0,1011.0,183.0,293.5,1649156413.348017,1649156414.463267,d16c3e04-9829-4608-a5f2-c02199c55fdb
-0.1641904557474569,0.0362860808564394,-0.3702278135625166,-0.0312653472931384,-0.5113708813880841,0.1599933963293358,-0.7543753079760775,-0.7787004076419901,-22.521902171948863,29.21824806536881,19.13305409031256,0.5970228783819399,0.1067980629176208,2.278596741011472,-1.0,11.982444444444443,0.0,179.3409888945183,1.092091966441444,94.28616932817404,1553.0,1435.0,1000.0,1528.0,1471.0,1011.0,183.0,293.5,1649156416.397849,1649156417.53869,47397efc-5950-4ad9-92b0-4abe72101b31
-0.16836790652007,0.0310539954420241,-0.3661873280730923,-0.0218832044418613,-0.5051115524711856,0.1557611598677437,-0.7518551401873137,-0.767126810042286,-22.64629827882436,29.26929856986469,19.056154090316763,0.5668133953484767,0.0878384377741522,2.260208275005576,-1.0,11.985777777777775,0.0,179.35650556649273,1.0897233018975594,94.58451578566977,1553.0,1435.0,1000.0,1528.0,1471.0,1011.0,183.0,293.5,1649156417.6480474,1649156418.7648842,47397efc-5950-4ad9-92b0-4abe72101b31
-0.1784211813534001,0.030519829667684,-0.372200118374121,-0.0191164994844999,-0.5118776541993223,0.1551859044337683,-0.7593608575125458,-0.7722493254628113,-22.61541945266076,29.4044046504142,19.208217469418056,0.5599157321557025,0.0835491765863953,2.2884468282810104,-1.0,11.983555555555556,0.0,179.36526642246815,1.1072318159307504,94.84503817336171,1553.0,1435.0,1000.0,1528.0,1471.0,1011.0,183.0,293.5,1649156418.8738887,1649156419.9885948,47397efc-5950-4ad9-92b0-4abe72101b31
-0.1608758882390421,0.0110570196832318,-0.4123447394531297,-0.4180835987777679,-0.5871676585779352,0.560467044874945,-0.6824409531736307,-0.7033829996204446,-22.49651861934068,28.39311579064749,22.035884032838823,2.3624163051657416,0.0312080012658902,2.334831712842062,-1.0,11.974333333333334,0.0,179.34909708797304,1.2504602899275523,95.31383503723472,1553.0,1522.0,1000.0,1528.0,1471.0,1011.0,183.0,293.5,1649156421.9327948,1649156423.0406618,b7e87d92-4c1c-41c3-962f-864f30e7399a
-0.1623688133124722,0.0059482032663009,-0.4137554852591389,-0.4171796256468948,-0.5886605839165433,0.5640281497761818,-0.6826874912830837,-0.7026296887600494,-22.412280780559666,28.47664714436949,21.94107217299096,2.3688902247939585,0.0120916184095647,2.338419812452026,-1.0,11.97222222222222,0.0,179.3548435537947,1.2485086463779926,95.3937300366861,1553.0,1522.0,1000.0,1528.0,1471.0,1011.0,183.0,293.5,1649156423.153905,1649156424.2941575,b7e87d92-4c1c-41c3-962f-864f30e7399a
-0.1792780380725892,-0.0084896133318941,-0.419557348776426,-0.4129435531628835,-0.5902537681911697,0.5741685329292343,-0.6854503622531017,-0.7091048762090044,-22.58707257559438,28.489680843051666,21.893916873172948,2.38182348335418,-0.0412930397217689,2.350528176434003,-1.0,11.97777777777778,0.0,179.3740804021371,1.2543998861225727,95.4742731451987,1553.0,1522.0,1000.0,1528.0,1471.0,1011.0,183.0,293.5,1649156424.4032552,1649156425.5195787,b7e87d92-4c1c-41c3-962f-864f30e7399a
-0.1769507186635036,-0.0355627795915839,-0.499869604261291,-0.9257428995426684,-0.7165601897377354,1.0990118485867304,-0.6195490729817884,-0.6431509909411619,-22.648863729183475,27.53801204252466,25.55973014222308,4.708211686886109,-0.116857474413461,2.5359526877110974,-1.0,11.96322222222222,0.0,179.37130734533406,1.4287260453989004,95.66397785484628,1553.0,1613.0,1000.0,1528.0,1471.0,1011.0,183.0,293.5,1649156427.457484,1649156428.5912457,172ca6bd-55b1-4f2e-95a7-8968d15d0f84
-0.186299442504805,-0.0308161001104428,-0.5005007418278157,-0.927425933742318,-0.7183484131292676,1.0936734781861586,-0.6220736235237392,-0.646109449014278,-22.652051975123705,27.54341557877185,25.229687477144616,4.699962347280225,-0.0959395165498027,2.542932692949477,-1.0,11.964125,0.0,179.37362031300552,1.4374590944409638,95.62312734719406,1553.0,1613.0,1000.0,1528.0,1471.0,1011.0,183.0,293.5,1649156428.70078,1649156429.823477,172ca6bd-55b1-4f2e-95a7-8968d15d0f84
-0.1577930666431273,-0.018522068802168,-0.4806725028563426,-0.9260453197831974,-0.7018599414267972,1.0792888052073426,-0.6065055619240615,-0.6249926353109859,-22.57070061136848,27.56772743002244,25.213519061858268,4.665710592571844,-0.0491744753289035,2.47280491669802,-1.0,11.960888888888888,0.0,179.38192904840335,1.4427542460268854,95.60159166587728,1553.0,1613.0,1000.0,1528.0,1471.0,1011.0,183.0,293.5,1649156429.9315789,1649156431.0521004,172ca6bd-55b1-4f2e-95a7-8968d15d0f84
-0.1662723327948812,-0.0442085955287323,-0.5616235689534356,-1.4094958703947649,-0.8294872698436494,1.575094377270575,-0.5542137285831426,-0.5754981881661282,-22.714389691833485,27.111826441318414,28.726135505403388,6.863832466736366,-0.1212462899372555,2.6802245859002114,-1.0,11.920666666666667,0.0,179.355672283414,1.5985953876621215,95.53424751848075,1553.0,1710.0,1000.0,1528.0,1471.0,1011.0,183.0,293.5,1649156432.9867966,1649156434.125984,69fc05ae-1cf2-4e67-a231-fe327dcc61ef
-0.1575826874892945,-0.0389814407451267,-0.5466000834480342,-1.406222937353711,-0.81667440707694,1.5657116855380355,-0.5404596405531408,-0.5568560701590617,-22.485592439255047,27.1125384760142,28.658451862672337,6.836222541535522,-0.102111320870866,2.6234368814300706,-1.0,11.919625,0.0,179.357038321248,1.6113297906751964,95.41178848766918,1553.0,1710.0,1000.0,1528.0,1471.0,1011.0,183.0,293.5,1649156434.2339363,1649156435.350549,69fc05ae-1cf2-4e67-a231-fe327dcc61ef
-0.1534386563594383,-0.0289095390966775,-0.5445987416900463,-1.4136185386478044,-0.8159413668731604,1.562493541773002,-0.5401884485478493,-0.5619796804464282,-22.62472076697497,27.015413478718497,28.646431110295364,6.845057457671182,-0.0622085262637848,2.62040375314417,-1.0,11.915888888888889,0.0,179.35878533185573,1.607647048427812,95.3097741103182,1553.0,1710.0,1000.0,1528.0,1471.0,1011.0,183.0,293.5,1649156435.4590044,1649156436.5787363,69fc05ae-1cf2-4e67-a231-fe327dcc61ef
-0.1427005536334679,-0.030909236736115,-0.5134390627772639,-1.6666353685021906,-0.8256385357364406,1.806826495960881,-0.448065372226977,-0.4651449852610834,-22.06398660061008,27.77899278382453,30.4420295036354,7.972032099791716,-0.0564515954497795,2.460124785806131,-1.0,11.88,0.0,179.3717778694769,1.749213082839754,95.03269989753755,1553.0,1814.0,1000.0,1528.0,1471.0,1011.0,183.0,293.5,1649156438.9259682,1649156440.0622675,5e530509-418e-4750-a9ba-e976033acde0
-0.1612380252855002,-0.0576920361575464,-0.5374880345781606,-1.654155049893131,-0.8410652509148894,1.820967375430105,-0.4680103054255076,-0.4912966525065257,-22.37083439805868,27.802301829276352,30.18755566062996,7.974418019265129,-0.1555369641749948,2.5386009021978926,-1.0,11.89,0.0,179.36872098036835,1.7134999565184286,94.8703311227682,1553.0,1814.0,1000.0,1528.0,1471.0,1011.0,183.0,293.5,1649156440.1706116,1649156441.2227705,5e530509-418e-4750-a9ba-e976033acde0
-0.1480498819682066,-0.0352735082869197,-0.5216175538916022,-1.6599799294525024,-0.8313352110862244,1.8030851437130504,-0.4559266506610874,-0.4777666405487791,-22.040264903591016,27.690992713010235,30.11287229574648,7.947580615811388,-0.071410243680606,2.4893435696866164,-1.0,11.884444444444444,0.0,179.35244843412576,1.680996734515794,94.75077169698676,1553.0,1814.0,1000.0,1528.0,1471.0,1011.0,183.0,293.5,1649156441.3522851,1649156442.3170416,5e530509-418e-4750-a9ba-e976033acde0
-0.1939256870868372,0.0362312946330911,-0.310606684085265,0.5276227004691406,-0.4001684964360439,-0.3786375021221455,-0.8506895532189945,-0.8758227516641658,-22.659311514623585,30.9300359306837,15.556911497655136,-1.860390020409415,0.0742580037858192,2.182047149994869,-1.0,11.985,0.0,179.35124480301204,0.979905196260502,94.66397668865388,1553.0,1349.0,1000.0,1528.0,1471.0,1011.0,183.0,293.5,1649156443.4318292,1649156444.5693576,ba1a0528-d7ab-4438-b342-96af872ab664
-0.1985962139798866,0.0142072282116213,-0.3313706701757701,0.5241711680191699,-0.4157962729692677,-0.3520798702397551,-0.863112338229565,-0.8941213641741937,-22.769883776591723,30.904470310661782,15.685783097495111,-1.7941641658077716,-0.0095970203170573,2.2467434952873133,-1.0,11.98688888888889,0.0,179.36002994410447,0.964425805735268,94.97967713901076,1553.0,1349.0,1000.0,1528.0,1471.0,1011.0,183.0,293.5,1649156444.677906,1649156445.804446,ba1a0528-d7ab-4438-b342-96af872ab664
-0.2014861881444336,0.0239591780437052,-0.3295216343983154,0.502297765955777,-0.4167550322056204,-0.3409034765004795,-0.8582226642306218,-0.8909437603905271,-22.83404240898776,30.74676617825768,15.797729624558905,-1.7206761017460117,0.0292482688932825,2.239733013447529,-1.0,11.984111111111112,0.0,179.35387518475238,0.9765136871724732,95.28287151299736,1553.0,1349.0,1000.0,1528.0,1471.0,1011.0,183.0,293.5,1649156445.9166992,1649156447.0372632,ba1a0528-d7ab-4438-b342-96af872ab664
-0.2166992312499243,0.0340858656828938,-0.2727389813687372,0.9987135994042284,-0.3192722240851457,-0.8322819171333431,-0.949252782040779,-0.9748664577959628,-23.12088341693235,32.70411850036858,12.186443321280665,-3.929578691783268,0.0437799325188286,2.158645011047761,-1.0,11.958444444444446,0.0,179.35845900059542,0.7927299748384502,95.71058327119287,1553.0,1264.0,1000.0,1528.0,1471.0,1011.0,183.0,293.5,1649156447.9371932,1649156449.0818727,cb1227d9-c43f-4ab2-994d-36ff95ff8c20
-0.2026564221950861,0.0419619347787773,-0.2744746094737505,0.990048609170644,-0.3243476216264032,-0.8292314181257668,-0.95072543687139,-0.9721446761192,-22.98509619800833,32.7223988213138,12.569336233052946,-3.903013571235675,0.0699224676847941,2.171525007941172,-1.0,11.944666666666668,0.0,179.36088751230028,0.8033900502899399,95.8996300059504,1553.0,1264.0,1000.0,1528.0,1471.0,1011.0,183.0,293.5,1649156449.1944897,1649156450.310725,cb1227d9-c43f-4ab2-994d-36ff95ff8c20
-0.2092439196961315,0.0322187508116653,-0.2730545500516697,0.9927966864936932,-0.319495751904942,-0.823196163569053,-0.9477275322631808,-0.980454657962698,-23.220351005824085,32.71551313110334,12.448325982273674,-3.8957631851704586,0.0358687507786785,2.157225312798797,-1.0,11.957,0.0,179.35746179297655,0.7920876287493189,96.01815503752756,1553.0,1264.0,1000.0,1528.0,1471.0,1011.0,183.0,293.5,1649156450.4250996,1649156451.5300026,cb1227d9-c43f-4ab2-994d-36ff95ff8c20
-0.2272631141684112,0.0489143079383391,-0.2370150650171288,1.423733694731139,-0.2519169225237218,-1.2527660010760078,-1.0493171631111746,-1.0743818838908428,-23.83549210926268,34.93319739723667,9.844601295998045,-5.817381150018662,0.0751825567082973,2.161482681483626,-1.0,11.926666666666668,0.0,179.33946652124328,0.6464053855772554,96.35000888527152,1553.0,1178.0,1000.0,1528.0,1471.0,1011.0,183.0,293.5,1649156453.4683335,1649156454.6047246,f5ebab01-eed4-45f4-8849-67e04c293f4b
-0.2214146829704795,0.0602550584361277,-0.2275370452975051,1.4124614264251674,-0.247739471549406,-1.2553683494967909,-1.0393186684218394,-1.0667802876527714,-23.504022855395064,34.90600179349886,9.652375847193053,-5.797373628321087,0.1190631497926852,2.1298827766517463,-1.0,11.935,0.0,179.33624570759468,0.6538670885832625,96.47540432824378,1553.0,1178.0,1000.0,1528.0,1471.0,1011.0,183.0,293.5,1649156454.7131526,1649156455.8349216,f5ebab01-eed4-45f4-8849-67e04c293f4b
-0.2230308770632741,0.0437917950087044,-0.2358234642053861,1.423418673912238,-0.2496980797008926,-1.2478900220067606,-1.0465504562818415,-1.073614875489064,-23.8797857489059,34.94469548692839,9.798373933017558,-5.805607673420113,0.0568077521478692,2.1521735722758097,-1.0,11.927555555555555,0.0,179.322755325074,0.6445444910515116,96.57577699373674,1553.0,1178.0,1000.0,1528.0,1471.0,1011.0,183.0,293.5,1649156455.9426355,1649156457.0613554,f5ebab01-eed4-45f4-8849-67e04c293f4b
-0.2189903918795352,0.0730065544216784,-0.192049258830423,1.6429334419192296,-0.2021025337456128,-1.4888538171699723,-1.0832846531339924,-1.0987617755291648,-23.74337461510472,36.663255766670495,8.354882546405008,-6.828846258437831,0.1539862360727945,2.082793190980255,-1.0,11.888666666666666,0.0,179.32760931284415,0.5722476383069979,96.68413718600908,1553.0,1088.0,1000.0,1528.0,1471.0,1011.0,183.0,293.5,1649156457.9727046,1649156459.1114757,bc919533-5fc4-4a83-a339-e7bc097fbaa7
-0.2306187713333743,0.0632819978496094,-0.206225198091061,1.6277850459284482,-0.2143335615785636,-1.464706758466041,-1.0914478070559428,-1.1191011792360472,-23.98140349168256,36.62800300248245,8.365728213318313,-6.741471174162988,0.1200676364085497,2.1289520615743487,-1.0,11.873888888888889,0.0,179.3307420929435,0.5707090789066159,96.6830284186338,1553.0,1088.0,1000.0,1528.0,1471.0,1011.0,183.0,293.5,1649156459.2195551,1649156460.342929,bc919533-5fc4-4a83-a339-e7bc097fbaa7
-0.2220310281876237,0.0668294065417098,-0.1995412769260466,1.6217722562413253,-0.2084303443852802,-1.460885414684715,-1.0828463620942814,-1.0999670731582938,-23.94732358961673,36.52179314575681,8.67573763482354,-6.719625415132723,0.1315459877792601,2.100435301629967,-1.0,11.889555555555557,0.0,179.3479632765708,0.5491147302965658,96.69247684698568,1553.0,1088.0,1000.0,1528.0,1471.0,1011.0,183.0,293.5,1649156460.4506073,1649156461.579243,bc919533-5fc4-4a83-a339-e7bc097fbaa7
-0.1734082404726116,0.0207267901955212,-0.3665434386209003,-0.0081592523667346,-0.5017695912948471,0.1538710348563019,-0.7502115524109069,-0.773345051360815,-22.524224151494337,29.192273296086977,19.150687811635947,0.531156335034377,0.0456896845054043,2.25292275560077,-1.0,11.985777777777775,0.0,179.32738467551144,1.04169261717022,96.70447521262766,1553.0,1435.0,1000.0,1528.0,1471.0,1011.0,183.0,293.5,1649156462.4806347,1649156463.618995,7c0b4ecd-c179-42e8-8b8a-ba560a30e9c0
-0.1788320780889015,0.0135908830808039,-0.3747202855892907,-0.0023382148257505,-0.5075495405144614,0.1556378908790592,-0.7595115196829387,-0.7790291248723547,-22.727673055094325,29.29860602815346,19.102449818807745,0.5221835016301014,0.0195599281923219,2.284116010543628,-1.0,11.988555555555555,0.0,179.35223745717138,1.067652304504571,96.73370918118523,1553.0,1435.0,1000.0,1528.0,1471.0,1011.0,183.0,293.5,1649156463.7280734,1649156464.8507082,7c0b4ecd-c179-42e8-8b8a-ba560a30e9c0
-0.1820507696451493,0.0074685213061844,-0.3785964124233613,-0.0013657592200853,-0.5100149217388853,0.1605823483461154,-0.7606894242911428,-0.7884797546188708,-22.65608348684773,29.252877773643423,19.06059384766029,0.5306339570789881,-0.0039046071693572,2.293712139674952,-1.0,11.984222222222222,0.0,179.3547236460293,1.0697552557169945,96.7696450831384,1553.0,1435.0,1000.0,1528.0,1471.0,1011.0,183.0,293.5,1649156464.9648068,1649156466.0758927,7c0b4ecd-c179-42e8-8b8a-ba560a30e9c0
-0.1046789045397995,0.0483801421323321,-0.1131844678431179,-0.0123503994489972,-0.2700374717148662,0.1154932786078495,-0.4899357616221456,-0.5053170015903128,-20.64097870729812,29.10195446989084,18.96687376790592,0.4673061210568798,0.1542826542138853,1.225765920822889,-1.0,11.989,0.0,179.3254889185618,1.0387268565404555,96.76139800917056,1553.0,1435.0,1000.0,1435.0,1471.0,1011.0,183.0,293.5,1649156467.9050915,1649156469.0434864,1a88523a-498f-4c80-9c39-4ef2727018e5
-0.1028972560285892,0.0543611553626771,-0.1041989770214523,-0.0185615149404181,-0.2632719187633492,0.115897053136057,-0.4792524432692781,-0.502288965210551,-20.449192205256388,29.0007836516844,19.120132102723502,0.482121925732755,0.1753319854567357,1.1901530552679325,-1.0,11.98988888888889,0.0,179.3406838127354,1.0495950156022844,96.78042767510811,1553.0,1435.0,1000.0,1435.0,1471.0,1011.0,183.0,293.5,1649156469.1515355,1649156470.4766085,1a88523a-498f-4c80-9c39-4ef2727018e5
-0.1026868768897944,0.0418961913002212,-0.1126798865891624,-0.0165103182919657,-0.2690310484594839,0.1245751924790444,-0.4858662390962041,-0.5118349215345854,-20.58981153813746,29.09340972713117,18.82776155507363,0.4970702134904091,0.1313787136679564,1.2169352537674214,-1.0,11.987222222222222,0.0,179.32964015575735,1.0460226962287271,96.78577495431834,1553.0,1435.0,1000.0,1435.0,1471.0,1011.0,183.0,293.5,1649156470.5915382,1649156471.7019093,1a88523a-498f-4c80-9c39-4ef2727018e5
-0.0154047320145305,0.0842651255087908,0.1773606320720734,-0.0210751074287577,-0.0065430583978896,0.0731298234350433,-0.1957199363706215,-0.2200587243927957,-18.755325549102256,29.27308111917219,19.04010936124978,0.4083530738653597,0.2943739955795978,0.0575487341354046,-1.0,11.982333333333331,0.0,179.2969736376869,1.043815691353167,96.70311600498285,1553.0,1435.0,1000.0,1330.0,1471.0,1011.0,183.0,293.5,1649156472.818874,1649156473.964753,57cb384b-bbff-450d-9ea4-c72827cb8e54
-0.0126314527804446,0.0856550522620978,0.1830211456050256,-0.0167206974669695,-0.0018758189971813,0.0664053610526538,-0.1905727691683042,-0.2095726373425362,-18.54509172216926,29.27159875836966,18.88838729472433,0.3837734970031389,0.2992664916416288,0.0362874134499414,-1.0,11.981666666666667,0.0,179.31180425510473,1.0449122568800715,96.69271059123726,1553.0,1435.0,1000.0,1330.0,1471.0,1011.0,183.0,293.5,1649156474.0849075,1649156475.188607,57cb384b-bbff-450d-9ea4-c72827cb8e54
0.0101667433748961,0.1027965690454989,0.1929336185868394,-0.0298135120298387,0.002510366978095,0.0607618310757519,-0.1824890595855431,-0.2043350727982096,-18.39674747222102,29.22977483372202,18.82887853063314,0.4009074193075234,0.3652747764099677,0.007288298182072,-1.0,11.982,0.0,179.30971877067816,1.0532964919557717,96.68024170145247,1553.0,1435.0,1000.0,1330.0,1471.0,1011.0,183.0,293.5,1649156475.29727,1649156476.4206212,57cb384b-bbff-450d-9ea4-c72827cb8e54
0.0789097710881858,0.1314256631228904,0.4762239036506607,-0.0237289526968619,0.2600725020280127,0.0124825574824436,0.1021566658164073,0.0834329224141071,-16.42960793248511,29.583013839537195,18.92164851375341,0.2961447949989992,0.4751220821267392,-1.13007233644746,-1.0,11.979222222222225,0.0,179.2648550525699,1.0470377263724149,96.5824849984116,1553.0,1435.0,1000.0,1210.0,1471.0,1011.0,183.0,293.5,1649156478.3499825,1649156479.4861455,8da929ae-6abd-489f-9eba-ed06cb601517
0.0893328520800915,0.1351752329053319,0.4806709018976637,-0.022061259743116,0.2630873883363217,0.007550700595611,0.1041525283093638,0.0863470021306445,-16.42866836036148,29.673434213680043,18.98480683938945,0.2821317265126326,0.4886969485714722,-1.142561204704431,-1.0,11.976,0.0,179.27950353160983,1.0570519813503516,96.60483793083532,1553.0,1435.0,1000.0,1210.0,1471.0,1011.0,183.0,293.5,1649156479.5999756,1649156480.7147076,8da929ae-6abd-489f-9eba-ed06cb601517
0.0912640668458922,0.1406401596343804,0.4777809282856188,-0.0252662546133328,0.258211413730337,0.0044826713744343,0.1002216160217889,0.0768141975177683,-16.329348948634657,29.68456086923193,18.8634702233967,0.2824276500580729,0.5097777746909801,-1.1258569070693525,-1.0,11.970555555555556,0.0,179.25895832258644,1.058025307023013,96.61826001146432,1553.0,1435.0,1000.0,1210.0,1471.0,1011.0,183.0,293.5,1649156480.8223133,1649156482.149781,8da929ae-6abd-489f-9eba-ed06cb601517
0.167453089769113,0.1747374672670322,0.7307694900466316,0.0120617991981978,0.4856120719166836,-0.079426832001111,0.3386491058051449,0.3251585442068845,-14.489632862363974,30.491429163057965,18.44363058792361,0.0284739583395398,0.6398193065547101,-2.1150896943500497,-1.0,11.953666666666669,0.0,179.2409918894297,1.0293048358818018,96.54979115958449,1553.0,1435.0,1000.0,1071.0,1471.0,1011.0,183.0,293.5,1649156484.290084,1649156485.431612,d475406a-e264-45b0-91e9-d13a7cedd460
0.1612671762514873,0.1667731926607318,0.7278800643192233,0.0103995848428451,0.4854236072959543,-0.0673420838876015,0.337062496590469,0.3143399072829282,-14.841113065343077,30.555846074681508,18.81828019803696,0.0595454977848108,0.6091381874230545,-2.1093574786497498,-1.0,11.951777777777778,0.0,179.25102923186995,1.0347185078509773,96.51400172724352,1553.0,1435.0,1000.0,1071.0,1471.0,1011.0,183.0,293.5,1649156485.5392787,1649156486.665139,d475406a-e264-45b0-91e9-d13a7cedd460
0.1693892351986197,0.1828940415405662,0.729071664805358,0.0006476349912349,0.4824103646748334,-0.0754778400692394,0.3350764957306062,0.3195856888415447,-14.791155807435745,30.515677763723943,18.62788663202633,0.0630492275030314,0.6722105739435568,-2.1024019666722995,-1.0,11.954555555555554,0.0,179.2464013992523,1.0226871296279998,96.51422105220686,1553.0,1435.0,1000.0,1071.0,1471.0,1011.0,183.0,293.5,1649156486.7772024,1649156487.8877437,d475406a-e264-45b0-91e9-d13a7cedd460
-0.2841651999801912,-0.0443592576755852,-0.6971658550134863,0.0523494047970964,-0.7981610339819011,0.1765256898657725,-1.098477433113573,-1.1209091257932329,-24.836844684370604,29.909828049015992,18.616503024623363,0.4326163655995839,-0.2057173808529254,3.593139708451472,-1.0,11.96377777777778,0.0,179.3764998069231,1.061560285657514,96.73152427956074,1553.0,1435.0,1000.0,1613.0,1471.0,1011.0,183.0,293.5,1649156489.7645435,1649156490.9568024,cddb0169-0d14-4f61-b3cc-9ccda11e5925
-0.2935139242570163,-0.0532214792658908,-0.6989803759792268,0.0598967564559651,-0.7980689932445607,0.1776564777155036,-1.100318252239871,-1.125392834412733,-24.88325629734105,30.019187227257834,18.51573836863497,0.4187275999350444,-0.2387769522371023,3.596883058361549,-1.0,11.964888888888888,0.0,179.3503143794651,1.0557643365382292,96.65186909564022,1553.0,1435.0,1000.0,1613.0,1471.0,1011.0,183.0,293.5,1649156491.0651195,1649156492.1866906,cddb0169-0d14-4f61-b3cc-9ccda11e5925
-0.2873077388616478,-0.0438727559297974,-0.6884614148882737,0.0577009241782665,-0.7903375562309976,0.168820554147646,-1.0909695223614044,-1.1216060078328614,-24.67989644634403,29.94948025937072,18.35072573715718,0.4039630998476553,-0.2027543661837558,3.559753491328219,-1.0,11.969555555555557,0.0,179.34515834555162,1.052226772866855,96.5849628392605,1553.0,1435.0,1000.0,1613.0,1471.0,1011.0,183.0,293.5,1649156492.2949436,1649156493.6289313,cddb0169-0d14-4f61-b3cc-9ccda11e5925
-0.3730241035336786,-0.075127208112816,-0.9441510849295462,0.1255218986014921,-1.021018410553327,0.1483217373415507,-1.377335222252741,-1.4008714127119608,-26.870019414395458,30.78568223261292,17.87625678429807,0.1965455795483481,-0.3248165998927185,4.624474933507615,-1.0,11.938666666666668,0.0,179.38740686011772,1.0500262542994128,96.5151712074114,1553.0,1435.0,1000.0,1685.0,1471.0,1011.0,183.0,293.5,1649156494.264599,1649156495.2569325,c7d9052c-3a32-4de6-baef-a45b949ea54c
-0.3797743167478811,-0.0824082989962281,-0.9561668091053614,0.1245740966779467,-1.0310185486520709,0.1587333129326753,-1.3869376154341049,-1.4119749518555993,-26.96471540237185,30.79659522345349,18.135075916102263,0.2215474194132528,-0.3543936431431105,4.667551016023677,-1.0,11.932444444444444,0.0,179.38973064225533,1.0637322146657742,96.39856849463068,1553.0,1435.0,1000.0,1694.0,1471.0,1011.0,183.0,293.5,1649156495.364668,1649156496.5881386,c7d9052c-3a32-4de6-baef-a45b949ea54c
-0.3755420793439136,-0.0863803011937382,-0.9488391457589308,0.1273955877855106,-1.0227458216542538,0.1613082659471814,-1.3748983280901377,-1.3969772040122033,-26.655147609469083,30.61263892664401,18.392183248920816,0.2203113031148938,-0.3736468178243786,4.629352212030839,-1.0,11.930777777777775,0.0,179.38488879704371,1.0605772127357245,96.29097176572554,1553.0,1435.0,1000.0,1694.0,1471.0,1011.0,183.0,293.5,1649156496.6963718,1649156498.0222194,c7d9052c-3a32-4de6-baef-a45b949ea54c
-0.4620221684746107,-0.1282643797878405,-1.1842009714963533,0.2210389555983356,-1.2336318923095924,0.1237386067063434,-1.6461726796584364,-1.6708813044142057,-28.604309827256085,31.87941936111783,17.520772077509797,-0.0797911062423596,-0.5356472954858086,5.616288656909327,-1.0,11.886,0.0,179.40319673965894,1.0278568476357264,96.17880336353596,1553.0,1435.0,1000.0,1774.0,1471.0,1011.0,183.0,293.5,1649156498.9358723,1649156500.275256,bfd88413-200a-454c-94dd-da6efebbe400
-0.4569681371852827,-0.1106369077703822,-1.186748533539736,0.2125333930808788,-1.2400966735534311,0.1169314171938111,-1.6506651567471575,-1.668539190165484,-28.451883303188065,31.749474390920103,17.868422552916602,-0.0767574321857668,-0.472810101697893,5.637671466383193,-1.0,11.889111111111111,0.0,179.40183980874386,1.0239805374122346,96.0287653569482,1553.0,1435.0,1000.0,1774.0,1471.0,1011.0,183.0,293.5,1649156500.384074,1649156501.5192127,bfd88413-200a-454c-94dd-da6efebbe400
-0.46218543151003,-0.1156514921028288,-1.178500459292613,0.2124216291522099,-1.2310558413804704,0.1219454532846314,-1.6418741460524686,-1.6662518613861368,-28.60407348289719,31.83160862464371,17.93348315856141,-0.064349172397385,-0.4905792702133126,5.600941844309752,-1.0,11.888333333333334,0.0,179.38892164429365,1.031770047995517,95.89638642500456,1553.0,1435.0,1000.0,1774.0,1471.0,1011.0,183.0,293.5,1649156501.6276417,1649156502.7292635,bfd88413-200a-454c-94dd-da6efebbe400
-0.507220823107981,-0.12564833693264876,-1.3325622247918614,0.3480745288707787,-1.3683239738833262,0.010495460682481991,-1.848854645617858,-1.8743165885831612,-29.818682443949797,33.17909879192059,17.05588121229424,-0.6202817637211403,-0.5381442661427881,6.289944855249509,-1.0,11.850000000000001,0.0,179.4145439606001,0.9978970291832425,95.65034631508274,1553.0,1435.0,1000.0,1856.0,1471.0,1011.0,183.0,293.5,1649156504.7845652,1649156505.8307285,4e441c7c-b2a1-4e58-928f-a04ab1a48bd9
-0.5008793148626501,-0.11936161612873279,-1.3246866957281735,0.3541010142713936,-1.3610510937500095,4.4986382922382793e-05,-1.8431568677994072,-1.868865348863599,-29.72213835953625,33.11772818859557,17.28717872962991,-0.6572888657898287,-0.517542303791637,6.262423757629439,-1.0,11.841444444444443,0.0,179.39553933868945,0.9921965367007957,95.51032212472812,1553.0,1435.0,1000.0,1856.0,1471.0,1011.0,183.0,293.5,1649156505.9403875,1649156507.0414803,4e441c7c-b2a1-4e58-928f-a04ab1a48bd9
-0.5036460204141574,-0.12327883214538064,-1.3356987390824884,0.35030706782901594,-1.3703099763086444,0.008934053061126228,-1.8504160548850355,-1.884054857342268,-29.70607856823396,32.97812956516156,17.43971127968391,-0.630197076144912,-0.5339331612163624,6.300157262685979,-1.0,11.857666666666667,0.0,179.39229120428416,0.9787740766168588,95.42438392568111,1553.0,1435.0,1000.0,1856.0,1471.0,1011.0,183.0,293.5,1649156507.1544046,1649156508.263959,4e441c7c-b2a1-4e58-928f-a04ab1a48bd9
