raw_voltage_G-,raw_voltage_G0,raw_voltage_G1,raw_voltage_G2,raw_voltage_G3,raw_voltage_G4,raw_voltage_G5,raw_voltage_G6,load_x,load_y,load_z,load_l,load_m,load_n,rpm,voltage,current,roll,pitch,yaw,aileron1_pwm,elevator_pwm,throttle_pwm,rudder_pwm,aileron2_pwm,pbaro,pdiff,Tt,sample_start_time,sample_end_time,uid
-0.0787036536856138,0.0812107929653624,-0.0627411357078522,-0.0039401643533502,-0.2488609458554014,0.0647486253532956,-0.4408187950984973,-0.463105840657689,-17.236796339046588,29.626076796768995,17.78658441856027,0.3418163249515894,0.2659557115721227,1.0627778947256672,-1.0,11.98975,0.0,179.30613975155308,1.0845879097407007,95.97477024510206,1553.0,1435.0,1000.0,1528.0,1471.0,1011.0,183.0,293.5,1649155679.833023,1649155680.9641812,4bf095f5-91b1-44b6-9d9d-1d9ff2b5d648
-0.0532894142666037,0.1000024711296092,-0.0502624746337959,-0.0098165359663752,-0.2414253572476127,0.0511879366647357,-0.4320677879534793,-0.4625426381171511,-17.057807369582637,29.56861737721366,17.788543413185433,0.3249301607953865,0.336665340708235,1.0255547831238492,-1.0,11.990777777777778,0.0,179.29509457675528,1.09464561527535,96.17839431109569,1553.0,1435.0,1000.0,1528.0,1471.0,1011.0,183.0,293.5,1649155681.081578,1649155682.134349,4bf095f5-91b1-44b6-9d9d-1d9ff2b5d648
-0.0593980796143008,0.0911818875268703,-0.0534400763573521,-0.0070909207551742,-0.2423293302349919,0.0580362159432158,-0.4341359687857919,-0.456666813077107,-17.21412407804438,29.641237698818355,17.869972554244892,0.3344283185550745,0.3034316631569349,1.0329944315600132,-1.0,11.99,0.0,179.2841738631823,1.0739790518145105,96.3017262780287,1553.0,1435.0,1000.0,1528.0,1471.0,1011.0,183.0,293.5,1649155682.266672,1649155683.218354,4bf095f5-91b1-44b6-9d9d-1d9ff2b5d648
0.1763284594020385,0.512172435949685,-0.0299219887423266,-0.2319254231066013,-0.3180625437584133,-0.1366368127111704,-0.4951886670842012,-0.5086397873576254,-16.789619053357313,28.43723186487793,19.27037284698612,0.3977700430759173,1.8961383669667773,1.2427487816223672,-1.0,11.981000000000002,0.0,179.1706667439154,1.0792034113355973,96.49466849734284,1631.0,1435.0,1000.0,1528.0,1531.0,1011.0,183.0,293.5,1649155684.3353472,1649155685.483157,4c36bc2e-7dc7-4b55-85f0-d976a2986540
0.1718579028363286,0.5093454665178913,-0.0346292221348131,-0.234607757474884,-0.3219151123708751,-0.1316271590974332,-0.4985021393963408,-0.5119664086968821,-16.850301307610167,28.413997592651125,19.20739692847746,0.414649096584233,1.886554606108312,1.2586429698644854,-1.0,11.956111111111111,0.0,179.14979975709113,1.0774165816736658,96.55045444684389,1631.0,1435.0,1000.0,1528.0,1531.0,1011.0,183.0,293.5,1649155685.5930302,1649155686.700436,4c36bc2e-7dc7-4b55-85f0-d976a2986540
0.1706082288803806,0.5060232295685082,-0.0363878603078009,-0.237275299517455,-0.3249058933793012,-0.1256072472432546,-0.5000164312844427,-0.5147950223663461,-16.845628062648203,28.589040045904525,19.236476458624487,0.4352737605779415,1.8740233022682016,1.2668168294102689,-1.0,11.961333333333334,0.0,179.12558142411405,1.0623639949657866,96.59551548152815,1631.0,1435.0,1000.0,1528.0,1531.0,1011.0,183.0,293.5,1649155686.8086977,1649155687.9274013,4c36bc2e-7dc7-4b55-85f0-d976a2986540
0.4496481993800653,1.0109879065034408,0.0043730990152198,-0.5025776884234548,-0.4073728875922186,-0.3696662544990645,-0.5664173658901396,-0.5909753038411449,-16.260794524711212,27.580066101187857,20.05852359995389,0.4810642167411728,3.7917540841692543,1.4788760617199328,-1.0,11.948,0.0,178.7995810484888,1.0973940075063722,96.6976306041694,1712.0,1435.0,1000.0,1528.0,1591.0,1011.0,183.0,293.5,1649155689.8649566,1649155690.997749,dd524823-7d72-4c22-81d9-58bac47858d3
0.4403345403531631,1.0018659990899164,-0.0020094974023918,-0.4950582758309784,-0.4125364912409187,-0.3665982248404718,-0.5716631494049688,-0.6010011875523716,-16.143484897620176,27.69126082988653,20.161607741966623,0.4714913319799916,3.7544689270188623,1.5012221073721452,-1.0,11.93288888888889,0.0,178.80077405486384,1.1020069346591024,96.7548584824952,1712.0,1435.0,1000.0,1528.0,1591.0,1011.0,183.0,293.5,1649155691.109997,1649155692.4358475,dd524823-7d72-4c22-81d9-58bac47858d3
0.4526477454667945,0.9996882464210578,-0.0030641324260732,-0.5010847631381353,-0.4124954015506788,-0.3594349234049795,-0.5708413556381048,-0.5937830987024779,-16.301793540603004,27.62807980214721,20.088446090388835,0.500619806253628,3.748743989810778,1.5009293506006436,-1.0,11.929555555555556,0.0,178.7841159823881,1.0972106121839706,96.76684850012822,1712.0,1435.0,1000.0,1528.0,1591.0,1011.0,183.0,293.5,1649155692.5446708,1649155693.669525,dd524823-7d72-4c22-81d9-58bac47858d3
0.7303355831124623,1.4992187216996136,0.0262886887561434,-0.7585571430386346,-0.5090868426290514,-0.6097927370145261,-0.6519474716456826,-0.667633872207472,-15.43494757445517,27.00448918115197,20.17688316003424,0.5166051412414618,5.648918443471214,1.767129655820164,-1.0,11.936,0.0,178.3509104753701,1.1258350219320112,96.74655600810412,1796.0,1435.0,1000.0,1528.0,1650.0,1011.0,183.0,293.5,1649155694.2618952,1649155695.3040535,a0bf24f6-fb70-4235-980a-f352d0dee920
0.7204214670920738,1.4923156556027082,0.0292076993270027,-0.7538236103677373,-0.5028412102894495,-0.6080045137506566,-0.6487128912566008,-0.6741687772085203,-15.678327019412045,26.97716278290427,20.11456564428307,0.509777580155919,5.6249044341092,1.748997945940588,-1.0,11.881333333333334,0.0,178.3380393633342,1.1306701081022763,96.77922252617456,1796.0,1435.0,1000.0,1528.0,1650.0,1011.0,183.0,293.5,1649155695.4127324,1649155696.5278533,a0bf24f6-fb70-4235-980a-f352d0dee920
0.7427610998695557,1.4913820980507877,0.0230935555394582,-0.7568609604951717,-0.5091262887261996,-0.6047304872937361,-0.6534332748605819,-0.6694878389656131,-15.611899016165944,26.95250540081573,20.01064612468032,0.5235352449788708,5.621839841220212,1.772383934354491,-1.0,11.882222222222222,0.0,178.31275552084662,1.124344024838506,96.77044269745149,1796.0,1435.0,1000.0,1528.0,1650.0,1011.0,183.0,293.5,1649155696.636446,1649155697.7605898,a0bf24f6-fb70-4235-980a-f352d0dee920
0.9050450337573336,1.7943900170607143,0.0782660328376639,-0.9353617245510992,-0.5426949195927784,-0.7497047798057918,-0.6695661833431398,-0.6971647602740102,-15.00904562630216,27.47447772066054,18.38254892874235,0.606664014729322,6.793950458905009,1.7988792408518044,-1.0,11.840333333333332,0.0,178.25439990239784,1.1293458814610051,96.76549156921313,1886.0,1435.0,1000.0,1528.0,1710.0,1011.0,183.0,293.5,1649155699.9040868,1649155701.243993,ee6ec0ba-58fe-4a0b-854c-c2e937147582
0.8769123048103161,1.74274028367598,0.0805670545767156,-0.9075713924279296,-0.5270945351560175,-0.7314335630892245,-0.6575132076539004,-0.6843584731853626,-15.15552136892029,27.53037663405209,17.479463804368237,0.5853011447255642,6.605998531718003,1.7499284853971686,-1.0,11.815888888888889,0.0,178.21009322416188,1.1331074895667168,96.64545934255914,1886.0,1435.0,1000.0,1528.0,1710.0,1011.0,183.0,293.5,1649155701.352738,1649155702.4735315,ee6ec0ba-58fe-4a0b-854c-c2e937147582
0.8605723117976739,1.7250717193512026,0.0675142343768673,-0.8993945425742469,-0.5351755068526332,-0.7199969321909242,-0.6674980023974735,-0.6920559421652964,-15.30792465818302,27.591228976773102,17.62590212385835,0.5922558928783196,6.537678274571552,1.7909524933535408,-1.0,11.817,0.0,178.23054888181616,1.1172520473242114,96.57480407123496,1886.0,1435.0,1000.0,1528.0,1710.0,1011.0,183.0,293.5,1649155702.5820267,1649155703.7005389,ee6ec0ba-58fe-4a0b-854c-c2e937147582
-0.3689743043205716,-0.4682469818069471,-0.0999650966005076,0.2881318181858956,-0.1560705872364417,0.3264602652685792,-0.3658317653000169,-0.3812420407133035,-17.789497040711453,31.154809935785416,16.821159459144454,0.2789230317450914,-1.8206707814637395,0.8140697581469903,-1.0,11.874,0.0,179.51303073497218,1.0705594393439597,96.46772491888696,1475.0,1435.0,1000.0,1528.0,1408.0,1011.0,183.0,293.5,1649155704.8159585,1649155705.955188,8d5cd360-46de-4233-bd14-73520f257f58
-0.367022818340213,-0.4633644314285148,-0.0861748527893503,0.2942196641675855,-0.1441249957582659,0.3162163358521699,-0.3547233064150838,-0.3863349703033745,-17.65110277458548,31.21948044305415,16.93619833721112,0.2433742382425335,-1.80423157569867,0.7640623924257864,-1.0,11.979444444444445,0.0,179.48841928666292,1.0568313401526324,96.37291885756753,1475.0,1435.0,1000.0,1528.0,1408.0,1011.0,183.0,293.5,1649155706.064346,1649155707.191737,8d5cd360-46de-4233-bd14-73520f257f58
-0.3589692404268028,-0.4555436946577833,-0.0873527568901567,0.2909598834360061,-0.1475354390970487,0.3102172435978919,-0.3577091567110912,-0.3853625139055115,-17.561330044706562,31.206864545628928,16.72977519541902,0.2371167438097589,-1.7733784620719568,0.7752589113908573,-1.0,11.976555555555557,0.0,179.48330878734396,1.0459685290340597,96.28545752633562,1475.0,1435.0,1000.0,1528.0,1408.0,1011.0,183.0,293.5,1649155707.3209429,1649155708.4200315,8d5cd360-46de-4233-bd14-73520f257f58
-0.6158805854741556,-0.8856656512118761,-0.1166507931219779,0.5300152151059274,-0.0767576465396327,0.5112388786028725,-0.3049795890421088,-0.3188251690538025,-18.10064568806637,32.80932178687206,16.76219526131014,0.1584866653953294,-3.414330496495221,0.5927799279539188,-1.0,11.959,0.0,179.62168993774824,1.0442968995245356,96.10395359715152,1396.0,1435.0,1000.0,1528.0,1340.0,1011.0,183.0,293.5,1649155710.344965,1649155711.485091,37190d62-90a1-47ce-85f2-a13e8d21533d
-0.6035865503979442,-0.8769612096543835,-0.1090376975295508,0.5195225564754848,-0.0724711713745666,0.5102001316887119,-0.2982080094810304,-0.3298832240819455,-18.08213481655913,32.81690887049556,16.50877672506003,0.1802196280865672,-3.377793892504747,0.5675364644782451,-1.0,11.919666666666666,0.0,179.6236782817066,1.0626373329702277,95.90481260171065,1396.0,1435.0,1000.0,1528.0,1340.0,1011.0,183.0,293.5,1649155711.5935771,1649155712.7072031,37190d62-90a1-47ce-85f2-a13e8d21533d
-0.5978537170783658,-0.8685854857035283,-0.1105366489521805,0.517392467871799,-0.0752849924624099,0.5052167762648828,-0.3005484777190367,-0.317352514428137,-17.988997494606334,32.70872113158743,16.674091550098698,0.1731077288049104,-3.3483388203048468,0.5780820384471508,-1.0,11.923222222222222,0.0,179.6205743401838,1.0448552556312167,95.73475227502594,1396.0,1435.0,1000.0,1528.0,1340.0,1011.0,183.0,293.5,1649155712.8153331,1649155714.1445038,37190d62-90a1-47ce-85f2-a13e8d21533d
-0.8849293241079329,-1.3987676186776854,-0.1282610926471214,0.8078997349463183,0.0257364434970537,0.7533983941095262,-0.2153843614489314,-0.2304133232421194,-18.22884172940126,34.83411279192542,16.37034911943007,0.088529511375916,-5.3693097995122185,0.2803186741722255,-1.0,11.915333333333333,0.0,179.7934555349957,1.0319681709133164,95.39882004543756,1314.0,1435.0,1000.0,1528.0,1268.0,1011.0,183.0,293.5,1649155716.2859356,1649155717.4228103,9f234650-b55d-4355-8c6b-bab2c6b53b73
-0.8962503575420966,-1.4135599171288502,-0.1435398787491195,0.8237833585648375,0.0164271664560597,0.7549499401203168,-0.2311365012578462,-0.2442063072696742,-18.48276492310557,34.893421818496165,16.4908340436166,0.0557102517395914,-5.426983763010891,0.3345700207712513,-1.0,11.893333333333333,0.0,179.81471108369277,1.027900674682901,95.20090696622746,1314.0,1435.0,1000.0,1528.0,1268.0,1011.0,183.0,293.5,1649155717.5324955,1649155718.6472683,9f234650-b55d-4355-8c6b-bab2c6b53b73
-0.8849556212573918,-1.395572482118982,-0.1352956456045048,0.8065454193562968,0.0185967013670733,0.7527409593580893,-0.2241413940864829,-0.2408665376960246,-18.354709922946025,34.85604143706135,16.484193726648506,0.0898570543803468,-5.35772306855451,0.3125385619649369,-1.0,11.893999999999998,0.0,179.81388235407348,1.0405919132127248,95.02206984645927,1314.0,1435.0,1000.0,1528.0,1268.0,1011.0,183.0,293.5,1649155718.7556064,1649155719.8800848,9f234650-b55d-4355-8c6b-bab2c6b53b73
-1.0026255643258912,-1.6158210663814667,-0.1263742546071383,0.9205495367287708,0.0723080299378275,0.8346858182190747,-0.180640023964117,-0.2029106304964371,-18.607757469464616,36.15111799241582,12.568532152903469,0.0251106239491882,-6.160742566213009,0.1334025869129428,-1.0,11.847333333333331,0.0,179.86819601835342,1.0343386615841663,94.66422257546398,1227.0,1435.0,1000.0,1528.0,1189.0,1011.0,183.0,293.5,1649155721.8143518,1649155722.947695,97493551-f9f2-4129-a25c-f42ce3ef5fe3
-1.0118981402616074,-1.616026515065906,-0.1281274142138279,0.9204947505047,0.0717601676068704,0.8345899423219406,-0.1827629907156247,-0.197116985776965,-18.747426101090586,36.10648423848093,12.505511406490486,0.024555232610949,-6.160071184739003,0.139367617046683,-1.0,11.754222222222223,0.0,179.86146448747144,1.0344455611594574,94.35736949681198,1227.0,1435.0,1000.0,1528.0,1189.0,1011.0,183.0,293.5,1649155723.0556605,1649155724.180456,97493551-f9f2-4129-a25c-f42ce3ef5fe3
-1.007994618581306,-1.6179166425324336,-0.1300038428647586,0.9208919506678682,0.0699248287598781,0.8363431016594879,-0.1847079022174013,-0.2045405213936874,-18.76734880654763,36.16508996084652,12.528131307937995,0.0278874774301387,-6.167386649028322,0.1469630284219822,-1.0,11.758888888888889,0.0,179.86208982923543,1.0429960449368307,94.04120231686184,1227.0,1435.0,1000.0,1528.0,1189.0,1011.0,183.0,293.5,1649155724.2893455,1649155725.6133437,97493551-f9f2-4129-a25c-f42ce3ef5fe3
-0.0620048087318881,0.1010390266768649,-0.0640297079862053,-0.0215068229488071,-0.2519771872407786,0.0613036669164315,-0.4439087394101632,-0.464894063859029,-17.505343443025744,29.33112872329241,17.747320312916692,0.3715402738922169,0.3446484915498766,1.0753012807001818,-1.0,11.812555555555557,0.0,179.2949336878548,1.066550924642939,93.8296007796451,1553.0,1435.0,1000.0,1528.0,1471.0,1011.0,183.0,293.5,1649155726.261254,1649155727.4616396,c6c89aa4-5b54-4cb3-acac-99186efea0c0
-0.0481532045763731,0.1131100774992299,-0.0426334912365094,-0.0248005714348993,-0.2337141938698292,0.0513933850271028,-0.4242881410164615,-0.4511881887180586,-17.387817450200384,29.247454499548454,17.747003201895676,0.3572702481071031,0.3908537796599494,0.9948732748027088,-1.0,11.987666666666668,0.0,179.2972635412717,1.0882203519730067,94.13783735105898,1553.0,1435.0,1000.0,1528.0,1471.0,1011.0,183.0,293.5,1649155727.570114,1649155728.6942332,c6c89aa4-5b54-4cb3-acac-99186efea0c0
-0.0565902850099923,0.1023308860644927,-0.0623702329144917,-0.0153773388705702,-0.2507938044775073,0.0556393182090848,-0.4444768728300452,-0.4659119923757437,-17.464357387874326,29.41378579798757,17.92728967029458,0.3456650056890087,0.34696052959604,1.0726949527950795,-1.0,11.988333333333332,0.0,179.3091450347879,1.098939515675597,94.39497424165236,1553.0,1435.0,1000.0,1528.0,1471.0,1011.0,183.0,293.5,1649155728.806291,1649155729.917981,c6c89aa4-5b54-4cb3-acac-99186efea0c0
-0.0469889970657407,0.0875933892178586,-0.0937901397889024,-0.4184944954688204,-0.3213858772930671,0.459249486150139,-0.3610785107555854,-0.3742682998164986,-17.26091790132506,28.619732315024816,20.687849169677616,2.155678562318618,0.3134063213276332,1.0919750846246798,-1.0,11.988,0.0,179.2925021405103,1.251388697620047,94.81934072497444,1553.0,1522.0,1000.0,1528.0,1471.0,1011.0,183.0,293.5,1649155731.8508368,1649155732.9900858,7b863ea1-8803-4d39-9fa7-1d42155d4753
-0.0426882775596845,0.0848814706091303,-0.0942147331051151,-0.4136459128014656,-0.3204134214593503,0.4573045749955473,-0.3631466914349444,-0.3805687175969536,-17.41771356548921,28.680372069749723,20.65885176444766,2.140668169727575,0.3039788893022321,1.0937129141183402,-1.0,11.979444444444445,0.0,179.3010975541258,1.257323622116194,94.92291599027824,1553.0,1522.0,1000.0,1528.0,1471.0,1011.0,183.0,293.5,1649155733.1019666,1649155734.222062,7b863ea1-8803-4d39-9fa7-1d42155d4753
-0.0594408128839833,0.0823021347520371,-0.0988080112351741,-0.4142715716756923,-0.3242555806754605,0.4610766069061137,-0.3663182671104619,-0.3818600297993847,-17.408325168207355,28.65151185082216,20.72426078245729,2.150150882206144,0.2934439975787967,1.1095159437720223,-1.0,11.981111111111112,0.0,179.31205924883378,1.2503144962194876,94.97880666934653,1553.0,1522.0,1000.0,1528.0,1471.0,1011.0,183.0,293.5,1649155734.3583186,1649155735.4405844,7b863ea1-8803-4d39-9fa7-1d42155d4753
-0.026503327672624,0.0790938528938239,-0.1339939245965094,-0.9285435733021016,-0.4147186274375166,0.9592806621234792,-0.2618781567808367,-0.2922122036981717,-17.022379027247524,27.809605192886742,24.05306551814993,4.423145335539686,0.3102492590822779,1.1324047268427564,-1.0,11.975555555555555,0.0,179.30979466166897,1.427487812736555,95.04543364688016,1553.0,1613.0,1000.0,1528.0,1471.0,1011.0,183.0,293.5,1649155736.3552115,1649155737.4946406,58795f6d-8d05-497a-b915-baf3b31c51aa
-0.0224009343181644,0.0839588704533278,-0.1252500409926994,-0.9291352649972924,-0.4070923820335811,0.9543761988021694,-0.2534629901117384,-0.2740407026043206,-16.92577030124206,27.739922692159148,24.022455624239427,4.4134762673898535,0.3287095384780563,1.0987536916213387,-1.0,11.967555555555556,0.0,179.31682672087445,1.432563591927259,95.03842663170164,1553.0,1613.0,1000.0,1528.0,1471.0,1011.0,183.0,293.5,1649155737.6027515,1649155738.7257566,58795f6d-8d05-497a-b915-baf3b31c51aa
-0.0204943732898711,0.0758066788594031,-0.1349932255571812,-0.9267553496995558,-0.4144688021365293,0.9610820333896994,-0.2624304020743477,-0.2885042704531917,-17.09062497240188,27.80750203911341,24.0797613778462,4.423065664594889,0.2978832265391614,1.1338216128037009,-1.0,11.964333333333334,0.0,179.31962709843413,1.4366196570771887,95.04453433863948,1553.0,1613.0,1000.0,1528.0,1471.0,1011.0,183.0,293.5,1649155738.8343794,1649155739.9566047,58795f6d-8d05-497a-b915-baf3b31c51aa
-0.0101594978031212,0.0664842532735116,-0.1703369238177608,-1.4106540522796092,-0.5020522883090642,1.439234364920054,-0.168995756683968,-0.1921769103906462,-17.079507425944847,27.394069266690853,27.63615376281099,6.585166644445824,0.2886502334438361,1.1680823614777034,-1.0,11.95722222222222,0.0,179.29143207754032,1.6025306794150087,94.96676201020016,1553.0,1710.0,1000.0,1528.0,1471.0,1011.0,183.0,293.5,1649155741.884477,1649155742.844228,7a5b0682-2b02-48c0-b1d1-a32628197604
-0.0151444974196047,0.0627615286628791,-0.1749559516182927,-1.4096876222205248,-0.5058648633345082,1.4404298006316092,-0.1720796740754044,-0.1923231897121797,-16.9908528645339,27.354500193222616,27.384563937065348,6.585185135330005,0.2758776308190824,1.183243727665348,-1.0,11.925,0.0,179.29793593545,1.606339126491591,94.87565259904152,1553.0,1710.0,1000.0,1528.0,1471.0,1011.0,183.0,293.5,1649155742.9531107,1649155744.0431185,7a5b0682-2b02-48c0-b1d1-a32628197604
-0.0190343201437052,0.0684592970127992,-0.1677926508606317,-1.414015739168889,-0.5013723909398679,1.4385807651108642,-0.1660942774542758,-0.1872965526605043,-16.933580896059908,27.418501769848955,27.398319242146982,6.591605257731757,0.2977085408406166,1.1595231870476437,-1.0,11.925333333333334,0.0,179.30753462796358,1.6096271510989135,94.80064497939628,1553.0,1710.0,1000.0,1528.0,1471.0,1011.0,183.0,293.5,1649155744.1508887,1649155745.2727497,7a5b0682-2b02-48c0-b1d1-a32628197604
-0.0021782390853675,0.0655901419172073,-0.1609224565585001,-1.6323413295526727,-0.528691554108789,1.650967844334541,-0.1091560358173211,-0.1387406047858105,-16.699292636691133,28.18781885305175,28.845602347422137,7.567147050708113,0.2997911304542978,1.105928019113945,-1.0,11.902666666666669,0.0,179.31042000343294,1.6921323025984094,94.62977110129044,1553.0,1814.0,1000.0,1528.0,1471.0,1011.0,183.0,293.5,1649155747.4127064,1649155748.548646,98db5717-949c-417b-8ae9-0b81360c7492
-0.0172203479046726,0.0524282970034324,-0.1669577086867593,-1.649250575940979,-0.5342797516511015,1.6796714535304849,-0.1046065867158962,-0.1264860187440445,-16.52654864877172,28.1032700347342,28.87359124870172,7.669021427124663,0.2506533587458871,1.113742746882835,-1.0,11.875,0.0,179.3179423184389,1.6714589208063677,94.4359986345372,1553.0,1814.0,1000.0,1528.0,1471.0,1011.0,183.0,293.5,1649155748.6573188,1649155749.7795727,98db5717-949c-417b-8ae9-0b81360c7492
-0.0108169326517824,0.0544926423202317,-0.1715991988652984,-1.6554041736662717,-0.537238209121274,1.6829191819148683,-0.1096162403498316,-0.1328762855259501,-16.86754012051579,28.000528168100423,28.78324265590958,7.689102263296037,0.2620717713342625,1.1311039198819222,-1.0,11.870333333333331,0.0,179.32015074627049,1.6831841263134253,94.311812135048,1553.0,1814.0,1000.0,1528.0,1471.0,1011.0,183.0,293.5,1649155749.8915336,1649155751.005784,98db5717-949c-417b-8ae9-0b81360c7492
-0.0788745867953442,0.1140167896530675,-0.0089498177244388,0.5402843459174845,-0.1488913985138794,-0.4926641167619459,-0.5527536750138174,-0.5760663206567219,-17.70212232095064,31.253830709881527,14.11833541942932,-2.1257516404423544,0.3612352088631486,1.0152378128396928,-1.0,11.926,0.0,179.30051471131662,0.966913619134674,94.12242996211126,1553.0,1349.0,1000.0,1528.0,1471.0,1011.0,183.0,293.5,1649155753.3534346,1649155754.4876697,455a6246-b134-4e4a-b91a-16fa31130703
-0.0863118184426722,0.1083984614243715,-0.0195958790259622,0.5413055612314773,-0.1559451267264208,-0.4876621322969875,-0.5617194448995145,-0.5867567620568896,-17.897875060360644,31.13180904466329,14.107524917141143,-2.1182543843611734,0.3408416586786343,1.051349418971229,-1.0,11.989,0.0,179.32645728760414,0.9526537968312416,94.45230001935629,1553.0,1349.0,1000.0,1528.0,1471.0,1011.0,183.0,293.5,1649155754.5961227,1649155755.6918762,455a6246-b134-4e4a-b91a-16fa31130703
-0.0746971362088896,0.1070835918106908,-0.0155143044595928,0.5245546716340171,-0.1546576501102902,-0.4693635255650691,-0.5505567463694666,-0.5806070053697895,-17.62120866647943,31.07237253627166,14.390656366706802,-2.039355445849026,0.3337626696796744,1.0284501221477742,-1.0,11.992,0.0,179.31867997886923,0.957508543511305,94.81039773062116,1553.0,1349.0,1000.0,1528.0,1471.0,1011.0,183.0,293.5,1649155755.8090703,1649155757.1519816,455a6246-b134-4e4a-b91a-16fa31130703
-0.0984529964683665,0.1169883949533148,0.0210423589004068,0.9962810907415436,-0.0771915535170083,-0.9368535541215136,-0.6557737436555797,-0.6810849934727463,-18.12563874546437,32.8625685362058,10.78310617376853,-4.141108466451317,0.3507238010435941,1.0220733294416473,-1.0,11.988,0.0,179.31537416731095,0.8042992777203123,95.30033175324564,1553.0,1264.0,1000.0,1528.0,1471.0,1011.0,183.0,293.5,1649155758.762509,1649155759.8116236,d5dfeef9-044e-4b5c-a6ce-35083ceeb2dd
-0.0982689147055267,0.1220637915903618,0.014073549808004,0.9785960955301646,-0.0863693439277785,-0.9222190468960636,-0.6587847961737406,-0.6799147590196497,-18.092628944790683,32.76741422709507,11.217701692104704,-4.069221654583054,0.3674081822275274,1.0494943190055956,-1.0,11.977333333333332,0.0,179.30847415842942,0.8065393841116159,95.55178440862971,1553.0,1264.0,1000.0,1528.0,1471.0,1011.0,183.0,293.5,1649155759.91966,1649155761.040892,d5dfeef9-044e-4b5c-a6ce-35083ceeb2dd
-0.0959815893216142,0.1174792796004886,0.0156179737651289,0.9667617218743207,-0.084887376229654,-0.905968892819296,-0.6518291333525731,-0.6741134430049683,-18.08898420476496,32.70548877368583,11.373395333754296,-4.006316897261223,0.3503616922415986,1.035056288819888,-1.0,11.959222222222222,0.0,179.30781238898984,0.8006624865784959,95.67820437997749,1553.0,1264.0,1000.0,1528.0,1471.0,1011.0,183.0,293.5,1649155761.1497853,1649155762.2755578,d5dfeef9-044e-4b5c-a6ce-35083ceeb2dd
-0.1082263134325398,0.1270805669756421,0.057789677869499,1.4038462906089002,-0.0102137362007649,-1.33660271271673,-0.747924226177728,-0.770455075691098,-18.748497359748225,35.054308863340886,8.478600303445061,-5.943087238196082,0.3655955545997425,1.0121684428418678,-1.0,11.948333333333332,0.0,179.31854792854526,0.6414225313473685,95.98500585275576,1553.0,1178.0,1000.0,1528.0,1471.0,1011.0,183.0,293.5,1649155764.4131677,1649155765.556546,3db251cb-4aab-461c-8b52-b47499c54702
-0.1098288108846185,0.1393937728502468,0.0641311845113479,1.3965186314242537,-0.0072826725600116,-1.3409719191032812,-0.7432947873052275,-0.7644285873071633,-18.68467684642491,35.020209804690985,8.655565612817563,-5.936225971670468,0.4110610491142853,0.99467459170336,-1.0,11.928,0.0,179.31428133704372,0.6387978177153796,96.09288641396635,1553.0,1178.0,1000.0,1528.0,1471.0,1011.0,183.0,293.5,1649155765.671201,1649155766.7786272,3db251cb-4aab-461c-8b52-b47499c54702
-0.1103081904114785,0.1243549518781769,0.0485581974194831,1.4003262748927672,-0.0177742366689529,-1.3280012657334876,-0.7544027010702731,-0.7694689226587913,-18.81654077250184,34.94867669690179,8.801880823160106,-5.91696097831908,0.3528355794721312,1.0443646738253989,-1.0,11.931666666666665,0.0,179.2984565476467,0.6175044658185187,96.19839765844492,1553.0,1178.0,1000.0,1528.0,1471.0,1011.0,183.0,293.5,1649155766.8870676,1649155768.0084496,3db251cb-4aab-461c-8b52-b47499c54702
-0.0991104313074203,0.1556455609542394,0.096949782097217,1.6142303816038304,0.0348353412672787,-1.5656510592462416,-0.7845521274068532,-0.8102578406840019,-18.72626117459441,36.51639684989772,7.429332133280709,-6.920878217398008,0.4584784576513695,0.9528173816106028,-1.0,11.927777777777775,0.0,179.31889095582358,0.5519121374354601,96.37681206539446,1553.0,1088.0,1000.0,1528.0,1471.0,1011.0,183.0,293.5,1649155769.875079,1649155770.833521,05426e58-e24e-4789-aaf3-117c3fada25f
-0.1030490139491008,0.155514621859891,0.0922365224144171,1.5882978617317558,0.0278626971698169,-1.5403255438212706,-0.7836585635088662,-0.8034774936354906,-18.875474006462728,36.52235795204806,7.602539559436618,-6.805713663064696,0.4604024689523031,0.9673610988462804,-1.0,11.889444444444443,0.0,179.30976734091226,0.544189659941376,96.40753501519109,1553.0,1088.0,1000.0,1528.0,1471.0,1011.0,183.0,293.5,1649155770.9417794,1649155772.1668732,05426e58-e24e-4789-aaf3-117c3fada25f
-0.1160328043895903,0.1430754077004142,0.0705472003292472,1.5966637211084669,0.0090901937907401,-1.534751586281614,-0.8034994073856138,-0.8281269279219657,-18.797451421096923,36.592913229726825,7.596237148478719,-6.812633559367527,0.4108476791601766,1.0493289180391858,-1.0,11.890888888888888,0.0,179.29829414092646,0.5422079564446874,96.44044742007164,1553.0,1088.0,1000.0,1528.0,1471.0,1011.0,183.0,293.5,1649155772.282193,1649155773.3406355,05426e58-e24e-4789-aaf3-117c3fada25f
-0.0492637216001399,0.0987643022570871,-0.0527086800789504,-0.0163788312654798,-0.2414976750789927,0.0597915669029272,-0.4318513822813525,-0.4627902722962174,-17.29624788357204,29.38957831328405,17.97484786657565,0.3576675939788862,0.3327077125521488,1.0286417567455828,-1.0,11.91975,0.0,179.31324485583718,1.0609935015005678,96.48258456460874,1553.0,1435.0,1000.0,1528.0,1471.0,1011.0,183.0,293.5,1649155775.4723408,1649155776.6052902,cf8d5243-f5af-4b89-83a6-49409f2d86a2
-0.0469068177037257,0.1074397023425028,-0.0488380324914138,-0.0188699614062963,-0.2391928179393225,0.0525575925106414,-0.4304105040240264,-0.4454356326792836,-17.320856434571798,29.347954382035898,17.849934163844342,0.3469157699456113,0.3670784016849346,1.019026411603917,-1.0,11.99177777777778,0.0,179.3081584519078,1.0539140667511946,96.49526803616996,1553.0,1435.0,1000.0,1528.0,1471.0,1011.0,183.0,293.5,1649155776.7135391,1649155777.8433063,cf8d5243-f5af-4b89-83a6-49409f2d86a2
-0.0509473026374642,0.1076040610375121,-0.0472492316279245,-0.0173633399281379,-0.2391243351231631,0.0490649700840898,-0.4307255249122859,-0.4625837278166628,-17.26878213898212,29.496488907106208,17.57655114382052,0.3367152111084159,0.3696670076661046,1.016838918140744,-1.0,11.988444444444449,0.0,179.3104063430546,1.0657072421268674,96.4885577547654,1553.0,1435.0,1000.0,1528.0,1471.0,1011.0,183.0,293.5,1649155777.951142,1649155778.898187,cf8d5243-f5af-4b89-83a6-49409f2d86a2
0.0024895481945783,0.1297952248215541,0.159826846221165,-0.0391392250847783,-0.0502498738102649,0.0381751102273802,-0.2106771277109824,-0.2259427662235211,-15.695798731101227,29.225846844096985,17.908046387534224,0.3707268330562105,0.4546301468880457,0.168188400764159,-1.0,11.989666666666666,0.0,179.27943826535775,1.0808725269560515,96.37723401930316,1553.0,1435.0,1000.0,1435.0,1471.0,1011.0,183.0,293.5,1649155780.7970266,1649155781.930361,0a7affcb-9e4b-4385-8d3a-3f37c930b997
0.0098928121508616,0.1296692164864021,0.161349355637158,-0.0365659155907611,-0.0486051909718935,0.0353684114312581,-0.2102519864630877,-0.229399777684141,-15.720748267313455,29.25922769665498,17.835632612119046,0.3588880447239773,0.4547561827853892,0.1631416596225557,-1.0,11.987222222222222,0.0,179.2680652414798,1.0726917627414077,96.35720638683688,1553.0,1435.0,1000.0,1435.0,1471.0,1011.0,183.0,293.5,1649155782.038354,1649155783.166056,0a7affcb-9e4b-4385-8d3a-3f37c930b997
0.0104576581959028,0.1279018126050678,0.167334751543941,-0.0363122553124917,-0.041966194866926,0.0360844675323326,-0.2029588422052163,-0.2236417439800887,-15.70282085148096,29.197907310333893,17.776251391233032,0.3598160139528002,0.4488739232992519,0.1352987901815011,-1.0,11.987555555555556,0.0,179.2809029614798,1.0684029494091358,96.35235467579643,1553.0,1435.0,1000.0,1435.0,1471.0,1011.0,183.0,293.5,1649155783.2783082,1649155784.399474,0a7affcb-9e4b-4385-8d3a-3f37c930b997
0.1081656198404431,0.1813326339325499,0.4631667015618017,-0.0616306186917743,0.2200117137799841,-0.0076798727691573,0.0978384148962497,0.0742392442088037,-13.373295631437458,29.255734934135955,17.966727188877865,0.334900511508076,0.6529683812293056,-1.044930156720502,-1.0,11.985333333333331,0.0,179.25792772293167,1.0693552271898237,96.23887487728624,1553.0,1435.0,1000.0,1330.0,1471.0,1011.0,183.0,293.5,1649155785.3027115,1649155786.4406636,39eb0dd3-445e-4d37-85ba-0db5f40ddff2
0.0911818874561399,0.1662390269008644,0.446224060049869,-0.0484956185209996,0.2082874601493721,-0.0030915255748982,0.0807861996395823,0.0541053034441713,-13.613763593921789,29.365307210598143,18.105041217694293,0.3153655380411985,0.5941448628851135,-0.9833171077803864,-1.0,11.976,0.0,179.2515422549676,1.0664561201943032,96.22705106092305,1553.0,1435.0,1000.0,1330.0,1471.0,1011.0,183.0,293.5,1649155786.5485475,1649155787.8763406,39eb0dd3-445e-4d37-85ba-0db5f40ddff2
0.1028666953814571,0.1700696802559449,0.4532662820136185,-0.0520249478690916,0.2136313092146928,-0.0049920600629559,0.0868252861976528,0.0715990958233586,-13.616039388207584,29.404420213019016,17.95642630958097,0.3196411904059295,0.6107270583141464,-1.0085880080897722,-1.0,11.978,0.0,179.26319607551147,1.0717459712688375,96.21692720275324,1553.0,1435.0,1000.0,1330.0,1471.0,1011.0,183.0,293.5,1649155787.9846623,1649155789.1016548,39eb0dd3-445e-4d37-85ba-0db5f40ddff2
0.195920016096862,0.2203108466092148,0.7661526282590623,-0.0485536919268208,0.4938957498273005,-0.075863535122068,0.3943206816054952,0.3790813436627697,-11.448797174852077,29.82429250400123,17.7060455241844,0.1719672777568411,0.805456950268016,-2.247524999821325,-1.0,11.981000000000002,0.0,179.22950502906554,1.0622665580484083,96.14049283248136,1553.0,1435.0,1000.0,1210.0,1471.0,1011.0,183.0,293.5,1649155789.759591,1649155790.7465966,8afca5f1-92a4-4125-ac69-3bd5bac5fc06
0.1987272626332669,0.2246137572603795,0.7644909619275394,-0.0501118125047217,0.4907515681195936,-0.0774912342513135,0.3912186852627408,0.372783118761385,-11.43378426351859,29.875506904816337,17.8509174324074,0.1721117758597936,0.8202925933653225,-2.2358600952200764,-1.0,11.96888888888889,0.0,179.22319393427244,1.0634343306690033,96.16051894712784,1553.0,1435.0,1000.0,1210.0,1471.0,1011.0,183.0,293.5,1649155790.8545678,1649155791.9719937,8afca5f1-92a4-4125-ac69-3bd5bac5fc06
0.1984314169757585,0.2189302335672525,0.7589076973178301,-0.048356461472242,0.487439740542278,-0.0734178775244954,0.3872203861834236,0.3623299060390939,-11.50868782504332,29.826428114280933,17.832215188367144,0.1766614661171827,0.7991009276426305,-2.218776868876225,-1.0,11.961333333333334,0.0,179.21740648731574,1.067057580012153,96.1474323046781,1553.0,1435.0,1000.0,1210.0,1471.0,1011.0,183.0,293.5,1649155792.0801022,1649155793.1997652,8afca5f1-92a4-4125-ac69-3bd5bac5fc06
0.2787288573175843,0.2727297650493213,0.9971543833412012,-0.0157608425266464,0.6976791555565645,-0.1700114935420751,0.6042686350388448,0.5919417334758523,-9.855429576021836,30.57700125664698,17.59654380552637,-0.0962916417074096,1.0023723549351808,-3.1316061995516784,-1.0,11.960333333333333,0.0,179.19927916525853,1.0455825047662808,96.10030627613476,1553.0,1435.0,1000.0,1071.0,1471.0,1011.0,183.0,293.5,1649155795.3378124,1649155796.4851444,6d934ecf-db21-43e4-8abf-9223c59c76a5
0.2754827731300235,0.254221332528629,0.990482516205526,0.002581589097074,0.6964908422511469,-0.1683646192200732,0.5991247559883442,0.5665554383507407,-9.879190082266316,30.64065624869938,17.607595280413605,-0.1338873636055157,0.930344474842706,-3.1156752452442733,-1.0,11.951777777777778,0.0,179.18148576356074,1.045154764169509,96.07621695784202,1553.0,1435.0,1000.0,1071.0,1471.0,1011.0,183.0,293.5,1649155796.6003182,1649155797.7039986,6d934ecf-db21-43e4-8abf-9223c59c76a5
0.2663471690681391,0.2626490984944381,0.9945657339202196,-0.0103643983297986,0.6982818040730997,-0.1647520146321737,0.6036796830788912,0.5813542947209284,-9.945579060754428,30.568814885334405,17.634827735980455,-0.0968683884894551,0.9640338095511294,-3.1292380053267785,-1.0,11.948333333333332,0.0,179.18922057334078,1.039108303632853,96.06315004704987,1553.0,1435.0,1000.0,1071.0,1471.0,1011.0,183.0,293.5,1649155797.8120918,1649155798.9335833,6d934ecf-db21-43e4-8abf-9223c59c76a5
-0.1566096839138819,0.0477605098334814,-0.3418748365400437,0.0312588959646273,-0.5018156117078956,0.0760170579852154,-0.73679604147907,-0.7531267292473541,-19.28859017431282,29.918808305986182,17.130503588067874,0.2746416953749009,0.1388093510648188,2.202990574231523,-1.0,11.965333333333332,0.0,179.3291620425155,1.0736769226654437,96.29731397582486,1553.0,1435.0,1000.0,1613.0,1471.0,1011.0,183.0,293.5,1649155799.8435414,1649155800.9898655,6672c070-3cda-46e5-8c9a-3168690315ab
-0.1545847844657234,0.0459065436570997,-0.3404679257824636,0.0350457204976262,-0.4996066301400126,0.0745312553147717,-0.735836186224886,-0.755296265305375,-19.317550767674376,29.933376436832727,17.16582986092571,0.2629184318670177,0.1313709293495689,2.1965299237408447,-1.0,11.982222222222225,0.0,179.30954422139934,1.066021501976492,96.24046555245292,1553.0,1435.0,1000.0,1613.0,1471.0,1011.0,183.0,293.5,1649155801.1019013,1649155802.149928,6672c070-3cda-46e5-8c9a-3168690315ab
-0.1564245064139291,0.0512153297693798,-0.3372054050072069,0.0355738598210715,-0.4976195329429466,0.0705685670045145,-0.7340359098377908,-0.7485679654898038,-19.274943655059705,29.939030349973223,17.430136244718998,0.2530859007360581,0.1487798985573147,2.187860291593545,-1.0,11.981222222222222,0.0,179.3110908797914,1.0733119700055729,96.230129199509,1553.0,1435.0,1000.0,1613.0,1471.0,1011.0,183.0,293.5,1649155802.2592614,1649155803.4390366,6672c070-3cda-46e5-8c9a-3168690315ab
-0.238699741842869,0.0158371187166824,-0.5914135930483565,0.0872372786699368,-0.7277765799461925,0.0714999329934415,-1.0098025652759732,-1.0249783627184108,-21.20555978058084,30.597288723060142,17.359661421948992,0.1293615357579301,0.0079139876223339,3.234941747918693,-1.0,11.973666666666666,0.0,179.33322524616173,1.0678044303671788,96.18917462633569,1553.0,1435.0,1000.0,1694.0,1471.0,1011.0,183.0,293.5,1649155805.3808205,1649155806.510207,c923e2ac-8bf5-4423-880c-0feee9e79a5b
-0.2303037504434861,0.0173026505047441,-0.5847570634772771,0.0856484779004711,-0.7224486164899173,0.0718286503910762,-1.0024475086243063,-1.0264986816717894,-21.08630793649484,30.604324202977114,17.455710253836592,0.1341375817775869,0.0123330324312212,3.2085186283798155,-1.0,11.965666666666667,0.0,179.33894287340692,1.0655173012065111,96.14370453921109,1553.0,1435.0,1000.0,1694.0,1471.0,1011.0,183.0,293.5,1649155806.6182225,1649155807.7369068,c923e2ac-8bf5-4423-880c-0feee9e79a5b
-0.2300714568163144,0.0129559106185298,-0.5904772960160802,0.0886661036613689,-0.7257116859436357,0.0737160361630783,-1.0080406388889032,-1.0289602287323405,-21.25241100731223,30.57782301134645,17.471220304156205,0.1310301165655656,-0.0036663294241024,3.2281408744244096,-1.0,11.962111111111112,0.0,179.3538964342298,1.0622079441159995,96.07923666036508,1553.0,1435.0,1000.0,1694.0,1471.0,1011.0,183.0,293.5,1649155807.8469286,1649155808.972119,c923e2ac-8bf5-4423-880c-0feee9e79a5b
-0.3229012648020013,-0.0240050752642807,-0.8105602604234324,0.1688994463306129,-0.9228238872937546,0.0475501306925962,-1.2577740151354897,-1.2751829045276586,-23.01508076497949,31.57864121020716,17.294790339269248,-0.1139944550935084,-0.1520666159759257,4.146518181056631,-1.0,11.926666666666668,0.0,179.35640539038494,1.050479963844592,95.93842851607572,1553.0,1435.0,1000.0,1774.0,1471.0,1011.0,183.0,293.5,1649155810.902922,1649155812.135585,df6117cb-62c8-4e06-942e-4aa6e1c6d639
-0.3154141768676672,-0.0205683346982995,-0.8069427236349673,0.1672936618623667,-0.920021569787143,0.0461339065436896,-1.2526564285138675,-1.285856917001705,-22.829732965729544,31.456247674283,17.39601490420383,-0.1140764407268122,-0.1409607829905938,4.131208254895935,-1.0,11.921666666666669,0.0,179.35380081158144,1.0361812236924506,95.83123552724152,1553.0,1435.0,1000.0,1774.0,1471.0,1011.0,183.0,293.5,1649155812.2436545,1649155813.268711,df6117cb-62c8-4e06-942e-4aa6e1c6d639
-0.3115928364540747,-0.0230885015540124,-0.810955817170781,0.1658281301455486,-0.9231991731310416,0.0495169564913,-1.256874972127255,-1.2724068839961131,-22.98804116510285,31.5003173521561,17.30274167500008,-0.1031706339406543,-0.1485390191682021,4.146434721231624,-1.0,11.918555555555557,0.0,179.3658841751331,1.0416962694241514,95.72886389305148,1553.0,1435.0,1000.0,1774.0,1471.0,1011.0,183.0,293.5,1649155813.3766365,1649155814.4978688,df6117cb-62c8-4e06-942e-4aa6e1c6d639
-0.36850204691906296,-0.04324983638981924,-1.001598321787885,0.24566536672528863,-1.0971181859367598,0.0029075671768288643,-1.48196443991395,-1.5106724601951882,-24.42487173610334,32.55345131146598,16.714389239627266,-0.39132982299815433,-0.23066972684786033,4.959658506414673,-1.0,11.904999999999998,0.0,179.38548378241137,1.016855654038657,95.62741812894893,1553.0,1435.0,1000.0,1856.0,1471.0,1011.0,183.0,293.5,1649155815.408618,1649155816.5525424,1be8ba8c-a235-4326-80cd-368fe7faff3e
-0.3829382223823516,-0.04892021184099271,-1.0010093696796531,0.24380263487748252,-1.0957485293355758,0.011700757969537958,-1.479156642710911,-1.506221073401269,-24.47749072548038,32.59318820717442,16.94348642165811,-0.367065703602014,-0.2533277881267504,4.952560039375077,-1.0,11.881999999999998,0.0,179.36419635949818,1.013431772699875,95.50003282419844,1553.0,1435.0,1000.0,1856.0,1471.0,1011.0,183.0,293.5,1649155816.6670837,1649155817.7739742,1be8ba8c-a235-4326-80cd-368fe7faff3e
-0.3685568331429911,-0.050276171201162394,-0.990627371611143,0.24756918826862248,-1.0850925990107008,0.006619334615427773,-1.4674460720645328,-1.49503097369615,-24.283091253237426,32.493130753228705,16.610736022634097,-0.38708228735598343,-0.2566474903612544,4.906797766301538,-1.0,11.879666666666667,0.0,179.37204804140407,1.0172105392842825,95.39057752492917,1553.0,1435.0,1000.0,1856.0,1471.0,1011.0,183.0,293.5,1649155817.88247,1649155819.003434,1be8ba8c-a235-4326-80cd-368fe7faff3e
