raw_voltage_G-,raw_voltage_G0,raw_voltage_G1,raw_voltage_G2,raw_voltage_G3,raw_voltage_G4,raw_voltage_G5,raw_voltage_G6,load_x,load_y,load_z,load_l,load_m,load_n,rpm,voltage,current,roll,pitch,yaw,aileron1_pwm,elevator_pwm,throttle_pwm,rudder_pwm,aileron2_pwm,pbaro,pdiff,Tt,sample_start_time,sample_end_time,uid
-0.5084946033666068,-0.2319199444978907,-1.1912547049290545,0.0371900535035014,-1.1799824281400813,0.4066547054962662,-1.575142236869203,-1.6056582092335925,-35.35598965512989,28.79856286697024,19.552879073017955,0.9468279303843856,-0.872506151630352,5.4369535445053545,-1.0,11.966111111111111,0.0,179.42386944554684,1.060749165119673,96.0406847959598,1553.0,1435.0,1000.0,1528.0,1471.0,1011.0,183.0,293.5,1649157520.2755718,1649157521.4121387,d3b15f5e-7ad1-4e94-b3d4-0faaf24a919a
-0.5158222642136701,-0.2313994752369075,-1.1937885703396367,0.0407785519755679,-1.1799687316026093,0.4022992002425313,-1.5807441361993646,-1.6086303658569117,-35.728310199317484,28.776764610491146,19.446948074984345,0.9284707796074642,-0.8675828426214102,5.4480583463256345,-1.0,11.970555555555556,0.0,179.40567685723758,1.034252335582157,96.4297892893268,1553.0,1435.0,1000.0,1528.0,1471.0,1011.0,183.0,293.5,1649157521.521576,1649157522.6384308,d3b15f5e-7ad1-4e94-b3d4-0faaf24a919a
-0.5136856004956175,-0.2433154825718853,-1.1992261086612097,0.0436137394993632,-1.184639261908315,0.4124757424436945,-1.5821411871201514,-1.6126982480309906,-35.51110220488567,28.87268001636868,19.576277265587205,0.9454383747998,-0.9156508576818388,5.462698805365641,-1.0,11.965444444444444,0.0,179.40465688232155,1.0217502079149772,96.8669191194779,1553.0,1435.0,1000.0,1528.0,1471.0,1011.0,183.0,293.5,1649157522.746688,1649157524.091473,d3b15f5e-7ad1-4e94-b3d4-0faaf24a919a
-0.2841257538823818,0.1634164401668533,-1.1523608306363444,-0.304032882890857,-1.2478204434714462,0.3509694333373853,-1.5781817807605103,-1.6059781598648053,-34.86611140993491,27.319843149842043,22.18708781065821,1.5842115769883105,0.6278839231056346,5.530171070255616,-1.0,11.93588888888889,0.0,179.26493246138048,1.056307289145376,97.49869188604649,1631.0,1435.0,1000.0,1528.0,1531.0,1011.0,183.0,293.5,1649157525.8077755,1649157526.945302,6394fc31-9e70-44ce-a14a-4d95d1197233
-0.2822060439302628,0.1614441358181025,-1.1487975312397742,-0.3012059129253959,-1.243297288078436,0.346840742969201,-1.575920202400818,-1.6016785302004268,-34.97213558677858,27.33888689518864,21.718549597881143,1.568732521067192,0.6252677947046752,5.514976539182818,-1.0,11.939666666666668,0.0,179.2638608805907,1.054468367433056,97.63197619751008,1631.0,1435.0,1000.0,1528.0,1531.0,1011.0,183.0,293.5,1649157527.076188,1649157528.1720994,6394fc31-9e70-44ce-a14a-4d95d1197233
-0.2846254044278769,0.1595638723074532,-1.1546750031026776,-0.2983657939115134,-1.2473602388467604,0.3476822595142025,-1.58210009732523,-1.6062937287167156,-35.10306662404683,27.31134544322949,21.9025585135616,1.5637050987066528,0.616788747766249,5.537297578737622,-1.0,11.931222222222225,0.0,179.268458356812,1.045454474293245,97.73023909345945,1631.0,1435.0,1000.0,1528.0,1531.0,1011.0,183.0,293.5,1649157528.2806003,1649157529.4023635,6394fc31-9e70-44ce-a14a-4d95d1197233
0.0022090426774661,0.6212523660631887,-1.0823121954096593,-0.6552532745669247,-1.302539339635974,0.2344615823206004,-1.5769227915761446,-1.6061101962094348,-34.473960327438625,26.346981128783487,23.70333711783728,2.1121478657803365,2.3764999373832336,5.56255437043301,-1.0,11.920666666666667,0.0,179.08386414648345,1.0849098920915354,97.90357942876555,1712.0,1435.0,1000.0,1528.0,1591.0,1011.0,183.0,293.5,1649157531.3343089,1649157532.5742505,ff1fdfd4-ca59-4455-82f1-eb80d9138427
0.0102763157694572,0.633675143495775,-1.0662050312700628,-0.670839963792185,-1.292006676440616,0.2357901484631566,-1.5579530350538775,-1.591646611024326,-34.086152782428215,26.21815975546596,23.71672100709356,2.1504384861284187,2.4231674568507784,5.500953215723662,-1.0,11.912555555555556,0.0,179.0943674596071,1.0811661420845913,97.89594327727347,1712.0,1435.0,1000.0,1528.0,1591.0,1011.0,183.0,293.5,1649157532.683154,1649157533.8142395,ff1fdfd4-ca59-4455-82f1-eb80d9138427
0.0046607266529277,0.6281006446917369,-1.0686978067926745,-0.6695798798624891,-1.2927052017018703,0.2409400542680853,-1.5581173939777455,-1.5903043464874302,-34.09162150321643,26.16492595621578,23.827672829350583,2.1587064881573803,2.4010009653400552,5.505047617000034,-1.0,11.915888888888889,0.0,179.12026298348033,1.0944909399497706,97.8831450205887,1712.0,1435.0,1000.0,1528.0,1591.0,1011.0,183.0,293.5,1649157533.9226067,1649157535.2494562,ff1fdfd4-ca59-4455-82f1-eb80d9138427
0.2925897737305437,1.126395103031751,-0.9911341443657352,-1.0026255643288555,-1.351079989296042,0.0606659551050407,-1.5718002726190887,-1.5947831272449176,-33.34045535366541,25.583951409502333,24.259095500835286,2.5053336755193665,4.306680208915855,5.557055622026684,-1.0,11.874222222222222,0.0,178.89741212470062,1.1331792895587731,97.82178563672494,1796.0,1435.0,1000.0,1528.0,1650.0,1011.0,183.0,293.5,1649157536.353454,1649157537.4906223,f9486bdc-ccbe-41f2-a486-bafd14e6e75b
0.3146790341713229,1.137576973038304,-0.9860560052796492,-1.0154828061963774,-1.350643342728584,0.0621583320780692,-1.5680835702344753,-1.5920536729816177,-33.31758769329615,25.66347132931872,24.378406539717,2.538500567901229,4.34930599476965,5.545638945871802,-1.0,11.877,0.0,178.8931758895954,1.1525586825261824,97.74072039819578,1796.0,1435.0,1000.0,1528.0,1650.0,1011.0,183.0,293.5,1649157537.5992782,1649157538.7162066,f9486bdc-ccbe-41f2-a486-bafd14e6e75b
0.298677071882448,1.1353942895381737,-0.98676603511349,-1.005568682623191,-1.349420512603201,0.055005441382071,-1.5700032818464709,-1.5953145537916993,-33.3054129727623,25.6232575904186,24.34566069498037,2.499762205718697,4.340057325583058,5.54747617259803,-1.0,11.869333333333334,0.0,178.89511718113948,1.1566683456883489,97.70429651717193,1796.0,1435.0,1000.0,1528.0,1650.0,1011.0,183.0,293.5,1649157538.8246143,1649157539.9538996,f9486bdc-ccbe-41f2-a486-bafd14e6e75b
0.5846874888981061,1.5745476104704608,-0.9252958438097408,-1.307094819384219,-1.4105094168051446,-0.0887098121668681,-1.586688998083446,-1.6158791411551656,-32.53754496211045,25.28173275638598,25.785402980814595,2.8583967562282284,6.009969513091606,5.623849310064028,-1.0,11.822333333333331,0.0,178.59809046797344,1.2095127722447971,97.49006535712476,1886.0,1435.0,1000.0,1528.0,1710.0,1011.0,183.0,293.5,1649157541.8820295,1649157543.2251632,80f18a3e-4aa0-494e-a780-9d70ea49a3c5
0.5736020432887231,1.5770940749358988,-0.9352521518353968,-1.321317339621289,-1.4221788969271645,-0.0767653168664394,-1.5946187674036167,-1.6228885010833694,-32.59936341494284,25.292971178257847,25.90756625967002,2.916887252027057,6.019995219245818,5.664913284567528,-1.0,11.821666666666664,0.0,178.60560367606044,1.2049276520254066,97.38241246888644,1886.0,1435.0,1000.0,1528.0,1710.0,1011.0,183.0,293.5,1649157543.334047,1649157544.465154,80f18a3e-4aa0-494e-a780-9d70ea49a3c5
0.5722049944560234,1.5688350490945584,-0.937087491964761,-1.3234950946837227,-1.4216036409974455,-0.0648219172505767,-1.5915370383288063,-1.616136088871299,-32.60729158286545,25.182279906039287,26.175948447316333,2.947851764872828,5.986846200192569,5.661643787317916,-1.0,11.81611111111111,0.0,178.61853853652863,1.2277609507048246,97.30699579680088,1886.0,1435.0,1000.0,1528.0,1710.0,1011.0,183.0,293.5,1649157544.578417,1649157545.895501,80f18a3e-4aa0-494e-a780-9d70ea49a3c5
-0.8078910738828954,-0.7606872328227791,-1.2303326626751323,0.4813124486212199,-1.0751647783106737,0.4990763356743392,-1.5519369515714974,-1.5852820872392763,-36.1569293568695,30.541712044399404,17.100780427074177,0.1614960346981199,-2.885431972212292,5.249595496408712,-1.0,11.960444444444445,0.0,179.58045684463875,1.0362665180513049,97.22444005921284,1475.0,1435.0,1000.0,1528.0,1408.0,1011.0,183.0,293.5,1649157546.8060348,1649157547.9308927,9b865322-53bb-4a15-9a7d-b40c2f6f429c
-0.8039859091816725,-0.7553488597935325,-1.2335015010728665,0.4678613334850331,-1.081015952185861,0.5070575935409909,-1.5516345311542792,-1.5773928581919143,-35.95333857182774,30.43588151882115,17.207232162605543,0.2090335081061988,-2.866340834316225,5.262317854650755,-1.0,11.965666666666667,0.0,179.5887562833902,1.0290386482316485,97.16434653707526,1475.0,1435.0,1000.0,1528.0,1408.0,1011.0,183.0,293.5,1649157548.0391753,1649157549.1683495,9b865322-53bb-4a15-9a7d-b40c2f6f429c
-0.8048334526592432,-0.7356794975650018,-1.2225102776633905,0.4460323081970797,-1.0763267952674835,0.509419975763752,-1.5419143461690616,-1.5660340158325876,-35.98354897934479,30.41436776767871,17.505266179729375,0.2640200027854782,-2.791612372887337,5.229705983122629,-1.0,11.956444444444443,0.0,179.6083710688667,1.0470712132720954,97.1135132336324,1475.0,1435.0,1000.0,1528.0,1408.0,1011.0,183.0,293.5,1649157549.2767525,1649157550.6062138,9b865322-53bb-4a15-9a7d-b40c2f6f429c
-1.0467696013743772,-1.1606702651460796,-1.2650655216986408,0.8151956172017458,-1.0072413075359672,0.5787245557159114,-1.54205131148544,-1.5653080978095255,-36.56508046989607,32.43758205840093,16.30086735520253,-0.4021768833022398,-4.418911018269468,5.142688732366357,-1.0,11.917555555555555,0.0,179.70590161675506,0.979832115607976,96.97980317371052,1404.7777777777778,1435.0,1000.0,1528.0,1347.5555555555557,1011.0,183.0,293.5,1649157552.242553,1649157553.258899,80f931f0-3361-4bf0-951f-40323c6dfcd4
-1.0564804681065405,-1.1775855283089909,-1.2668049861172483,0.8341927422028682,-1.0039404347212664,0.5760811201798072,-1.5453247929844764,-1.5681432886458375,-36.767978243468,32.61335239802001,16.035597859488618,-0.4500357255499681,-4.481012646633563,5.142756295947341,-1.0,11.907111111111114,0.0,179.74344640771267,0.9833909050408336,96.8336621694992,1396.0,1435.0,1000.0,1528.0,1340.0,1011.0,183.0,293.5,1649157553.3674047,1649157554.490472,80f931f0-3361-4bf0-951f-40323c6dfcd4
-1.0585623463734348,-1.1742435653849868,-1.269284065293344,0.8154969414490955,-1.0095560271720416,0.5909007951432002,-1.5436949004558196,-1.5627057474985375,-36.67513953701371,32.5926041326511,16.156875466413386,-0.3747557105062693,-4.468065882724774,5.151948516521606,-1.0,11.911666666666669,0.0,179.76216416167816,0.9972803674513028,96.67895155460924,1396.0,1435.0,1000.0,1528.0,1340.0,1011.0,183.0,293.5,1649157554.5988276,1649157555.717675,80f931f0-3361-4bf0-951f-40323c6dfcd4
-1.369643227373404,-1.6949555036644688,-1.3337866978589112,1.2873669186087455,-0.936301308713688,0.6633429822336219,-1.5675050267718007,-1.5930266779572464,-37.86974916978188,35.55854280542155,15.326365963251858,-1.2606754618924667,-6.467372420047252,5.111904822597023,-1.0,11.877888888888886,0.0,179.92677779195472,0.9552480473452136,96.3683585679317,1314.0,1435.0,1000.0,1528.0,1268.0,1011.0,183.0,293.5,1649157557.8551855,1649157558.9932468,59be1e57-bdbb-45f5-ae84-5ff754af6ec6
-1.3672967305374752,-1.686892602519413,-1.3334661983060998,1.2855217181130931,-0.9357589249334192,0.6577536911492257,-1.5700608078120906,-1.597358084319451,-38.10368275663434,35.47499824376877,15.40693958196576,-1.269715805575618,-6.435943951303119,5.115311855566129,-1.0,11.882333333333332,0.0,179.9432476547733,0.9567252061908692,96.1655482430867,1314.0,1435.0,1000.0,1528.0,1268.0,1011.0,183.0,293.5,1649157559.101862,1649157560.154953,59be1e57-bdbb-45f5-ae84-5ff754af6ec6
-1.363160365819284,-1.6867419401685082,-1.3274123136594556,1.2750712441287009,-0.9301570291399278,0.6678617504060199,-1.556925792520352,-1.5834286661645287,-37.812463523466654,35.192200631193536,15.57247699107909,-1.2248282143855154,-6.437241542936,5.08120809410416,-1.0,11.881666666666668,0.0,179.9581905908575,0.9460451144905618,96.03032188116909,1314.0,1435.0,1000.0,1528.0,1268.0,1011.0,183.0,293.5,1649157560.285075,1649157561.2471278,59be1e57-bdbb-45f5-ae84-5ff754af6ec6
-1.641474754191685,-2.159575326530753,-1.373487581938982,1.7178810238407374,-0.8565653802727295,0.7114031059373306,-1.577744587545385,-1.600357636013906,-38.86336940492741,38.61581473419238,13.575261226753932,-2.106301405011013,-8.242897121502052,5.015133572331023,-1.0,11.796,0.0,-179.86527269738866,0.8945208295056466,95.66743393056628,1227.0,1435.0,1000.0,1528.0,1189.0,1011.0,183.0,293.5,1649157563.3892686,1649157564.5242145,d1d224aa-3545-428a-8c32-90a71d3c19c5
-1.6391737291835924,-2.1556033164497195,-1.370309977122605,1.720839481371545,-0.8540589088284659,0.704198716837331,-1.577950036074702,-1.5942900513994882,-38.95193008384309,38.68873538452035,13.502719866526856,-2.1285787040235693,-8.226891495333271,5.007993137266323,-1.0,11.79577777777778,0.0,-179.86290034501695,0.8578614611089936,95.38111240055936,1227.0,1435.0,1000.0,1528.0,1189.0,1011.0,183.0,293.5,1649157564.6326258,1649157565.967593,d1d224aa-3545-428a-8c32-90a71d3c19c5
-1.6456385132642548,-2.1570825478689546,-1.3668995307437648,1.7102657360081792,-0.8514565613920256,0.7165804046039094,-1.5691020480473885,-1.594577678172873,-38.79960275718883,38.56913233966392,13.72036997604863,-2.077415292616186,-8.233930645221863,4.987393073490022,-1.0,11.804666666666668,0.0,-179.85535981617326,0.8659958369555247,95.188501065965,1227.0,1435.0,1000.0,1528.0,1189.0,1011.0,183.0,293.5,1649157566.0795505,1649157567.2003772,d1d224aa-3545-428a-8c32-90a71d3c19c5
-0.4795548634502094,-0.2038529536348485,-1.1708479119257793,0.0563466084108619,-1.1576071644506702,0.3619091478201913,-1.572080778294831,-1.598325608951524,-36.16061965919871,28.6581041830112,19.70532920036882,0.8027704689192174,-0.763961341734141,5.377576099057697,-1.0,11.96811111111111,0.0,179.52424590558934,1.0472328610824524,94.93576281719712,1553.0,1435.0,1000.0,1528.0,1471.0,1011.0,183.0,293.5,1649157568.2613409,1649157569.43979,6398fbaa-362d-4ade-9e6b-923f16986190
-0.4816586553015001,-0.2033007083544413,-1.1787765821420293,0.060422704198723,-1.1646022763826405,0.3589243939882078,-1.5790627446692431,-1.611408577671683,-35.99795028642172,28.52686869599285,19.83475050103454,0.7857063984602526,-0.7651951934415994,5.408304895846243,-1.0,11.967,0.0,179.52200105008217,1.0747277045805677,95.16932872496476,1553.0,1435.0,1000.0,1528.0,1471.0,1011.0,183.0,293.5,1649157569.5521266,1649157570.8762925,6398fbaa-362d-4ade-9e6b-923f16986190
-0.4985810316912523,-0.2073242098216882,-1.1772907784286106,0.0692323305821761,-1.1620119812896552,0.3532967523785398,-1.5783132681355845,-1.594801753934692,-35.91815033989926,28.555024559791377,19.63548686953229,0.7534570148116322,-0.7800744901089144,5.401038017466363,-1.0,11.962,0.0,179.53332550372602,1.1081730065120043,95.32568769217444,1553.0,1435.0,1000.0,1528.0,1471.0,1011.0,183.0,293.5,1649157570.9852364,1649157572.1071882,6398fbaa-362d-4ade-9e6b-923f16986190
-0.4895111683166104,-0.2271809347063214,-1.2495473073540866,-0.3780074603926767,-1.272571242506538,0.80822406942971,-1.5251497387373645,-1.549105049163107,-36.28304215223003,27.63342115281828,22.93287720120824,2.775237465955428,-0.8307228714413123,5.572873430449931,-1.0,11.952777777777776,0.0,179.5342786945702,1.2434430887551084,95.541627158424,1553.0,1522.0,1000.0,1528.0,1471.0,1011.0,183.0,293.5,1649157573.421622,1649157574.55841,4caa7197-fe7d-45c6-af68-024dd0a4d991
-0.4804851339272429,-0.2203326546476954,-1.2337551613444298,-0.3957855969910637,-1.2612852679491422,0.8165104866432334,-1.503687206123166,-1.5231363425638522,-35.89241531256092,27.471991325143872,22.880833720965715,2.833865813530189,-0.8041538889519343,5.506355806414711,-1.0,11.952,0.0,179.53547018312543,1.298992697109705,95.57355298042448,1553.0,1522.0,1000.0,1528.0,1471.0,1011.0,183.0,293.5,1649157574.6664522,1649157575.790494,4caa7197-fe7d-45c6-af68-024dd0a4d991
-0.4893742026589027,-0.2201409028355585,-1.2533686502327357,-0.3892797302139221,-1.279118203155923,0.8114564569609847,-1.527190527887713,-1.5594870520518456,-36.10723202441591,27.54229003865639,22.87502142018032,2.8072134305938565,-0.8039059787597725,5.590736945371257,-1.0,11.958333333333334,0.0,179.51613619431484,1.2739466424405816,95.59609260468552,1553.0,1522.0,1000.0,1528.0,1471.0,1011.0,183.0,293.5,1649157575.8989727,1649157577.0167153,4caa7197-fe7d-45c6-af68-024dd0a4d991
-0.484774897095486,-0.2416291620848908,-1.3160490900282868,-0.8721093387599049,-1.3845538639685468,1.2992007450264047,-1.4540842426274778,-1.4783567639187996,-36.35593371628786,26.569889794896053,26.06517688725735,4.983201386513769,-0.8555574713220037,5.713587717222492,-1.0,11.933555555555555,0.0,179.51814730557044,1.4389478385206802,95.6431427422381,1553.0,1613.0,1000.0,1528.0,1471.0,1011.0,183.0,293.5,1649157578.9511144,1649157580.0880172,c69a300d-8dca-4f56-b1ae-2e5dd247c922
-0.484333867848201,-0.243233303182762,-1.32346770066712,-0.8783566158741752,-1.391717718974964,1.3073677290012142,-1.4588720164404887,-1.480115403334833,-36.351881432699095,26.510829949722385,26.138587986009764,5.014898846396392,-0.8619554259747403,5.740156034454382,-1.0,11.945777777777778,0.0,179.52485910479487,1.4633279378877602,95.58665404216246,1553.0,1613.0,1000.0,1528.0,1471.0,1011.0,183.0,293.5,1649157580.1958358,1649157581.322189,c69a300d-8dca-4f56-b1ae-2e5dd247c922
-0.4832244463307102,-0.2428361029494863,-1.3043609837314334,-0.8713850639979702,-1.3737478161253722,1.300355090909168,-1.4389845921186522,-1.4612278284562723,-36.02918248207733,26.47924331853717,26.25833809704981,4.9843379219085255,-0.8634586286340147,5.661837084326213,-1.0,11.938,0.0,179.50910565292918,1.4559037712772696,95.56279087902224,1553.0,1613.0,1000.0,1528.0,1471.0,1011.0,183.0,293.5,1649157581.4312532,1649157582.5435326,c69a300d-8dca-4f56-b1ae-2e5dd247c922
-0.4730068111215413,-0.2574503327897495,-1.379472984133984,-1.317057705672928,-1.4915794353065566,1.7477669203936337,-1.394142013571037,-1.416905717442867,-36.29861070876071,25.912305019217754,29.37501693782977,6.987923146053382,-0.8938864489459899,5.859631699313563,-1.0,11.905444444444443,0.0,179.5245889328677,1.623443876737909,95.43742275680668,1553.0,1710.0,1000.0,1528.0,1471.0,1011.0,183.0,293.5,1649157584.2612724,1649157585.4305837,75905185-4974-4347-a146-187bd53205c8
-0.4980167332895103,-0.2704346719790703,-1.3841024266080806,-1.3158524075707232,-1.4952090284328186,1.7586282937922135,-1.3929641094861696,-1.4227815476252168,-35.98793186394727,25.92201913919596,29.25324704079684,7.009582102834334,-0.9441469954988896,5.8676896860258765,-1.0,11.91177777777778,0.0,179.52063653006795,1.5967176903967009,95.3182215365017,1553.0,1710.0,1000.0,1528.0,1471.0,1011.0,183.0,293.5,1649157585.5390775,1649157586.6413708,75905185-4974-4347-a146-187bd53205c8
-0.4799783611613504,-0.258600843871742,-1.3788155478665252,-1.304539039410351,-1.4921546906783203,1.736960333365551,-1.3956349388869078,-1.4202750735650544,-35.96517385944292,26.04648813071812,29.310700288973067,6.936480101251167,-0.9014888743775832,5.861702616552111,-1.0,11.905555555555557,0.0,179.51112587110367,1.6027016120137685,95.21481474919742,1553.0,1710.0,1000.0,1528.0,1471.0,1011.0,183.0,293.5,1649157586.7495167,1649157587.8762696,75905185-4974-4347-a146-187bd53205c8
-0.4723756735088443,-0.2665853906225953,-1.406407020445811,-1.7080779207171035,-1.5640863623889314,2.133222725043251,-1.3167459726657342,-1.3320247720989504,-35.931491996309134,25.76845618644548,31.90430265059588,8.734432865141942,-0.9067307973554886,5.884256603215468,-1.0,11.865,0.0,179.53423619561536,1.7426447175879254,95.00752154352716,1553.0,1814.0,1000.0,1528.0,1471.0,1011.0,183.0,293.5,1649157589.8050573,1649157590.9433286,93645ec9-8d0e-4537-ae2b-e85cfcb7f7a9
-0.4790420641528481,-0.2736199440556952,-1.4170969216585256,-1.7024765685391663,-1.572080779463758,2.134274621316678,-1.328040713385152,-1.3532336387528994,-36.09524575692099,25.81865970570829,31.722975354296736,8.723850523736363,-0.9317150192479244,5.924605168447527,-1.0,11.872,0.0,179.52592157866576,1.757454951159942,94.8519708153693,1553.0,1814.0,1000.0,1528.0,1471.0,1011.0,183.0,293.5,1649157591.0510876,1649157592.343008,93645ec9-8d0e-4537-ae2b-e85cfcb7f7a9
-0.472756985806374,-0.2779458656823828,-1.4173073005497736,-1.7027789893112375,-1.5710025847146567,2.138995005615155,-1.3267784369337,-1.3504198151725075,-36.16471232130787,25.804130006239244,31.756445112531537,8.735003617675579,-0.9477211786873792,5.921104686244011,-1.0,11.870777777777777,0.0,179.51549870999233,1.7605823240261615,94.70360089275884,1553.0,1814.0,1000.0,1528.0,1471.0,1011.0,183.0,293.5,1649157592.4520776,1649157593.6048653,93645ec9-8d0e-4537-ae2b-e85cfcb7f7a9
-0.5079878306125568,-0.2091014754355435,-1.1185259223954331,0.5327999991156228,-1.0571242065814828,-0.0935572983600113,-1.6474601577648205,-1.6723468396865158,-36.27190838646073,29.74907583144212,16.496755355882502,-1.286215584713612,-0.8097474793577009,5.275209745520322,-1.0,11.965888888888887,0.0,179.51601780436926,1.0353066511715387,94.55058795933256,1553.0,1349.0,1000.0,1528.0,1471.0,1011.0,183.0,293.5,1649157594.2421744,1649157595.448724,41d8d5d9-e015-4814-9f33-f890476071dc
-0.4997698933093777,-0.2005411254599789,-1.1155948567559664,0.5005446065939028,-1.0605620451661524,-0.0707662238099566,-1.634914093839546,-1.65014468771441,-35.785820922729705,29.54836110376881,16.76591903277006,-1.1631377585568463,-0.7793132215968237,5.259588845311522,-1.0,11.962222222222222,0.0,179.52344601454655,1.0455127799185036,94.818422443986,1553.0,1349.0,1000.0,1528.0,1471.0,1011.0,183.0,293.5,1649157595.556648,1649157596.6848423,41d8d5d9-e015-4814-9f33-f890476071dc
-0.5007286526631874,-0.1974457029260964,-1.1097190290557142,0.4901900091905906,-1.0572063862484375,-0.0644795031865873,-1.6267509346948426,-1.6518430641284385,-35.66602990119895,29.53566434170025,16.788872118446033,-1.1253808558233402,-0.7671076357299323,5.235791430734391,-1.0,11.958222222222224,0.0,179.51815944812898,1.029024643972256,95.03116006933467,1553.0,1349.0,1000.0,1528.0,1471.0,1011.0,183.0,293.5,1649157596.7929754,1649157598.1142583,41d8d5d9-e015-4814-9f33-f890476071dc
-0.5088644106011272,-0.1831054047067535,-1.0411677051947743,0.9813622524207424,-0.9500307470403312,-0.5538165287227709,-1.707286806532058,-1.7298313738041713,-36.06734181153293,31.60011500244984,13.453162611572706,-3.316585582857181,-0.7370111183789018,5.111246418361748,-1.0,11.953222222222225,0.0,179.52854588912686,0.851768920511375,95.42079352290742,1553.0,1264.0,1000.0,1528.0,1471.0,1011.0,183.0,293.5,1649157599.4323037,1649157600.4784043,8d0b4b3b-d902-456f-bbcb-ec5ff564f8df
-0.5090473966321679,-0.1795410119885114,-1.046960805515646,0.981699187618371,-0.9545254124131468,-0.5576449915511016,-1.7146522780396949,-1.7353878019569944,-36.23795958903918,31.500690613690253,13.400984012292312,-3.326990449492765,-0.7223828520341926,5.136033951906069,-1.0,11.942,0.0,179.52180069786652,0.8392229242941356,95.59447840331168,1553.0,1264.0,1000.0,1528.0,1471.0,1011.0,183.0,293.5,1649157600.5898523,1649157601.6030838,8d0b4b3b-d902-456f-bbcb-ec5ff564f8df
-0.4983443551137755,-0.1663265711663442,-1.0360473805186936,0.9693394140793918,-0.9498313251726328,-0.5599328654843333,-1.7045540658084175,-1.737833463670421,-35.97426389972185,31.55945422798176,13.377226347703784,-3.303189069372621,-0.6722618721075356,5.102003893262022,-1.0,11.932555555555556,0.0,179.5211146433099,0.8392711032153124,95.69778653232792,1553.0,1264.0,1000.0,1528.0,1471.0,1011.0,183.0,293.5,1649157601.717898,1649157602.8245182,8d0b4b3b-d902-456f-bbcb-ec5ff564f8df
-0.5031699279124459,-0.1592788693671882,-0.9784560538981776,1.3965273973161034,-0.8608803458460075,-0.9790345969914646,-1.7778581513233334,-1.8093098808064745,-36.31054350808941,33.720656528916344,10.618175172743673,-5.192012596542063,-0.6679035487034362,5.006300357173347,-1.0,11.919222222222222,0.0,179.53544589800836,0.6833348547532738,95.9377561218974,1553.0,1178.0,1000.0,1528.0,1471.0,1011.0,183.0,293.5,1649157603.9367802,1649157605.2782528,20305883-062a-48d4-a120-6194b9fac7a4
-0.5119461370657163,-0.1671489125694607,-0.9826422727261304,1.396326879832677,-0.8648791952210643,-0.9704112386064256,-1.775139654597233,-1.8055597582819365,-35.818821386446906,33.58819970701945,10.714846252279216,-5.173006028229698,-0.7020010196323861,5.013163199230985,-1.0,11.911,0.0,179.53427717675038,0.6812825726351619,96.07376188429032,1553.0,1178.0,1000.0,1528.0,1471.0,1011.0,183.0,293.5,1649157605.387542,1649157606.5073037,20305883-062a-48d4-a120-6194b9fac7a4
-0.5108504121134146,-0.1597664668825119,-0.982875114667304,1.397915680478507,-0.8647833194849217,-0.9774238805854544,-1.7814948675698217,-1.8090249925663904,-36.26684053706664,33.68346388476433,10.929977170977148,-5.191919620645611,-0.6732568509954641,5.023256693243003,-1.0,11.915444444444445,0.0,179.52011591787124,0.6811744161153359,96.1406802832286,1553.0,1178.0,1000.0,1528.0,1471.0,1011.0,183.0,293.5,1649157606.6161854,1649157607.737408,20305883-062a-48d4-a120-6194b9fac7a4
-0.5102751564623356,-0.1522333590721793,-0.9135293979210128,1.6495899703208148,-0.7835763842057272,-1.2313171723410878,-1.7940683276724905,-1.8198589865665649,-36.33919989635139,35.442474168369635,9.030632174477184,-6.315392829957616,-0.65421763965159,4.835692813270062,-1.0,11.878666666666666,0.0,179.5036642688904,0.62092235888381,96.26974505560496,1553.0,1088.0,1000.0,1528.0,1471.0,1011.0,183.0,293.5,1649157608.850253,1649157609.989591,e3e45862-005d-40ca-bbfa-988de72e5e5c
-0.512702735186054,-0.163828318646746,-0.9140537023634938,1.6552937660655738,-0.7835396773985696,-1.2246129752350228,-1.792755647096365,-1.817527827952816,-36.217831755286745,35.635045546248165,9.115298038362134,-6.311868907734774,-0.7000474245761081,4.833260799134004,-1.0,11.877777777777778,0.0,179.50369007182724,0.5826202351280306,96.32259098812328,1553.0,1088.0,1000.0,1528.0,1471.0,1011.0,183.0,293.5,1649157610.0981762,1649157611.4235804,e3e45862-005d-40ca-bbfa-988de72e5e5c
-0.5156874901127201,-0.1619875010270396,-0.9293456447751168,1.6675220554709644,-0.797358963526417,-1.2361443914539203,-1.812320936916333,-1.8429180001215724,-36.24921277631248,35.66303326781587,9.198740922301736,-6.365943962409092,-0.6961352014301551,4.9011987856393455,-1.0,11.877,0.0,179.50211153921907,0.5967950180189062,96.38704748332069,1553.0,1088.0,1000.0,1528.0,1471.0,1011.0,183.0,293.5,1649157611.53251,1649157612.6563053,e3e45862-005d-40ca-bbfa-988de72e5e5c
-0.4830918635679496,-0.2057332174228742,-1.178816028121807,0.0463404505315211,-1.163971138338579,0.3730329440002819,-1.570502932699731,-1.5983387582824349,-35.77510502032298,28.178346876817635,19.694027978568545,0.8469536934965153,-0.7729231897708126,5.394994279646308,-1.0,11.972,0.0,179.53336648486106,1.0545935875678394,96.4565393457562,1553.0,1435.0,1000.0,1528.0,1471.0,1011.0,183.0,293.5,1649157614.260197,1649157615.318957,281d1f1c-8c66-4def-adbe-23a645d6a21f
-0.4828135494251491,-0.2005548220216183,-1.1768185206584156,0.0480240314716544,-1.1622316742150411,0.3642912530950439,-1.5706360638765495,-1.5939339391459717,-35.78248317510565,28.11492950831592,19.40117211216658,0.8231408649457089,-0.7509349927013425,5.390340963241969,-1.0,11.969444444444443,0.0,179.54403068688515,1.0987317996622443,96.47647666794349,1553.0,1435.0,1000.0,1528.0,1471.0,1011.0,183.0,293.5,1649157615.4278877,1649157616.534968,281d1f1c-8c66-4def-adbe-23a645d6a21f
-0.4977975883370673,-0.2116764287014945,-1.1860500084496417,0.0543518415375095,-1.1670665631736117,0.371454552707668,-1.5802236662964582,-1.6141911746533877,-36.18070503808068,28.210223889878943,19.6270918920358,0.8249713761328992,-0.7931942843181957,5.421871304307523,-1.0,11.963111111111113,0.0,179.52790840480432,1.0848591755653547,96.47428797176944,1553.0,1435.0,1000.0,1528.0,1471.0,1011.0,183.0,293.5,1649157616.6431167,1649157617.9785216,281d1f1c-8c66-4def-adbe-23a645d6a21f
-0.4026749671488498,-0.1626564409792657,-0.8833421661524063,0.0083587975086987,-0.8979700985334818,0.3512521302742271,-1.2604223845539977,-1.2834052306313528,-33.58195376519672,27.874938017593603,19.949136264623945,0.8975325343946258,-0.6057400152844398,4.195336541249135,-1.0,11.991444444444449,0.0,179.5238102913023,1.0918636887127775,96.3986102346756,1553.0,1435.0,1000.0,1435.0,1471.0,1011.0,183.0,293.5,1649157618.7636976,1649157620.0250328,dbfd2cc1-ecca-4b4a-8381-894b02586626
-0.3901015239116503,-0.1583968109332565,-0.8711385258701082,0.0079068110372171,-0.8866019486715754,0.3483347635004398,-1.2480406845234306,-1.2779539959863,-33.51564137371209,27.79899379231621,20.16365286970688,0.8921681839858547,-0.5913064038781352,4.146480454628692,-1.0,11.987444444444444,0.0,179.52787956622782,1.0860400275238915,96.4305413690454,1553.0,1435.0,1000.0,1435.0,1471.0,1011.0,183.0,293.5,1649157620.1348877,1649157621.2551916,dbfd2cc1-ecca-4b4a-8381-894b02586626
-0.3855942595130224,-0.1575695386932942,-0.8705577915594702,0.0115095538668725,-0.8868884808632399,0.3414103318411192,-1.2499242370013812,-1.280718510765125,-33.47663255411656,27.89800406616793,19.75996473323715,0.8691217099176601,-0.5853069272152471,4.148309861276178,-1.0,11.990333333333334,0.0,179.51953307506207,1.091402888103148,96.45148804141004,1553.0,1435.0,1000.0,1435.0,1471.0,1011.0,183.0,293.5,1649157621.3640106,1649157622.4822686,dbfd2cc1-ecca-4b4a-8381-894b02586626
-0.2681336498800597,-0.0967896862686174,-0.499180941125019,-0.0204724589111106,-0.5559121024021568,0.2915351388284203,-0.8697962623902789,-0.8899713045077862,-30.60763920002845,27.89717215906136,19.827265730012428,0.8491305562456977,-0.3507670752837287,2.6592348674316617,-1.0,11.99,0.0,179.5003356900349,1.085068350108686,96.43457573411516,1553.0,1435.0,1000.0,1330.0,1471.0,1011.0,183.0,293.5,1649157623.3943512,1649157624.5299714,3b7ceb84-fb67-440b-b44d-c69c9422215f
-0.2639950972303266,-0.1033443116983135,-0.5007374184121517,-0.0128681293834395,-0.5542000320928914,0.2918660476603387,-0.8719909999289425,-0.899826805467632,-30.83112118821361,27.91196178365825,19.94325939473104,0.8326471831823966,-0.3758318814395822,2.661424261959062,-1.0,11.992555555555557,0.0,179.4934979117658,1.078743891386437,96.43817676162756,1553.0,1435.0,1000.0,1330.0,1471.0,1011.0,183.0,293.5,1649157624.638707,1649157625.686581,3b7ceb84-fb67-440b-b44d-c69c9422215f
-0.2739135983755581,-0.10555548425945,-0.5013313014929359,-0.0077894454324889,-0.5546109290686154,0.2860154260350244,-0.8748776884882125,-0.900983343136197,-30.858898278520247,28.0198671484726,19.454121276981745,0.8086375810574976,-0.3802544184264989,2.6659268564673777,-1.0,11.991333333333332,0.0,179.49916089749763,1.0922051625973763,96.4752995986765,1553.0,1435.0,1000.0,1330.0,1471.0,1011.0,183.0,293.5,1649157625.7945487,1649157626.9948227,3b7ceb84-fb67-440b-b44d-c69c9422215f
-0.1892841968210219,-0.0670144621648763,-0.2071269795035872,-0.0043346253305144,-0.2870184675071556,0.2315266839322982,-0.5786829120619729,-0.6073996742117785,-28.763957924831097,28.120671081440925,19.78924770578253,0.6948264875924902,-0.2352725102546658,1.485295220074593,-1.0,11.990777777777778,0.0,179.45790200145132,1.0605968495295883,96.43402628334194,1553.0,1435.0,1000.0,1210.0,1471.0,1011.0,183.0,293.5,1649157627.8971138,1649157629.0343027,7ef4ef39-2a22-4b85-8280-ef3f5debebea
-0.1864703756034739,-0.0597695302382934,-0.2046155783747663,-0.003795528808023,-0.2883596348001553,0.2200084265555598,-0.5799320387581058,-0.6069394696494262,-28.55114111482444,28.265765181184392,19.233865180520336,0.6688328483514421,-0.2045882385835044,1.485664437362982,-1.0,11.982,0.0,179.47765946199044,1.0821485983920809,96.46354711984463,1553.0,1435.0,1000.0,1210.0,1471.0,1011.0,183.0,293.5,1649157629.1430094,1649157630.2709398,7ef4ef39-2a22-4b85-8280-ef3f5debebea
-0.1887582489893015,-0.0581522405559155,-0.2194736064828528,-0.0123553302296265,-0.3016003736745361,0.2305668291329829,-0.5930412926840408,-0.6220210295154355,-28.80553895518904,28.13381661268745,19.73454611394008,0.7102050240040445,-0.2010496388224283,1.5433197675812895,-1.0,11.990333333333334,0.0,179.46751283652344,1.081026395939854,96.49404846794818,1553.0,1435.0,1000.0,1210.0,1471.0,1011.0,183.0,293.5,1649157630.403841,1649157631.501496,7ef4ef39-2a22-4b85-8280-ef3f5debebea
-0.0987893839989695,-0.0206505140632957,0.0479144590728387,0.0316155541983485,-0.0589323966311062,0.1394074692865961,-0.342040291191836,-0.3665571361435825,-27.053871068858587,28.875906571566883,19.732708466427773,0.4252852248689469,-0.0612271453958777,0.4967869767159223,-1.0,11.972666666666669,0.0,179.43786677988595,1.0572642626811184,96.49611118507752,1553.0,1435.0,1000.0,1071.0,1471.0,1011.0,183.0,293.5,1649157632.4050815,1649157633.542122,93322793-f5dc-4e10-b5c6-f39a89498700
-0.1197999061094408,-0.0337033347516133,0.0428604289552048,0.024315288385282,-0.0627263434921377,0.1566514360926911,-0.34128698027695,-0.3668036737222754,-27.029186317505665,28.9088975609438,19.39342582790971,0.4804277181905394,-0.1067718382401475,0.5056529068608712,-1.0,11.966,0.0,179.43865908182966,1.0596354411140725,96.49199485773774,1553.0,1435.0,1000.0,1071.0,1471.0,1011.0,183.0,293.5,1649157633.650934,1649157634.698697,93322793-f5dc-4e10-b5c6-f39a89498700
-0.0949685917903133,-0.0175227678580444,0.0586213328364372,0.0282609929110761,-0.0491716807729851,0.1363169778322344,-0.329856926404047,-0.3566276767019662,-26.89951769544754,28.74235976444785,19.3790326595641,0.4255766988139317,-0.0463645388189735,0.4515643349045452,-1.0,11.96811111111111,0.0,179.44884061715243,1.039506268873712,96.50501926957504,1553.0,1435.0,1000.0,1071.0,1471.0,1011.0,183.0,293.5,1649157634.8065224,1649157635.793403,93322793-f5dc-4e10-b5c6-f39a89498700
-0.6128213211487087,-0.2667913868948504,-1.5192876044035633,0.1801821229871355,-1.4658435724613743,0.324913649967195,-1.9521953486992425,-1.966563065066237,-38.06457372741433,29.33688188996921,19.08744777795464,0.4263868976723154,-1.0183912556905832,6.80455775526885,-1.0,11.923444444444444,0.0,179.5369804138419,1.0717985257799514,96.62580205812782,1553.0,1435.0,1000.0,1613.0,1471.0,1011.0,183.0,293.5,1649157637.935767,1649157639.0736496,8131f3a4-c0d7-469d-995b-b209685fca4e
-0.6036259965757043,-0.2560664322918604,-1.502747621182853,0.1732516645527912,-1.4521645304794095,0.3167433793670218,-1.9378648889482744,-1.9554841738655733,-38.08045764797247,29.289136952813315,18.632416273466152,0.4240871685455182,-0.9721197751938572,6.7435807258182585,-1.0,11.919,0.0,179.5415338732886,1.0674453711170608,96.5058237140773,1553.0,1435.0,1000.0,1613.0,1471.0,1011.0,183.0,293.5,1649157639.1814034,1649157640.301915,8131f3a4-c0d7-469d-995b-b209685fca4e
-0.6027976283764356,-0.2528318526132062,-1.4867456398248624,0.1672164131509483,-1.4399099325277331,0.3197018357915336,-1.9197591038319644,-1.9465956385264849,-37.7785052722116,29.334675225562147,18.84251709318398,0.4456334206398105,-0.9622291165270788,6.680125546514168,-1.0,11.925,0.0,179.5455652027187,1.0502494449601034,96.35188491056354,1553.0,1435.0,1000.0,1613.0,1471.0,1011.0,183.0,293.5,1649157640.4094162,1649157641.745035,8131f3a4-c0d7-469d-995b-b209685fca4e
-0.6769075414530672,-0.2861583233693504,-1.711149241588955,0.2514453140535653,-1.6382697551984184,0.2854127774667911,-2.1757372989438544,-2.199856988701036,-39.78385623662434,30.122478113280334,18.50388502182913,0.1715667808180048,-1.094611987195499,7.615146705266298,-1.0,11.857333333333337,0.0,179.5424734037544,1.0413611632679975,96.1030064775866,1553.0,1435.0,1000.0,1694.0,1471.0,1011.0,183.0,293.5,1649157643.974436,1649157645.1128056,36ef2819-b034-4505-afc1-cb630723821d
-0.6678815060014474,-0.2846790948307236,-1.711217724127602,0.2478431194341187,-1.6406803524426188,0.2887958272905983,-2.1747922340105093,-2.208800859728432,-39.59012592485329,30.19292571690632,18.72067130589066,0.1878902855977949,-1.0919161671241375,7.61773753162728,-1.0,11.83522222222222,0.0,179.53905223789013,1.0504587380831083,95.91323498386716,1553.0,1435.0,1000.0,1694.0,1471.0,1011.0,183.0,293.5,1649157645.2211049,1649157646.3495111,36ef2819-b034-4505-afc1-cb630723821d
-0.664676510125843,-0.2773514349592141,-1.6956721088278577,0.2443231039545986,-1.6288739037972528,0.2824269278905451,-2.158904194265855,-2.1851468549732287,-39.24798201590688,30.15717088266564,18.494927143427216,0.1821920971136621,-1.0634355411035334,7.558636489054915,-1.0,11.836555555555556,0.0,179.54214251903463,1.029512729764664,95.74007906366865,1553.0,1435.0,1000.0,1694.0,1471.0,1011.0,183.0,293.5,1649157646.4614904,1649157647.7761524,36ef2819-b034-4505-afc1-cb630723821d
-0.6634657338773492,-0.2724891560524717,-1.7016613480797518,0.246134884670288,-1.6330776568859846,0.2756668548482753,-2.168164730102056,-2.197696763673995,-39.54392054737619,30.069537219608343,18.392350131448215,0.1618698994046666,-1.042799562344712,7.585999730801383,-1.0,11.683777777777776,0.0,179.55952762720204,1.045214706194256,95.30366943902004,1553.0,1435.0,1000.0,1774.0,1471.0,1011.0,183.0,293.5,1649157649.893871,1649157651.058305,2b72835f-edc2-4b5f-8ea5-c0523e88472f
-0.6751023343439875,-0.2836524006412481,-1.7061319110441957,0.2482649733633938,-1.634195297480687,0.2863435955515443,-2.1691771816864587,-2.193278792303078,-39.657072121347085,30.04310547415183,18.61372274405837,0.1806375101606086,-1.086375795233205,7.593969250535121,-1.0,11.693444444444443,0.0,179.549595014329,1.053133812502259,94.98050435081024,1553.0,1435.0,1000.0,1774.0,1471.0,1011.0,183.0,293.5,1649157651.1713789,1649157652.2804973,2b72835f-edc2-4b5f-8ea5-c0523e88472f
-0.6609647413968657,-0.2809125406871387,-1.707382682503295,0.2486101266751686,-1.6355030466560827,0.2821119071063204,-2.1717105021990557,-2.205061691611098,-39.686877442575394,30.01491945811462,18.42501499232259,0.1700555469712472,-1.0743384538228395,7.601121418510343,-1.0,11.699777777777776,0.0,179.53000754960922,1.0566071771386218,94.7018113831963,1553.0,1435.0,1000.0,1774.0,1471.0,1011.0,183.0,293.5,1649157652.388499,1649157653.5178862,2b72835f-edc2-4b5f-8ea5-c0523e88472f
-0.6707714808805324,-0.28602135773637605,-1.7040133245479485,0.2566226129923485,-1.6301613819868885,0.2801396027778982,-2.170313450535185,-2.197542266678852,-39.888211308116745,30.121472854177103,18.500000861199975,0.14833404344638687,-1.0935103323107336,7.586637287138809,-1.0,11.711333333333334,0.0,179.54218805362908,1.0327377529916737,94.30317270465785,1553.0,1435.0,1000.0,1856.0,1471.0,1011.0,183.0,293.5,1649157655.444774,1649157656.78595,bdea6c2f-b219-47c7-b419-79adf40ae4c8
-0.6590061328302393,-0.27322877029942166,-1.6949735832726514,0.24688436031569272,-1.6265865754207038,0.27594845605958357,-2.1602053698341668,-2.1859960441602753,-39.43585549671028,30.035032667314706,18.483647322492697,0.16098528317951002,-1.0468164810573646,7.556845628996857,-1.0,11.712777777777779,0.0,179.53462475748816,1.0396732527693582,94.15159714659691,1553.0,1435.0,1000.0,1856.0,1471.0,1011.0,183.0,293.5,1649157656.8945549,1649157657.9500163,bdea6c2f-b219-47c7-b419-79adf40ae4c8
-0.6744421600361953,-0.2841860186666944,-1.70037003477327,0.24622692550248282,-1.6286273653235972,0.28854928917720274,-2.1618352635236193,-2.1788053357014747,-39.59999269679693,29.997822771293375,18.636839068809532,0.19021047056274074,-1.088370629223671,7.568086794728167,-1.0,11.717111111111112,0.0,179.54092370972273,1.0327444171693014,94.049306715767,1553.0,1435.0,1000.0,1856.0,1471.0,1011.0,183.0,293.5,1649157658.0606794,1649157659.2444904,bdea6c2f-b219-47c7-b419-79adf40ae4c8
