raw_voltage_G-,raw_voltage_G0,raw_voltage_G1,raw_voltage_G2,raw_voltage_G3,raw_voltage_G4,raw_voltage_G5,raw_voltage_G6,load_x,load_y,load_z,load_l,load_m,load_n,rpm,voltage,current,roll,pitch,yaw,aileron1_pwm,elevator_pwm,throttle_pwm,rudder_pwm,aileron2_pwm,pbaro,pdiff,Tt,sample_start_time,sample_end_time,uid
-0.2999507599877775,-0.0856954732376529,-0.643515319383782,-0.0006672347119559,-0.7318581561233873,0.2659636654577924,-1.0202393497265585,-1.0509470550485247,-26.54579556398657,29.50119843952152,19.15447323802471,0.7523760849443001,-0.3435040927585049,3.312571662921656,-1.0,11.986666666666666,0.0,179.3423063621182,1.0610733619459023,96.45567722410097,1553.0,1435.0,1000.0,1528.0,1471.0,1011.0,183.0,293.5,1649156732.8160317,1649156733.9557202,31f27ebc-d3b8-410c-bc67-3eac0fbc5c7a
-0.2931846589610279,-0.0859420112770658,-0.6370505414193715,-0.0004754828577629,-0.7252701087049228,0.26941519804623,-1.0128295066714914,-1.0286764360346623,-26.56155367625777,29.491869722159464,19.68918956572772,0.7600369605530434,-0.3486703400929462,3.284955091568771,-1.0,11.98488888888889,0.0,179.34388793036604,1.0630882440351217,96.7597640761391,1553.0,1435.0,1000.0,1528.0,1471.0,1011.0,183.0,293.5,1649156734.064607,1649156735.1815555,31f27ebc-d3b8-410c-bc67-3eac0fbc5c7a
-0.310812132474709,-0.1001179501682778,-0.6508292842596782,4.498632558028586e-05,-0.7332962953699735,0.2821529967526486,-1.0231430220520796,-1.0395378141165916,-26.91588252051265,29.40357124434625,19.503843036757107,0.7860071079582104,-0.3986272329724536,3.327169546714076,-1.0,11.984555555555556,0.0,179.34760507109434,1.0533501492578452,96.99355386232956,1553.0,1435.0,1000.0,1528.0,1471.0,1011.0,183.0,293.5,1649156735.2895358,1649156736.409896,31f27ebc-d3b8-410c-bc67-3eac0fbc5c7a
-0.0748642342245639,0.3106160873642924,-0.6149207302705534,-0.2790766537847606,-0.8033679201064159,0.1476643025274791,-1.0528777226207815,-1.0846318469730551,-26.186706255478303,28.2160211177236,21.09119285000813,1.1079587641978268,1.159267679260477,3.466485835297831,-1.0,11.948666666666668,0.0,179.21144145544056,1.0514976976048251,97.45301385760712,1631.0,1435.0,1000.0,1528.0,1531.0,1011.0,183.0,293.5,1649156738.345543,1649156739.48252,ce917b4a-c865-40af-9d59-3857630b7b44
-0.0669750161475166,0.3134825029578676,-0.6163407899342177,-0.2867817908275242,-0.8049720617963707,0.1533313904495856,-1.053666644926428,-1.0783730625932229,-26.34433716784279,28.16998393553027,21.280214824390114,1.1376492571157086,1.1703167186793897,3.472184224650566,-1.0,11.957,0.0,179.1992791652585,1.054719661476269,97.56839244870665,1631.0,1435.0,1000.0,1528.0,1531.0,1011.0,183.0,293.5,1649156739.5917523,1649156740.913356,ce917b4a-c865-40af-9d59-3857630b7b44
-0.0633722732548478,0.3215295045240813,-0.6175373217300161,-0.2888987312687947,-0.8081014530462628,0.1480719120834307,-1.0561911963281612,-1.0800560968895858,-26.231869577802627,28.12484679415362,21.361854063618125,1.1303166341805828,1.1991623040640556,3.4828394443413244,-1.0,11.958888888888888,0.0,179.19889515684517,1.0526505884764477,97.62512551777256,1631.0,1435.0,1000.0,1528.0,1531.0,1011.0,183.0,293.5,1649156741.0222597,1649156742.14565,ce917b4a-c865-40af-9d59-3857630b7b44
0.2148344148043063,0.8135657267789655,-0.5794701902763405,-0.6269150846419866,-0.9009559496658254,-0.0104876673965203,-1.1027611718767434,-1.1276341420168834,-25.60233508979265,27.25260593078605,23.08246557966051,1.53319863259238,3.068907374735492,3.683524335402808,-1.0,11.93311111111111,0.0,178.99092348571736,1.0714670007299252,97.73591118611016,1712.0,1435.0,1000.0,1528.0,1591.0,1011.0,183.0,293.5,1649156743.7785752,1649156744.8075902,131b3a5f-17e5-44a7-9610-4069950f2a38
0.2092001987274191,0.8119495330154913,-0.5815887746141729,-0.6279247955863214,-0.9019174486027218,-0.0092390891366699,-1.1046047301037805,-1.1329533413100994,-25.715170325404223,27.213983335900835,22.888594936947097,1.537832787476023,3.0653519112245085,3.689805722212837,-1.0,11.937555555555557,0.0,179.00271998132388,1.0785761722968177,97.73648112745092,1712.0,1435.0,1000.0,1528.0,1591.0,1011.0,183.0,293.5,1649156744.91656,1649156746.0367594,131b3a5f-17e5-44a7-9610-4069950f2a38
0.2212033142849606,0.8123741262907936,-0.5870717826800503,-0.6282299547312759,-0.9068591696781324,-0.0082277351476818,-1.110047746461004,-1.140317164275755,-25.75745747288759,27.1829428568664,23.010021371300013,1.5403130807153331,3.06585694448991,3.7119632926600734,-1.0,11.938222222222224,0.0,179.00019888261022,1.0883248206649994,97.72988695926225,1712.0,1435.0,1000.0,1528.0,1591.0,1011.0,183.0,293.5,1649156746.145189,1649156747.264912,131b3a5f-17e5-44a7-9610-4069950f2a38
0.5063607127274868,1.297491414375436,-0.5226957470083685,-0.9658464468201988,-0.9745508887038477,-0.1703369239568726,-1.1266551100083435,-1.152176750581197,-24.751438542506666,26.276450529637145,23.53041131632573,1.935397785035344,4.919242706390636,3.797604112890464,-1.0,11.886666666666663,0.0,178.70385367054135,1.1382390367776754,97.63452841152996,1796.0,1435.0,1000.0,1528.0,1650.0,1011.0,183.0,293.5,1649156749.4095235,1649156750.7553704,8c1ba582-98e4-49db-a6ee-ef6beabafd4a
0.489957167759189,1.2917947416794535,-0.5263686171355911,-0.9622480847111122,-0.9779717432276016,-0.1670256436751414,-1.1303460613857244,-1.145316412036444,-24.740317437694618,26.424281457763243,23.648428170941155,1.9355431659654696,4.896078658721699,3.811980904878689,-1.0,11.884666666666666,0.0,178.69601716683363,1.1341459391958395,97.5674240796643,1796.0,1435.0,1000.0,1528.0,1650.0,1011.0,183.0,293.5,1649156750.868908,1649156751.9794817,8c1ba582-98e4-49db-a6ee-ef6beabafd4a
0.5014622759291707,1.304874955262281,-0.5224924899809791,-0.9638916725153528,-0.9772184320549024,-0.1781472501217268,-1.131702021630726,-1.1481105122821722,-24.79325113053618,26.493630405136766,23.68332264675829,1.9148906074176069,4.945652057910501,3.809153910059921,-1.0,11.893,0.0,178.69007490225573,1.1495194143570688,97.50038804969036,1796.0,1435.0,1000.0,1528.0,1650.0,1011.0,183.0,293.5,1649156752.1140814,1649156753.2130363,8c1ba582-98e4-49db-a6ee-ef6beabafd4a
0.6095828992563838,1.499640027872175,-0.5016326257401982,-1.1267027741274045,-1.0144867914379785,-0.2451919114450939,-1.142412738590497,-1.166915901705191,-24.247682199644704,26.212698516766537,20.010220662196485,2.130359720118314,5.726195874962261,3.864185544041272,-1.0,11.72675,0.0,178.5821260391534,1.1790632731033024,97.35182688178313,1886.0,1435.0,1000.0,1528.0,1710.0,1011.0,183.0,293.5,1649156754.7823384,1649156755.8082223,b83d0b36-a401-4e3b-94c0-97903c31a0c6
0.6195813860679841,1.5055158520355352,-0.506440119039193,-1.13475635707792,-1.020513281110248,-0.2435209312724392,-1.146521709345493,-1.170668762676647,-24.223594760211583,26.11416528604835,19.97870137415856,2.151396076561912,5.749027785666583,3.88545047262078,-1.0,11.715,0.0,178.5626463396405,1.180793107445363,97.07761072371518,1886.0,1435.0,1000.0,1528.0,1710.0,1011.0,183.0,293.5,1649156755.9169018,1649156756.8866494,b83d0b36-a401-4e3b-94c0-97903c31a0c6
0.6162257295397561,1.5025710916873407,-0.504741745436732,-1.1290859785560057,-1.0191847141647654,-0.2463561196057579,-1.147192841527391,-1.1643957326625476,-24.256546940162675,26.30905711485308,19.90958811349982,2.133582969926617,5.738241748579387,3.881774287934553,-1.0,11.745666666666663,0.0,178.55568410014652,1.174635869778106,96.834988744018,1886.0,1435.0,1000.0,1528.0,1710.0,1011.0,183.0,293.5,1649156756.9947977,1649156758.1230805,b83d0b36-a401-4e3b-94c0-97903c31a0c6
-0.5791694138053521,-0.6033630224313502,-0.6484630659560001,0.3886535939304144,-0.6028370744693853,0.4043136899342539,-0.9467282308177256,-0.9676478192992553,-26.896866461700828,31.02049991722509,17.928395157700674,0.1945077616880602,-2.319942270271039,2.977097876234861,-1.0,11.973777777777778,0.0,179.52037242942006,1.0325321595544692,96.45638225140527,1475.0,1435.0,1000.0,1528.0,1408.0,1011.0,183.0,293.5,1649156760.4643247,1649156761.604059,5d926073-3422-4662-8f48-82588a5714d4
-0.5953554639381279,-0.6095429116858007,-0.6586270117744507,0.3844591601714684,-0.6119754213238414,0.4159239877977734,-0.953065906067129,-0.9848989199912116,-26.858737846110863,30.98978042434786,18.10554900594525,0.229396958585087,-2.3450890237482995,3.011927298710694,-1.0,11.977777777777778,0.0,179.51411142268088,1.0323491318290543,96.48152417774013,1475.0,1435.0,1000.0,1528.0,1408.0,1011.0,183.0,293.5,1649156761.7131464,1649156762.762393,5d926073-3422-4662-8f48-82588a5714d4
-0.59895820787731,-0.6163670873011535,-0.6598629896713943,0.3845512010503318,-0.6123041388376451,0.4204865850195136,-0.9537890848001008,-0.981756378769253,-26.959639189533863,31.093912546952712,17.807590102696782,0.2399725755135336,-2.3674167948212834,3.013730986016419,-1.0,11.973777777777778,0.0,179.52471946537182,1.0463674310543365,96.46775451637336,1475.0,1435.0,1000.0,1528.0,1408.0,1011.0,183.0,293.5,1649156762.8706944,1649156764.058654,5d926073-3422-4662-8f48-82588a5714d4
-0.8433892837938957,-1.0488103897627905,-0.6850706934132962,0.7118003060868306,-0.5296694886572902,0.5334437373273059,-0.9239113946208352,-0.9494828847587736,-27.612597071078,33.117457954645644,16.466726687986892,-0.232774697556791,-4.014691673647044,2.840366382586847,-1.0,11.924111111111111,0.0,179.66479146705063,1.0276283920375502,96.4792019134223,1396.0,1435.0,1000.0,1528.0,1340.0,1011.0,183.0,293.5,1649156765.789045,1649156766.9232166,90efd322-e088-48f1-abcc-af3d68dc3842
-0.8352672205029495,-1.0523578008556662,-0.6809206345222482,0.7113894093724419,-0.5249578711536079,0.5374157389455937,-0.9185834303163922,-0.9410184066783208,-27.65246610387265,33.13612334164987,16.519918706765242,-0.2226034068615749,-4.027871880023285,2.820312756968151,-1.0,11.92177777777778,0.0,179.6638807751613,1.0168635395869177,96.33615877945454,1396.0,1435.0,1000.0,1528.0,1340.0,1011.0,183.0,293.5,1649156767.034675,1649156768.1599944,90efd322-e088-48f1-abcc-af3d68dc3842
-0.844983564078549,-1.045987801076478,-0.6782185764936662,0.7086270877010166,-0.5247469441450738,0.5349985705136423,-0.915710438619038,-0.9405746377514967,-27.42880526697192,33.10470389262807,16.72250115024428,-0.2217328470473872,-4.006848143290672,2.8134533177468053,-1.0,11.92575,0.0,179.6838423824656,1.0250122517159257,96.2223919232717,1396.0,1435.0,1000.0,1528.0,1340.0,1011.0,183.0,293.5,1649156768.2692769,1649156769.5853126,90efd322-e088-48f1-abcc-af3d68dc3842
-1.161012679517618,-1.5937695792594946,-0.7187505442342651,1.125203502558275,-0.4306159524882996,0.6822431355211579,-0.887560708182213,-0.9097765395675091,-28.15408209975803,35.88878796028096,15.809066909199483,-0.8146218635025472,-6.101945551683678,2.6348465871253643,-1.0,11.877666666666666,0.0,179.80747108317257,1.0143461642750102,96.05075553043602,1314.0,1435.0,1000.0,1528.0,1268.0,1011.0,183.0,293.5,1649156770.503749,1649156771.636439,f617ccfb-0828-4700-bee6-903d13e96788
-1.157725502881676,-1.5965636807061765,-0.7246992359604235,1.126124459128089,-0.4344022299473692,0.6857746558461559,-0.8921611106824059,-0.920825284541036,-28.24786209711884,35.793965602817146,16.003377326217134,-0.8097045444369269,-6.113975660390247,2.654579728906003,-1.0,11.889,0.0,179.86454869733663,0.9809955244966015,95.86412971828432,1314.0,1435.0,1000.0,1528.0,1268.0,1011.0,183.0,293.5,1649156771.744653,1649156772.8614254,f617ccfb-0828-4700-bee6-903d13e96788
-1.1420522449135009,-1.5863997258816611,-0.7161262825063816,1.1215355643319795,-0.429576657366214,0.6801601630961496,-0.8866255066268252,-0.909832968329912,-28.20981394483189,35.88786474982489,16.073205529069448,-0.8108900088037123,-6.075632768061248,2.6297158849554414,-1.0,11.886,0.0,179.86598303706236,0.99543321630967,95.69346226367338,1314.0,1435.0,1000.0,1528.0,1268.0,1011.0,183.0,293.5,1649156772.9703205,1649156774.1023023,f617ccfb-0828-4700-bee6-903d13e96788
-1.4224528282259588,-2.0625076280354286,-0.7571420143429225,1.4927917482251172,-0.3567230045559841,0.7969381062097028,-0.8754529444671659,-0.8952307855588532,-28.825763967266383,38.791448981988445,14.810478521954366,-1.369242809236858,-7.894036330263148,2.512730890514974,-1.0,11.791,0.0,-179.9629094926641,0.9646226835665002,95.39646514799372,1227.0,1435.0,1000.0,1528.0,1189.0,1011.0,183.0,293.5,1649156775.7590935,1649156776.9607477,55568a8e-a9df-4105-a761-65b685e13189
-1.4433674954874218,-2.066822052137704,-0.7611961972478968,1.500612484122059,-0.3574763153165861,0.7952397331144082,-0.8807398184932014,-0.8978468300798923,-29.057480246540404,38.77064171706258,14.9572921358664,-1.3911339866941448,-7.911099484727662,2.526410696459719,-1.0,11.798666666666668,0.0,-179.95811773550636,0.9463803036524868,95.115013542865,1227.0,1435.0,1000.0,1528.0,1189.0,1011.0,183.0,293.5,1649156777.087312,1649156778.195134,55568a8e-a9df-4105-a761-65b685e13189
-1.4290134869314466,-2.058521922020086,-0.7502663387911156,1.491257733418166,-0.3507513038462287,0.7958012919357523,-0.8696319035951543,-0.8839585119061281,-28.88532293512296,38.804608565945614,15.052128029621338,-1.3678988820594864,-7.880182724772091,2.487699587563291,-1.0,11.79788888888889,0.0,-179.93560087854257,0.9428941561273644,94.87113556727044,1227.0,1435.0,1000.0,1528.0,1189.0,1011.0,183.0,293.5,1649156778.303752,1649156779.4196231,55568a8e-a9df-4105-a761-65b685e13189
-0.2625355917636204,-0.0323807950029065,-0.6279642413812352,0.0083012720282739,-0.7206625845432079,0.2058735787586801,-1.023345731235083,-1.0503400230220554,-26.7918921095254,29.078245119459403,19.26666196555175,0.5949794188634485,-0.1429196820662865,3.2872373211909247,-1.0,11.985666666666669,0.0,179.38191842366464,1.0996375823531137,94.56985212843163,1553.0,1435.0,1000.0,1528.0,1471.0,1011.0,183.0,293.5,1649156781.3538885,1649156782.4911747,51dc1834-209e-4cf3-b724-e93baacd0dab
-0.2796814938906201,-0.0505917399057514,-0.6340257925093777,0.0171503447185877,-0.7217539269036546,0.2164977248454093,-1.0266460562916575,-1.0513787706307285,-26.983041654912423,29.161334239268754,19.362671031671702,0.5990600213490785,-0.212192185187962,3.299526988850194,-1.0,11.988666666666669,0.0,179.37558911503376,1.115550784754382,94.81624892601012,1553.0,1435.0,1000.0,1528.0,1471.0,1011.0,183.0,293.5,1649156782.6001556,1649156783.719944,51dc1834-209e-4cf3-b724-e93baacd0dab
-0.283271088522784,-0.052800720990761,-0.6434271135266597,0.0138237244355718,-0.7296431477635132,0.2228616935005614,-1.0353110527500338,-1.06918211849503,-27.177013763266377,29.137002175960752,19.45591513468979,0.6201525488018322,-0.2201175686572049,3.3351339314596515,-1.0,11.986333333333334,0.0,179.39065195888335,1.117508381003531,95.03491060209892,1553.0,1435.0,1000.0,1528.0,1471.0,1011.0,183.0,293.5,1649156783.8286493,1649156784.9448478,51dc1834-209e-4cf3-b724-e93baacd0dab
-0.2711195000510488,-0.0671092423532597,-0.6877552198966649,-0.4245620723529296,-0.8158454909083722,0.661862658325766,-0.9545917036595074,-0.9834640672038653,-26.95787830315726,28.189443819420337,22.63197529746552,2.587665152541956,-0.2523351120473663,3.397488128492565,-1.0,11.972777777777775,0.0,179.40718405231442,1.2434608875640396,95.31358535587508,1553.0,1522.0,1000.0,1528.0,1471.0,1011.0,183.0,293.5,1649156785.8597214,1649156786.950741,dec04a12-5e11-44b6-b402-22337d36cdea
-0.2617099631058226,-0.0600966040634974,-0.6732231657961015,-0.4300680900808959,-0.8038199068179971,0.6579317463927922,-0.9390734938188636,-0.9634807769159232,-26.74810316211164,28.07671193188486,22.44523734447878,2.5913042099023254,-0.2242658864119514,3.339935277860181,-1.0,11.972444444444443,0.0,179.39419606815272,1.258771005605937,95.42400522963712,1553.0,1522.0,1000.0,1528.0,1471.0,1011.0,183.0,293.5,1649156787.058801,1649156788.2259748,dec04a12-5e11-44b6-b402-22337d36cdea
-0.2768172691781735,-0.0750532466894641,-0.6759898715936549,-0.4226445537516132,-0.8038199067514474,0.6685465782655754,-0.9396213563872212,-0.9718082886597268,-26.82348295821221,28.24347230318133,22.82808899763639,2.59940227092345,-0.28430863716139,3.343160798889619,-1.0,11.969444444444443,0.0,179.38953939695855,1.256119255808483,95.51205395713768,1553.0,1522.0,1000.0,1528.0,1471.0,1011.0,183.0,293.5,1649156788.333841,1649156789.6647918,dec04a12-5e11-44b6-b402-22337d36cdea
-0.2764074681165829,-0.099360256527693,-0.7630802965883805,-0.9367352159982484,-0.936524836553212,1.1890015225515222,-0.883338330773566,-0.9086364367981672,-27.095896864903533,27.311356379434464,26.02436347326074,4.918453351725519,-0.3441164364915442,3.5597398802872084,-1.0,11.96977777777778,0.0,179.419514820496,1.4129534310580485,95.59991219825136,1553.0,1602.888888888889,1000.0,1528.0,1471.0,1011.0,183.0,293.5,1649156790.258498,1649156791.298873,b84b7481-df1e-4f87-a5ce-e31c8af2ece0
-0.2693252506296134,-0.0978854110082249,-0.7646751247257416,-0.9401555225763968,-0.9370327053999872,1.1911524299988556,-0.8820135991922807,-0.9153373452762787,-27.02833105567068,27.077348760451745,26.089205186344014,4.929415772092741,-0.3393217330179725,3.561102618689734,-1.0,11.957333333333333,0.0,179.40788224942958,1.446477967927044,95.59897266778552,1553.0,1613.0,1000.0,1528.0,1471.0,1011.0,183.0,293.5,1649156791.407039,1649156792.5260484,b84b7481-df1e-4f87-a5ce-e31c8af2ece0
-0.2687154797415372,-0.0939561420584437,-0.7668539740528304,-0.9375241380806218,-0.9408902062333452,1.1838340850137434,-0.8874933209583316,-0.902535438443409,-26.987050874608645,27.197705841178003,25.909566099628417,4.907716228382504,-0.3237446857662832,3.577353262489285,-1.0,11.96377777777778,0.0,179.39768553590864,1.453303402052166,95.585127115428,1553.0,1613.0,1000.0,1528.0,1471.0,1011.0,183.0,293.5,1649156792.6345558,1649156793.7634594,b84b7481-df1e-4f87-a5ce-e31c8af2ece0
-0.2688995615464931,-0.1074072590665389,-0.8275220867551307,-1.4122450463900358,-1.0486964344173826,1.656240472027482,-0.8209345867575505,-0.844654846918536,-27.202553951494263,26.63018314321882,29.077780434223,7.03374402801509,-0.3461564336064511,3.710881821243252,-1.0,11.927888888888887,0.0,179.41075548234045,1.6284177722734938,95.5265536898357,1553.0,1710.0,1000.0,1528.0,1471.0,1011.0,183.0,293.5,1649156795.894385,1649156797.0331008,d8dfaffe-37c5-4111-9a3c-24df273f9705
-0.2540672824469041,-0.0983784871485236,-0.8012175595031837,-1.3846365910905147,-1.024074388660405,1.6172797833397965,-0.8013545251419658,-0.8152839324948523,-26.64104947516863,26.588202890013168,28.585371122503982,6.885151899203098,-0.313635365781534,3.614661861873666,-1.0,11.931,0.0,179.39636655048895,1.6174899676361003,95.41970296936992,1553.0,1710.0,1000.0,1528.0,1471.0,1011.0,183.0,293.5,1649156797.144665,1649156798.2606144,d8dfaffe-37c5-4111-9a3c-24df273f9705
-0.2511882654770451,-0.0922073653632278,-0.8019478602624744,-1.384343484284829,-1.025607308398521,1.6124290093724585,-0.8042883293132478,-0.8346881301229249,-26.68019020134152,26.578574894495773,28.779839929256745,6.873501493030562,-0.2920189989458174,3.622922483246733,-1.0,11.923444444444446,0.0,179.39092213081054,1.6242759265880504,95.32661432117182,1553.0,1710.0,1000.0,1528.0,1471.0,1011.0,183.0,293.5,1649156798.36918,1649156799.486496,d8dfaffe-37c5-4111-9a3c-24df273f9705
-0.2443246451652429,-0.105947753695784,-0.772573659908807,-1.6440436862168364,-1.0334702346195543,1.8742459063102768,-0.7068301506909285,-0.73507356198948,-26.216001538610904,27.15718318329573,30.567086674244152,8.053475909000186,-0.3288329113753568,3.4535003604908807,-1.0,11.872666666666667,0.0,179.39095248720685,1.7190424653024174,95.13249806823032,1553.0,1814.0,1000.0,1528.0,1471.0,1011.0,183.0,293.5,1649156801.4245803,1649156802.773145,4561e171-45b3-44f8-b4ad-a7d00d5ad48b
-0.2470069795297639,-0.1082356269714922,-0.7790691187467984,-1.654076153175944,-1.0401103305304071,1.8863427096835952,-0.7097360138011317,-0.7391628084454415,-26.22604198140572,27.111003521000693,30.619149166565748,8.102663512776626,-0.3369815411585513,3.475256328983852,-1.0,11.866444444444443,0.0,179.38536083900632,1.705186916678452,94.95292935931109,1553.0,1814.0,1000.0,1528.0,1471.0,1011.0,183.0,293.5,1649156802.885464,1649156803.991948,4561e171-45b3-44f8-b4ad-a7d00d5ad48b
-0.2330825086017399,-0.0991104312889475,-0.7697729865087664,-1.6615446231315354,-1.0349165923269918,1.883436847192998,-0.7022938488822135,-0.7309185726389238,-26.14725334802283,27.199710304608075,30.56243781400286,8.114062243579504,-0.3013011664391031,3.445891932032526,-1.0,11.874333333333334,0.0,179.39701314173035,1.7057073391477118,94.8367622608174,1553.0,1814.0,1000.0,1528.0,1471.0,1011.0,183.0,293.5,1649156804.1022618,1649156805.2273283,4561e171-45b3-44f8-b4ad-a7d00d5ad48b
-0.2875181179741468,-0.0507626729645404,-0.5684795204244606,0.5124354098130153,-0.6112127967249992,-0.2634165545653326,-1.0965445734351609,-1.1200413116231445,-26.81154547726079,30.54704918909288,15.918159498997284,-1.5846261146923242,-0.2403198846825158,3.1581548355738027,-1.0,11.986666666666666,0.0,179.38023364366938,1.0037215678617093,94.62021566664158,1553.0,1349.0,1000.0,1528.0,1471.0,1011.0,183.0,293.5,1649156807.3633912,1649156808.502061,69806d81-0463-402c-92fd-004d63b0a6d7
-0.2918966344448019,-0.0471993761569615,-0.5683874795466175,0.5044541519368538,-0.6122120980005962,-0.2586304284454372,-1.0947694981409062,-1.1265367721403567,-26.785313571510187,30.470600535511785,16.057976126059256,-1.5563340001852928,-0.2273930073493811,3.1574712276305665,-1.0,11.981666666666666,0.0,179.39730304531514,0.9910629387419853,94.91798459369748,1553.0,1349.0,1000.0,1528.0,1471.0,1011.0,183.0,293.5,1649156808.6104777,1649156809.7302666,69806d81-0463-402c-92fd-004d63b0a6d7
-0.2908836367984256,-0.0420993254321082,-0.5600210711885073,0.494559211063284,-0.6060826120546341,-0.2553273659402877,-1.0851610815542811,-1.1018708955067809,-26.74498743235722,30.42838563465118,16.012148939999154,-1.5264412777328948,-0.2063960208794085,3.1245492112299984,-1.0,11.980222222222222,0.0,179.39674145198336,1.0172640542907485,95.16931051112698,1553.0,1349.0,1000.0,1528.0,1471.0,1011.0,183.0,293.5,1649156809.8390305,1649156810.9548771,69806d81-0463-402c-92fd-004d63b0a6d7
-0.3036625278114292,-0.0247731783219735,-0.508015223790041,0.9930317194385848,-0.5147950220617991,-0.7543342184990053,-1.1838859506079626,-1.2094026608270696,-26.976538422719155,32.40304058221645,12.539860226699068,-3.757198445904808,-0.1670410195573972,3.0704830946235724,-1.0,11.968666666666667,0.0,179.38203226015082,0.8235269717119367,95.72523554478238,1553.0,1264.0,1000.0,1528.0,1471.0,1011.0,183.0,293.5,1649156812.8938782,1649156814.036084,6d6f6ef5-f82f-4496-b130-57029e7b58f1
-0.3007725535481063,-0.0220338665207118,-0.5104258186936818,0.9808828727861952,-0.5180821969706416,-0.7441576709948515,-1.186748533549033,-1.2141005845884785,-27.317343668042465,32.487834522001734,12.758118879359117,-3.706620246554433,-0.1549448177573343,3.0825815951235285,-1.0,11.942,0.0,179.39412624844118,0.8312526449282106,95.94844840358812,1553.0,1264.0,1000.0,1528.0,1471.0,1011.0,183.0,293.5,1649156814.1489608,1649156815.259013,6d6f6ef5-f82f-4496-b130-57029e7b58f1
-0.3051505221806886,-0.0223220421300855,-0.5104280100771382,0.979174638133455,-0.5174494157454856,-0.7419371838597791,-1.18448312077986,-1.2039563569111795,-27.24140847505281,32.3555665675638,12.81988542467503,-3.6986060162011394,-0.1569025993146008,3.0786419037867616,-1.0,11.953444444444443,0.0,179.4053930249321,0.8087067596604294,96.09335769701912,1553.0,1264.0,1000.0,1528.0,1471.0,1011.0,183.0,293.5,1649156815.3678362,1649156816.6945813,6d6f6ef5-f82f-4496-b130-57029e7b58f1
-0.3167290467216428,-0.0175140020652202,-0.4715275824017819,1.4141187101035737,-0.4451480043862299,-1.16354654474949,-1.2794606173992316,-1.3114421116170287,-27.75743621471119,34.60563113075208,10.252069313538136,-5.610961957313055,-0.1635054043919655,3.061856307354622,-1.0,11.929333333333334,0.0,179.38518477190772,0.6506107425356061,96.2982656488492,1553.0,1178.0,1000.0,1528.0,1471.0,1011.0,183.0,293.5,1649156817.8082397,1649156818.948103,5dbb9750-edab-4519-9091-9d89575c1c4f
-0.3139897346094009,-0.0092138873619316,-0.4596663599279667,1.4094755765281497,-0.4364643843733893,-1.166737845515084,-1.2664351788399295,-1.2886099277439953,-27.45068308480288,34.50796989432382,10.441954201296909,-5.60753158245393,-0.134907044930494,3.0168013229798123,-1.0,11.925666666666665,0.0,179.3936101897039,0.6408852290616446,96.42489052587209,1553.0,1178.0,1000.0,1528.0,1471.0,1011.0,183.0,293.5,1649156819.0572188,1649156820.175231,5dbb9750-edab-4519-9091-9d89575c1c4f
-0.3097438007458987,-0.024197922826089,-0.4713906167620592,1.413776296207681,-0.4436687757260493,-1.1554107826768003,-1.2764062820894282,-1.3087438875177415,-27.75831175135002,34.595189215096234,10.445106360303065,-5.591939482021178,-0.1902281923943676,3.054770300103112,-1.0,11.919,0.0,179.37736192857835,0.6463356725874454,96.55203222054216,1553.0,1178.0,1000.0,1528.0,1471.0,1011.0,183.0,293.5,1649156820.2832642,1649156821.610963,5dbb9750-edab-4519-9091-9d89575c1c4f
-0.295893838603247,-0.0020730494344599,-0.4209774082763259,1.5947440110989208,-0.3927471516768613,-1.3518004299141626,-1.2929994041452928,-1.3092906547362262,-27.56123130066804,36.258800138427766,9.407838093644896,-6.427999691452543,-0.1185049266492745,2.9425754497103607,-1.0,11.892,0.0,179.36524820863036,0.5554289022321741,96.65618577519568,1553.0,1088.0,1000.0,1528.0,1471.0,1011.0,183.0,293.5,1649156822.2600548,1649156823.249265,d1212d30-c0d6-4944-9d3b-84d406cfa7c9
-0.3097394178472701,-0.0040979487098391,-0.4195573489025108,1.5785842613609342,-0.3919056350579107,-1.3367057122195276,-1.2841503239272976,-1.3116705702684548,-27.38681905012525,36.036471389020754,9.197643668756616,-6.358976255252767,-0.1233951644920307,2.9264244262854464,-1.0,11.88511111111111,0.0,179.38144031042276,0.5500360765695278,96.70276387078565,1553.0,1088.0,1000.0,1528.0,1471.0,1011.0,183.0,293.5,1649156823.358245,1649156824.4845102,d1212d30-c0d6-4944-9d3b-84d406cfa7c9
-0.3077802618240852,-0.0034931086549823,-0.4218189253880484,1.5957827580901551,-0.3926419624746105,-1.3515506042257115,-1.2942090858625506,-1.3189549549968274,-27.66495534765116,36.26033619132245,9.374188090819962,-6.429870753793345,-0.1229798533179383,2.9450182406958136,-1.0,11.881888888888888,0.0,179.3821476144568,0.5591717984654719,96.71547940629048,1553.0,1088.0,1000.0,1528.0,1471.0,1011.0,183.0,293.5,1649156824.6023514,1649156825.7004335,d1212d30-c0d6-4944-9d3b-84d406cfa7c9
-0.2845421293049409,-0.0715195344121319,-0.6349686639185107,-0.012172344135873,-0.7207365460984759,0.2694015014844066,-1.0094327580885745,-1.029333871966089,-26.923079717216456,28.96413637744837,20.19404431789044,0.7828951851094931,-0.2949298416410575,3.2734245238158444,-1.0,11.980222222222222,0.0,179.41147796457264,1.0494493048999909,96.69316745500174,1553.0,1435.0,1000.0,1528.0,1471.0,1011.0,183.0,293.5,1649156827.8437145,1649156829.1854537,1c7cece5-e0fb-456a-a362-1406a529a312
-0.2819671759001785,-0.0659998210834391,-0.6318458473767669,-0.0115286059104743,-0.7181068056373631,0.2592660486779872,-1.008035708120374,-1.0234717405635143,-26.87294902001629,28.86493878136949,19.624990060937566,0.7580997801685734,-0.2694218302933402,3.2635435775818293,-1.0,11.984666666666666,0.0,179.42235466137095,1.063223662021791,96.70006442824364,1553.0,1435.0,1000.0,1528.0,1471.0,1011.0,183.0,293.5,1649156829.2937534,1649156830.414749,1c7cece5-e0fb-456a-a362-1406a529a312
-0.2859254818933093,-0.073300087099874,-0.6378175490115577,-0.0099261085915493,-0.7231197481645161,0.2672374453028258,-1.011829657359282,-1.0374422399339165,-26.83169030493232,28.93165705449964,19.91231244577204,0.7726092334620059,-0.3002155607319564,3.283450680118716,-1.0,11.98377777777778,0.0,179.40773805654712,1.0758617768580705,96.7143903705728,1553.0,1435.0,1000.0,1528.0,1471.0,1011.0,183.0,293.5,1649156830.5233696,1649156831.8501785,1c7cece5-e0fb-456a-a362-1406a529a312
-0.1828413351490828,-0.0227822464818588,-0.3311980934382347,-0.0394416451730981,-0.4474325908366857,0.2273979935351894,-0.6952855907029811,-0.7114058991562484,-24.532266443878893,28.64885684531809,19.8121589972538,0.7641988765007018,-0.103062806482717,2.046744152076379,-1.0,11.990444444444444,0.0,179.37628882996873,1.0693374046649582,96.68409924051367,1553.0,1435.0,1000.0,1435.0,1471.0,1011.0,183.0,293.5,1649156832.9638069,1649156834.099225,2110c6fa-6eb2-45b3-8201-28e05710fe30
-0.1905727692046471,-0.0186272583617987,-0.3303171306304873,-0.0374298946013278,-0.4469986837188043,0.2215468239698691,-0.6965741634331982,-0.7203733134434933,-24.56042114794021,28.652142066610512,19.82100095876019,0.7465653821123129,-0.087549954323725,2.0472987850609825,-1.0,11.991333333333335,0.0,179.39754437866583,1.081708833816457,96.6807729383879,1553.0,1435.0,1000.0,1435.0,1471.0,1011.0,183.0,293.5,1649156834.2176292,1649156835.3301475,2110c6fa-6eb2-45b3-8201-28e05710fe30
-0.1983305007090435,-0.0279759816378077,-0.3316977439677988,-0.0274500338439593,-0.4453156502304415,0.2222437048297372,-0.6984149816364652,-0.7149429002923,-24.708001523117733,28.736134346833204,19.911615917909977,0.7260474516576018,-0.1236867646031439,2.048455727237279,-1.0,11.983666666666668,0.0,179.4003644878831,1.0817970926671387,96.67623921059882,1553.0,1435.0,1000.0,1435.0,1471.0,1011.0,183.0,293.5,1649156835.4397128,1649156836.3958988,2110c6fa-6eb2-45b3-8201-28e05710fe30
-0.093023132500952,0.0188777547624722,-0.0280055662767581,-0.0403598624826147,-0.1722166397255825,0.1712656636953625,-0.3906219932131507,-0.413358285891186,-22.457298196379885,28.757711485453328,19.84303230281145,0.657001291498818,0.057563470557101,0.8313119978202136,-1.0,11.980666666666666,0.0,179.3792500964289,1.0715434134712645,96.60660998547,1553.0,1435.0,1000.0,1330.0,1471.0,1011.0,183.0,293.5,1649156838.9089782,1649156840.0392218,6e531b53-9e5b-472f-ab9a-1378fa85a8a8
-0.0936120845429948,0.031684037161989,-0.022554335745353,-0.0434826779881515,-0.170244335059243,0.1619930938205157,-0.3878141980795777,-0.4057429973780175,-22.30746187854436,28.729077196380484,19.931147742866447,0.6433799802043498,0.1044829249226618,0.8189603138864129,-1.0,11.976,0.0,179.36795296354168,1.075660025402274,96.59578641236529,1553.0,1435.0,1000.0,1330.0,1471.0,1011.0,183.0,293.5,1649156840.1483595,1649156841.2755184,6e531b53-9e5b-472f-ab9a-1378fa85a8a8
-0.082298726612941,0.0279311800809569,-0.0165141532621056,-0.0418253942675593,-0.1649437664433657,0.16295185292833,-0.380719379364759,-0.4118927534097263,-22.153947689121377,28.804344501183163,19.810572389310703,0.6426537854419422,0.0905696945196745,0.7928726433503904,-1.0,11.982777777777777,0.0,179.3572705476798,1.0774732390414683,96.60424598110728,1553.0,1435.0,1000.0,1330.0,1471.0,1011.0,183.0,293.5,1649156841.392758,1649156842.4514492,6e531b53-9e5b-472f-ab9a-1378fa85a8a8
0.0031732803964923,0.0661949819497742,0.2673437306344556,-0.0301718140260794,0.0925844150792021,0.0978570422050015,-0.1005041931882932,-0.123619602743416,-20.2117493241862,29.105067435244543,19.57000378706324,0.4871564936009464,0.2390333377118588,-0.3381587039517495,-1.0,11.979,0.0,179.3358161645869,1.0694702850466231,96.53674853390936,1553.0,1435.0,1000.0,1210.0,1471.0,1011.0,183.0,293.5,1649156843.415671,1649156844.4648676,d8ca026c-e366-4dfa-9650-ddffc0ba6c3d
-0.0176279574898508,0.0573196120080199,0.2593493237850438,-0.024872889354776,0.088034966257106,0.1024985318503744,-0.1082750730898643,-0.1335994639577171,-20.45120512899769,29.14584357699487,19.627288108145983,0.4853943021418533,0.2057738818055775,-0.3111317136537019,-1.0,11.965333333333334,0.0,179.33772102845538,1.082006836392901,96.55653635084484,1553.0,1435.0,1000.0,1210.0,1471.0,1011.0,183.0,293.5,1649156844.5740063,1649156845.7800367,d8ca026c-e366-4dfa-9650-ddffc0ba6c3d
-0.0074377176662622,0.0611195852283224,0.26109810027841,-0.0283441452331318,0.0871145575186918,0.1009206883750771,-0.1066183372851573,-0.1257759890736503,-20.252725820588253,29.192776361743444,19.48944937067172,0.4901551176063124,0.2203820101969681,-0.3142662065822727,-1.0,11.971333333333334,0.0,179.3384055651922,1.0714243831954162,96.5584867493078,1553.0,1435.0,1000.0,1210.0,1471.0,1011.0,183.0,293.5,1649156845.8890202,1649156847.0006497,d8ca026c-e366-4dfa-9650-ddffc0ba6c3d
0.0777729567360546,0.101988472095245,0.5178433585424413,0.0059071134608554,0.3185447506692474,0.0148372698423477,0.1328057282883905,0.1088093576446395,-18.738468816836143,29.96681759584996,19.32129811682316,0.2381025808605839,0.3765103100125984,-1.314593828693228,-1.0,11.955,0.0,179.29395014061433,1.0691503570886252,96.46185323293048,1553.0,1435.0,1000.0,1071.0,1471.0,1011.0,183.0,293.5,1649156847.9255931,1649156849.049868,53cc04ce-d122-4b55-b8f3-3695df5a7129
0.071116429277399,0.097674056209806,0.5240342024441579,0.0074685212899133,0.3245986291377234,0.0165630363102939,0.1391746278579702,0.1078095091594452,-18.73750739486671,30.074846725077407,19.217184403285085,0.2394667434985573,0.3614466356780902,-1.3410450498989288,-1.0,11.947444444444445,0.0,179.31226263668907,1.071527808386286,96.4451936426349,1553.0,1435.0,1000.0,1071.0,1471.0,1011.0,183.0,293.5,1649156849.157644,1649156850.283211,53cc04ce-d122-4b55-b8f3-3695df5a7129
0.0708835877962064,0.1020980445472962,0.5281157765313677,0.0028116912774218,0.3269681336226578,0.0185490373397019,0.1452148100639965,0.1224100401064858,-18.54096171951228,29.98508841164104,19.544928921620123,0.2541936174592726,0.3745739715752417,-1.357304954032302,-1.0,11.953,0.0,179.30069077841523,1.0778246617606395,96.43395266908088,1553.0,1435.0,1000.0,1071.0,1471.0,1011.0,183.0,293.5,1649156850.391217,1649156851.466349,53cc04ce-d122-4b55-b8f3-3695df5a7129
-0.3956530141382998,-0.1142182841392373,-0.95836483391058,0.0616060869569318,-1.0137340280718936,0.2525120020905644,-1.3615699197944104,-1.3883932871791251,-29.02947007577526,29.663811053644217,18.90623335904177,0.5657858301230653,-0.4583271952670553,4.606594342245241,-1.0,11.9485,0.0,179.41371864607538,1.09253288716888,96.66434955880112,1553.0,1435.0,1000.0,1613.0,1471.0,1011.0,183.0,293.5,1649156852.4201248,1649156853.5533998,977d87a4-9952-4429-8ebf-520e5691b8f0
-0.3911287660382701,-0.1195259748585,-0.9565229196060926,0.0665828683503556,-1.0099258344906092,0.2545681293020589,-1.359421201484006,-1.375487281627277,-29.13855199034855,29.685833581466827,19.126253649750268,0.5593976914826883,-0.47990784910246,4.595463798849016,-1.0,11.953,0.0,179.41247213655183,1.1089862259100594,96.59003539308408,1553.0,1435.0,1000.0,1613.0,1471.0,1011.0,183.0,293.5,1649156853.6618488,1649156854.7902472,977d87a4-9952-4429-8ebf-520e5691b8f0
-0.4044144304566913,-0.1251004745785067,-0.9584404389618314,0.0668978893194293,-1.0099532276171803,0.2601837180764415,-1.3586268003552633,-1.3801852063698303,-29.1467440020098,29.60821703362139,19.185937670678246,0.5707014403313807,-0.5014482718989833,4.596422393834001,-1.0,11.950555555555557,0.0,179.40647674828037,1.0882443406408726,96.49600569660036,1553.0,1435.0,1000.0,1613.0,1471.0,1011.0,183.0,293.5,1649156854.898867,1649156856.013872,977d87a4-9952-4429-8ebf-520e5691b8f0
-0.4836627363916942,-0.1703813006436303,-1.2219350214341496,0.1514193509064867,-1.245876626234505,0.2388033912293675,-1.6519937246852443,-1.6788116232297163,-31.13098877043432,30.58609383791107,18.75875728222161,0.3242925608230323,-0.6805427828125916,5.68749334216889,-1.0,11.916777777777778,0.0,179.4126360610919,1.0797699731556565,96.32490035097264,1553.0,1435.0,1000.0,1685.0,1471.0,1011.0,183.0,293.5,1649156857.7603562,1649156858.8937366,0cd814d6-af0c-437d-8d42-9b8d228ade58
-0.4814438932230795,-0.1656559875404221,-1.2169494699704346,0.1464064106211654,-1.2424935733326192,0.2397484537235026,-1.645912444691181,-1.663033165950796,-31.017472029698848,30.51717739901348,18.937800030139154,0.3376012812041239,-0.6642781918056792,5.668319202447534,-1.0,11.909666666666666,0.0,179.42462987327443,1.0713697061081544,96.20542061073152,1553.0,1435.0,1000.0,1694.0,1471.0,1011.0,183.0,293.5,1649156859.0238907,1649156860.1101906,0cd814d6-af0c-437d-8d42-9b8d228ade58
-0.4928668260430814,-0.1750655240997276,-1.2184560925103305,0.1544325936954893,-1.2409732538501366,0.2387759980943597,-1.6467205425719615,-1.670552587888127,-31.0630448544771,30.514033111203,18.53118410460162,0.3171273202344852,-0.6967270550023557,5.667780467734237,-1.0,11.909,0.0,179.4404167171761,1.076149024258165,96.1082133584639,1553.0,1435.0,1000.0,1694.0,1471.0,1011.0,183.0,293.5,1649156860.2183888,1649156861.5535345,0cd814d6-af0c-437d-8d42-9b8d228ade58
-0.5416402842450044,-0.1758188349064822,-1.42127492292359,0.2833172041884732,-1.4265344068982024,0.1312580172011812,-1.9064213730453707,-1.93317079720695,-32.62063404714275,31.8752612187203,18.22470070395825,-0.2171202272823188,-0.7145148414870657,6.565703226237926,-1.0,11.864888888888888,0.0,179.45500751906303,1.0538256063150688,95.89337810613011,1553.0,1435.0,1000.0,1774.0,1471.0,1011.0,183.0,293.5,1649156863.8909476,1649156865.038765,2d779f2a-1ff0-4838-bf53-97c7fcd06e79
-0.5393945958609303,-0.1764247707040067,-1.4084845151856045,0.2815574704082693,-1.4145460704662878,0.1319779082613739,-1.89272533967806,-1.920048375902601,-32.5736409189211,31.886741692151844,18.11393415753818,-0.2108140270031455,-0.7151106545940698,6.512222889065847,-1.0,11.860333333333337,0.0,179.46779211536952,1.037211574329901,95.75073491768376,1553.0,1435.0,1000.0,1774.0,1471.0,1011.0,183.0,293.5,1649156865.1468751,1649156866.255152,2d779f2a-1ff0-4838-bf53-97c7fcd06e79
-0.5531481360870655,-0.185352736248425,-1.4160318749158023,0.2845159268960088,-1.418911442354597,0.1378816727602065,-1.896288642499814,-1.925136930074104,-32.5130218374581,31.74659322515465,18.055522048352994,-0.2055046992744263,-0.749352383954134,6.532493131519959,-1.0,11.867,0.0,179.4610302280912,1.0352065936433852,95.64269043193306,1553.0,1435.0,1000.0,1774.0,1471.0,1011.0,183.0,293.5,1649156866.364114,1649156867.500798,2d779f2a-1ff0-4838-bf53-97c7fcd06e79
-0.5486940139315054,-0.17231251560690042,-1.4115914460571115,0.2855497430330247,-1.4172892202886576,0.12464257950548245,-1.8978336170444472,-1.9197207564741434,-32.58203135954306,31.827570875892295,18.135676856096094,-0.23685079160277847,-0.7005100178212332,6.528049016838108,-1.0,11.664555555555555,0.0,179.45069235732743,1.0320119623865887,95.4243831667712,1553.0,1435.0,1000.0,1856.0,1471.0,1011.0,183.0,293.5,1649156868.369074,1649156869.544823,21e2a154-95cc-4d27-aa79-d6f81572c7de
-0.5385996473945067,-0.16777895431739354,-1.4039487584577994,0.2814681688568101,-1.4105778996292486,0.1227524544789615,-1.8894923993026318,-1.9078732113978354,-32.51855488937293,31.718271677029815,18.02674471050945,-0.23222053831318182,-0.6820050334564721,6.4970623978365865,-1.0,11.677555555555557,0.0,179.45249704508808,1.0374112150675165,95.05813628091659,1553.0,1435.0,1000.0,1856.0,1471.0,1011.0,183.0,293.5,1649156869.6534643,1649156870.9665394,21e2a154-95cc-4d27-aa79-d6f81572c7de
-0.5389557580094646,-0.179174492056371,-1.4099067675221164,0.2857277983644002,-1.4141800982117194,0.13316183882417398,-1.8955325912462335,-1.9136394721080006,-32.80467726320624,31.946091840682357,18.42919168481499,-0.2173042383846735,-0.7271852958505756,6.517622600731484,-1.0,11.687555555555555,0.0,179.44770073447094,1.0498105460160936,94.79000582139912,1553.0,1435.0,1000.0,1856.0,1471.0,1011.0,183.0,293.5,1649156871.0750568,1649156872.2015808,21e2a154-95cc-4d27-aa79-d6f81572c7de
