raw_voltage_G-,raw_voltage_G0,raw_voltage_G1,raw_voltage_G2,raw_voltage_G3,raw_voltage_G4,raw_voltage_G5,raw_voltage_G6,load_x,load_y,load_z,load_l,load_m,load_n,rpm,voltage,current,roll,pitch,yaw,aileron1_pwm,elevator_pwm,throttle_pwm,rudder_pwm,aileron2_pwm,pbaro,pdiff,Tt,sample_start_time,sample_end_time,uid
0.2714148954550582,0.3719339322593093,0.6315521771204908,-0.2262495686150956,0.2936444087612861,-0.0306763952096861,0.3132578794001804,0.2905900760937055,-3.729082441080076,27.42480348609425,21.14334218193513,0.6561723029974963,1.302337312001782,-1.6478643088949976,-1.0,11.984777777777778,0.0,179.09988473463667,1.167182935738924,93.86344892044195,1553.0,1435.0,1000.0,1528.0,1471.0,1011.0,183.0,293.5,1649156554.8204775,1649156555.9856243,7cf77320-4350-46de-bff1-ca5b649a8a74
0.273373503216258,0.3723448289892068,0.6305523284402698,-0.2273179002788868,0.2935485328483339,-0.0320597476662449,0.3125593549539144,0.2802491751104249,-3.780359623885112,27.329923668881843,20.859120016579705,0.6547237459649193,1.3068269460571342,-1.6457337065682014,-1.0,11.982444444444443,0.0,179.0925521471077,1.1614059237934318,93.64757775608408,1553.0,1435.0,1000.0,1528.0,1471.0,1011.0,183.0,293.5,1649156556.0940158,1649156557.4167297,7cf77320-4350-46de-bff1-ca5b649a8a74
0.2732639307674939,0.3735364294955337,0.6384004557489139,-0.2240170293231399,0.3006981359956205,-0.0353743149492787,0.3200239789067101,0.3073820560141885,-3.675344139564245,27.34489592202011,21.044109093442767,0.6404019022210314,1.3090047206154394,-1.6762962880638212,-1.0,11.983777777777778,0.0,179.1126905804205,1.1747082863844625,93.43480370305984,1553.0,1435.0,1000.0,1528.0,1471.0,1011.0,183.0,293.5,1649156557.5260203,1649156558.8538637,7cf77320-4350-46de-bff1-ca5b649a8a74
0.4919842582749409,0.7730787033490562,0.6762714365564518,-0.3128255268362763,0.2538148186914688,-0.3415609113725326,0.2418988133442031,0.224778115844916,-3.181914075646868,26.73344008117876,21.393561939317763,0.1508263418372351,2.8142662740344018,-1.5041733732526843,-1.0,11.959333333333335,0.0,178.7074008154503,1.158236905746023,93.12456816294888,1631.0,1435.0,1000.0,1528.0,1531.0,1011.0,183.0,293.5,1649156560.9902134,1649156562.1259072,929ebd88-e1d4-4e7b-a592-548b11e95e9f
0.5044015571633849,0.7839559612983494,0.6754792276847752,-0.3188646144036821,0.2506185899501874,-0.3474893307848615,0.2375093404637877,0.2136970525943283,-3.295946169421122,26.75689643767563,21.2557972768722,0.1511637807824566,2.8577844174427027,-1.4915109313286103,-1.0,11.957333333333334,0.0,178.69454943507196,1.166311303993905,93.12353452765448,1631.0,1435.0,1000.0,1528.0,1531.0,1011.0,183.0,293.5,1649156562.235077,1649156563.3542674,929ebd88-e1d4-4e7b-a592-548b11e95e9f
0.4897654159780038,0.7773383326681028,0.6750113532890979,-0.3130172787088364,0.2519246937069898,-0.3461492592646799,0.2383651014064836,0.2212033141228744,-3.25195986522845,26.75460716061204,21.291238699393457,0.1409742619327225,2.8315892141665784,-1.4945383253199254,-1.0,11.964,0.0,178.69814363239524,1.1683979979331474,93.1048440944457,1631.0,1435.0,1000.0,1528.0,1531.0,1011.0,183.0,293.5,1649156563.4626515,1649156564.585004,929ebd88-e1d4-4e7b-a592-548b11e95e9f
0.7870459046378795,1.2838956623556492,0.7354635741480169,-0.4371108620797942,0.2012846839519195,-0.7301953933796304,0.1532919443610837,0.1303080238462529,-2.482504950221152,26.097809661042305,20.919175458076115,-0.4431198171127897,4.7484385449614015,-1.3263534610833805,-1.0,11.934888888888889,0.0,178.43109082494684,1.1405603287421604,93.14241620616004,1712.0,1435.0,1000.0,1528.0,1591.0,1011.0,183.0,293.5,1649156566.3110478,1649156567.4495132,8eaa5dea-043d-4adb-8abf-a0423bad82ba
0.763365104926446,1.2633573988004263,0.7362261984537927,-0.4302603897870532,0.2057289431207854,-0.7169940969318864,0.1584330844718452,0.1409716163006922,-2.5162954278315484,26.232330416929845,20.8531613332861,-0.4280055328026901,4.671438999617794,-1.3433631455305306,-1.0,11.933333333333332,0.0,178.41964342789788,1.140519715204127,93.1872116223766,1712.0,1435.0,1000.0,1528.0,1591.0,1011.0,183.0,293.5,1649156567.558322,1649156568.6859272,8eaa5dea-043d-4adb-8abf-a0423bad82ba
0.7824570100746016,1.276374608083417,0.7390794652722553,-0.4317461927021574,0.206978069184191,-0.7288673743599563,0.1592746009669149,0.1345550526409312,-2.4027341865629976,26.038965760160337,20.799927071562248,-0.4524258512229286,4.720290040900228,-1.348506206997969,-1.0,11.933555555555554,0.0,178.42373850576024,1.1543830663705816,93.20406701142838,1712.0,1435.0,1000.0,1528.0,1591.0,1011.0,183.0,293.5,1649156568.8009217,1649156570.113157,8eaa5dea-043d-4adb-8abf-a0423bad82ba
1.0328065230249937,1.7520539440211842,0.8084980005736783,-0.5343948027032147,0.1687181039041743,-1.1068016596115842,0.0851143120796202,0.0579814295345253,-1.5059807074356657,25.840243857408456,19.873645240056355,-1.0677015613990877,6.523275008866367,-1.229371948611225,-1.0,11.884,0.0,178.23658676904245,1.0996821208783265,93.37045497306934,1796.0,1435.0,1000.0,1528.0,1650.0,1011.0,183.0,293.5,1649156571.7627518,1649156572.7764566,02922e8e-e3d6-405a-bcc8-6778bc03d95e
1.035778676049894,1.752396358041978,0.8121412848191648,-0.5299708131376513,0.1709095532164341,-1.1089246278272318,0.0891137071833633,0.0666376542784664,-1.2368514884200774,25.890886324978705,20.225830798696823,-1.0817428515423977,6.519220163307981,-1.2422728930411706,-1.0,11.88888888888889,0.0,178.21043321580055,1.0906231674627411,93.35555681266972,1796.0,1435.0,1000.0,1528.0,1650.0,1011.0,183.0,293.5,1649156572.885038,1649156574.0102527,02922e8e-e3d6-405a-bcc8-6778bc03d95e
1.0381892701922124,1.7530811861238098,0.8086486627082662,-0.5300666889578945,0.1681702415613893,-1.1116776380798985,0.0836898700195813,0.0622684519329266,-1.4220086129994467,25.90592491859698,19.88399226493897,-1.0879348718363884,6.525919533690036,-1.2265944011345138,-1.0,11.89011111111111,0.0,178.2236397660157,1.0956344037373826,93.39891105897144,1796.0,1435.0,1000.0,1528.0,1650.0,1011.0,183.0,293.5,1649156574.1188252,1649156575.3352623,02922e8e-e3d6-405a-bcc8-6778bc03d95e
1.2887130160918858,2.173757436030693,0.8919922143946516,-0.6278190578889146,0.1510906335442028,-1.4402172834024627,0.0436822225235342,0.0195762790595409,-0.1402504611956844,25.86442354918474,19.140159465111257,-1.6013004593435436,8.118550083920068,-1.2100663728354892,-1.0,11.825444444444445,0.0,178.0166228035519,1.0322048085089357,93.48118524098368,1886.0,1435.0,1000.0,1528.0,1710.0,1011.0,183.0,293.5,1649156576.3690908,1649156577.323602,853773be-9fa3-4b8d-80a2-42261720a9ba
1.2764545961466025,2.169881308009168,0.8883352335724203,-0.6248469036927983,0.1488033083132582,-1.4385599981437085,0.0396965239207153,0.0172752568248414,-0.2512995151017496,25.91099710033964,19.19549304302033,-1.6042012000728096,8.10371082594839,-1.196752982761516,-1.0,11.824333333333335,0.0,178.00878326420454,1.0433593374812782,93.5047569827193,1886.0,1435.0,1000.0,1528.0,1710.0,1011.0,183.0,293.5,1649156577.4327576,1649156578.611727,853773be-9fa3-4b8d-80a2-42261720a9ba
1.281647235457898,2.1648322060894905,0.8880015854237504,-0.6181421620276218,0.1494393764808929,-1.438305789810768,0.0406865112016464,0.0216997932373984,-0.0983732607342285,25.914751108438995,19.407561522030527,-1.6186351580855904,8.080965106852739,-1.1987217082639678,-1.0,11.823333333333332,0.0,178.016202367463,1.043038520175732,93.53253687989356,1886.0,1435.0,1000.0,1528.0,1710.0,1011.0,183.0,293.5,1649156578.7204163,1649156579.8418243,853773be-9fa3-4b8d-80a2-42261720a9ba
-0.0348264526385484,-0.1771747942999752,0.5898598568106213,-0.0230200187652003,0.3723996152084261,0.3190515233010999,0.4107636728146752,0.3870686281986673,-3.9963783835568782,28.66246972542228,21.17971836030385,0.9896214478179364,-0.7832288023697616,-1.90243185836669,-1.0,11.977777777777778,0.0,179.27399991695862,1.1878958282780396,93.67912336422074,1475.0,1435.0,1000.0,1528.0,1408.0,1011.0,183.0,293.5,1649156581.7750251,1649156582.9172585,2c3344e1-c963-43ba-b305-a47b5f14ba8e
-0.0269098415644632,-0.1796127819457092,0.5869972763419814,-0.0213490385879695,0.3698794486267393,0.3190789164122484,0.4095994654308252,0.3853291652308458,-3.826658340220244,28.6056566136822,21.047118460780343,0.9854588190873578,-0.7927869147818507,-1.893765064291284,-1.0,11.977,0.0,179.32354307355828,1.1807146669916138,93.60209856204058,1475.0,1435.0,1000.0,1528.0,1408.0,1011.0,183.0,293.5,1649156583.0265353,1649156584.14808,2c3344e1-c963-43ba-b305-a47b5f14ba8e
-0.0257319374960369,-0.1739697993120358,0.5938729480907151,-0.0202396172797432,0.37476911966809,0.3115868993707374,0.4131331772542125,0.3917254576519416,-3.835507445521264,28.70681353236144,20.952272690866792,0.9671140443896816,-0.7704180485716988,-1.9143174708336763,-1.0,11.978,0.0,179.3416233432012,1.18038110237121,93.51291526422791,1475.0,1435.0,1000.0,1528.0,1408.0,1011.0,183.0,293.5,1649156584.2562225,1649156585.354333,2c3344e1-c963-43ba-b305-a47b5f14ba8e
-0.2706483383410439,-0.614565715320146,0.5503693949822228,0.1038528475827688,0.4236948666412714,0.6275127884532113,0.490371899543549,0.4675720622358668,-4.075889915010798,29.68374297744174,20.85681512967376,1.4012932802848397,-2.438392971395764,-2.084555245027776,-1.0,11.93011111111111,0.0,179.48532748769864,1.195203431069882,93.36787012592345,1396.0,1435.0,1000.0,1528.0,1340.0,1011.0,183.0,293.5,1649156587.405363,1649156588.5458329,f5f8a00b-daf6-4355-94f4-9bc540c2facf
-0.2643501120431913,-0.6138293880834262,0.5616246779099114,0.1219323046338697,0.4351079340471397,0.6111426632173435,0.4967621653532199,0.4835214293452188,-3.987309541730909,29.81401311151282,21.064693737769268,1.3252263380504103,-2.439610903458334,-2.1239915283324096,-1.0,11.927888888888887,0.0,179.47901639290558,1.1843273746018252,93.2368959362191,1396.0,1435.0,1000.0,1528.0,1340.0,1011.0,183.0,293.5,1649156588.653897,1649156589.778702,f5f8a00b-daf6-4355-94f4-9bc540c2facf
-0.2691230894031227,-0.6199961286870136,0.5531306209390771,0.1283488682629175,0.4295854820852306,0.6110900684369834,0.4871373205677104,0.4598011834667758,-4.204930653385242,29.85222377711376,20.969210724561137,1.3103395453970694,-2.461681244014435,-2.09218014192108,-1.0,11.923,0.0,179.49462716970856,1.175345248956435,93.09076252110684,1396.0,1435.0,1000.0,1528.0,1340.0,1011.0,183.0,293.5,1649156589.8871243,1649156591.0086734,f5f8a00b-daf6-4355-94f4-9bc540c2facf
-0.5600621609776587,-1.163217826933903,0.5113785834843719,0.2748938211632439,0.4958877771303694,1.0141107216746252,0.5930648512114648,0.5696437381381837,-4.448839314000218,31.57779480485157,22.00688389636639,1.894813935193172,-4.527223846397014,-2.3402520677781684,-1.0,11.894666666666666,0.0,179.6771374134304,1.214508344144623,92.83832404175254,1314.0,1435.0,1000.0,1528.0,1268.0,1011.0,183.0,293.5,1649156592.9369628,1649156594.084222,bd789cf7-4ada-43e0-bc10-48f7b7d64cc0
-0.5739230824241545,-1.176037815884464,0.4889710156621662,0.2892752068092315,0.4791231909193247,1.014603797749949,0.5687534620443909,0.554632311429481,-4.77451455176367,31.673138990950992,21.99460056105707,1.862831466608694,-4.57608224301794,-2.253969206494331,-1.0,11.890222222222222,0.0,179.6919513348302,1.2174301472895728,92.65781352563772,1314.0,1435.0,1000.0,1528.0,1268.0,1011.0,183.0,293.5,1649156594.1923838,1649156595.299991,bd789cf7-4ada-43e0-bc10-48f7b7d64cc0
-0.5628562598233193,-1.1676281222551037,0.5001611030096648,0.274797945264666,0.4865056353281037,1.0176444335563744,0.5826006814507478,0.5697807038079592,-4.5528898570874015,31.55687146685793,21.79982404528181,1.9021882882545595,-4.541893203804681,-2.2981745469121173,-1.0,11.892222222222223,0.0,179.6784928265257,1.2087992072040077,92.4955183651294,1314.0,1435.0,1000.0,1528.0,1268.0,1011.0,183.0,293.5,1649156595.4123917,1649156596.5316715,bd789cf7-4ada-43e0-bc10-48f7b7d64cc0
-0.8638930425069807,-1.6792773054874726,0.4368282216564587,0.4554007535160584,0.5293895563682752,1.35752452761802,0.6432353404598374,0.6212660626102555,-5.005283701362366,33.46457498175595,22.4593153851694,2.2679187992804053,-6.489750528586793,-2.417080377823467,-1.0,11.734111111111112,0.0,179.83665572258613,1.2459423925248372,92.30128903461168,1227.0,1435.0,1000.0,1528.0,1189.0,1011.0,183.0,293.5,1649156597.281924,1649156598.3808794,abdd60d1-9612-4308-8ddb-191518d3787c
-0.8550587577307752,-1.6706895517143474,0.4461007910189915,0.4520861866236147,0.5366213386172366,1.350799517162022,0.6508506262919079,0.6331546743113715,-4.96665950965411,33.41336576548052,22.33110477126586,2.26040489857117,-6.455683218617118,-2.44953514889966,-1.0,11.750555555555556,0.0,179.85008691013402,1.237384639813503,91.88958040964148,1227.0,1435.0,1000.0,1528.0,1189.0,1011.0,183.0,293.5,1649156598.493179,1649156599.8105114,abdd60d1-9612-4308-8ddb-191518d3787c
-0.8599993828237374,-1.6727736229361094,0.43863178433487,0.4562510357841985,0.5301861481377569,1.349034304761381,0.6424365572392527,0.6214249426754779,-5.003237347290158,33.44184519954724,22.27380978232668,2.246832692736499,-6.463718854098887,-2.418942999858912,-1.0,11.756333333333334,0.0,179.85709771986205,1.2499670340613978,91.55505064556266,1227.0,1435.0,1000.0,1528.0,1189.0,1011.0,183.0,293.5,1649156599.9182608,1649156601.0369356,abdd60d1-9612-4308-8ddb-191518d3787c
0.2672648384574382,0.3657019985717795,0.6223206975296564,-0.1500966958395502,0.2955619268457329,-0.1004329711003179,0.2837691906203995,0.270825943336027,-4.015627951809621,27.532506259776905,20.179360481942027,0.327594144177006,1.2795761672356136,-1.5975974571058025,-1.0,11.982,0.0,179.0286519328727,1.1156692577057663,91.27907912887802,1553.0,1435.0,1000.0,1528.0,1471.0,1011.0,183.0,293.5,1649156601.9482002,1649156602.998222,5e32e3ff-03c2-44e5-a9a5-74f6419961ae
0.2584716483277884,0.3610862586714613,0.6210195245889891,-0.1479874256214343,0.2949044920684578,-0.101720447665085,0.2817968862876547,0.2686207975112271,-4.065225272133635,27.61343916808518,19.61654993361556,0.3203000586095604,1.2672627384264494,-1.59352193044755,-1.0,11.986666666666666,0.0,179.02540531628722,1.1413569114120807,91.61670145083102,1553.0,1435.0,1000.0,1528.0,1471.0,1011.0,183.0,293.5,1649156603.1064236,1649156604.114566,5e32e3ff-03c2-44e5-a9a5-74f6419961ae
0.2591290830855876,0.3587167542064343,0.615718956929745,-0.1482476602304329,0.2903024486685618,-0.0976251763987272,0.2767291599208609,0.2616903392896116,-4.1538375726988415,27.65223553555049,19.794590731632606,0.3300667339580457,1.2571215317012256,-1.5729289338880748,-1.0,11.982444444444443,0.0,179.031159371208,1.1500901620395882,91.96482556808786,1553.0,1435.0,1000.0,1528.0,1471.0,1011.0,183.0,293.5,1649156604.2222548,1649156605.3446147,5e32e3ff-03c2-44e5-a9a5-74f6419961ae
0.2972175667160671,0.3678523581074979,0.6167703046644888,-0.6327766658112913,0.2373121100265154,0.3625139878304761,0.4095074245641903,0.3901262477637902,-3.62937189137545,26.63148654640393,23.574812815124872,2.451191874726684,1.3138747786466656,-1.6882608479151475,-1.0,11.975888888888887,0.0,179.0232257270321,1.2854825236415832,92.57769844231308,1553.0,1522.0,1000.0,1528.0,1471.0,1011.0,183.0,293.5,1649156607.4911225,1649156608.5345974,fde244b6-f8a4-42f5-931a-71648b7bfa37
0.2995185883946676,0.3824079637469968,0.62450173730772,-0.644834024566067,0.2405992839353468,0.3597396131077433,0.4168443964770369,0.3954646180566052,-3.469932999491018,26.539680104885864,23.68769783732364,2.472030561303793,1.3683112767069292,-1.711759273426394,-1.0,11.976666666666668,0.0,179.03495392074691,1.2878960231598635,92.68201060913736,1553.0,1522.0,1000.0,1528.0,1471.0,1011.0,183.0,293.5,1649156608.6432064,1649156609.586654,fde244b6-f8a4-42f5-931a-71648b7bfa37
0.286212108635612,0.3616198765540012,0.620123221882177,-0.6329870451629694,0.2415591386985806,0.3681284806836947,0.4151350660994206,0.3867470329258319,-3.618137133951167,26.64354503624377,23.511704781832485,2.464525439685169,1.291217655337539,-1.7074704883405567,-1.0,11.979,0.0,179.03289120361757,1.302361901361225,92.80658187594976,1553.0,1522.0,1000.0,1528.0,1471.0,1011.0,183.0,293.5,1649156609.6948996,1649156610.866886,fde244b6-f8a4-42f5-931a-71648b7bfa37
0.3273653337782982,0.3796313976035326,0.6366609929762134,-1.1606565685105206,0.191892680176354,0.8596409457652134,0.5693150208881164,0.5438120311517375,-2.795321939460178,25.987753259718584,27.476842492102804,4.75683513921043,1.383809908268449,-1.877895401868016,-1.0,11.955444444444446,0.0,178.99361458025035,1.4560914591838372,93.08502136765452,1553.0,1613.0,1000.0,1528.0,1471.0,1011.0,183.0,293.5,1649156612.8023071,1649156613.9407818,ed2c99e1-4c39-4d66-bafb-b27140fff89a
0.3311592802474608,0.3762483478903904,0.6317439289230641,-1.1613140038938334,0.1886192028373229,0.8626541883946427,0.565493681414501,0.5471402945596479,-2.8866797046130785,25.933103513722244,27.31551152639616,4.764410489893397,1.3729661969512292,-1.8619776509809365,-1.0,11.957777777777778,0.0,178.99951131023377,1.47209224453165,93.05826448103596,1553.0,1613.0,1000.0,1528.0,1471.0,1011.0,183.0,293.5,1649156614.0572796,1649156615.1755552,ed2c99e1-4c39-4d66-bafb-b27140fff89a
0.3234623626969151,0.359516085307602,0.6216484704977937,-1.1484030699563703,0.1831657812509338,0.8680550149101356,0.5559181442757161,0.5332629427325384,-3.067027331235692,26.08206594067998,27.36615262295732,4.747825058015507,1.308810580301382,-1.82918238272472,-1.0,11.962666666666667,0.0,178.98916433255113,1.4738019974060723,93.02571711182102,1553.0,1613.0,1000.0,1528.0,1471.0,1011.0,183.0,293.5,1649156615.290372,1649156616.392786,ed2c99e1-4c39-4d66-bafb-b27140fff89a
0.3614423691367126,0.3790150525142919,0.6415780570306772,-1.6494872509611505,0.138037813555173,1.3306655755371042,0.7020346607583919,0.6849139641974764,-2.4401111208119945,25.728941483411926,30.889674167826,6.9172246015687255,1.4092291498429133,-1.9994026784996968,-1.0,11.929333333333334,0.0,178.97932430668686,1.6288687070543224,92.95723991193216,1553.0,1710.0,1000.0,1528.0,1471.0,1011.0,183.0,293.5,1649156617.3079865,1649156618.4513333,26ca5603-0de9-41d6-b225-d056b692080e
0.3520191375095776,0.3656335157742305,0.6358528960981041,-1.6429265907512631,0.1349971776269291,1.3352950124281318,0.6974326175189788,0.6831745014238204,-2.507481179624913,25.85422005741398,30.50201827922725,6.913278027381993,1.3617842865084364,-1.983111796332496,-1.0,11.925444444444445,0.0,179.00438351184172,1.6245345369970936,92.87734491248082,1553.0,1710.0,1000.0,1528.0,1471.0,1011.0,183.0,293.5,1649156618.5873978,1649156619.881446,26ca5603-0de9-41d6-b225-d056b692080e
0.360223375509141,0.366825116291804,0.6375649657559047,-1.6386258658024768,0.1378186686402379,1.331802389901512,0.6980900522662469,0.6842017432151509,-2.583647467192737,25.806114895695703,30.74444006538989,6.895494914396177,1.3642222299825375,-1.989734269659957,-1.0,11.932666666666668,0.0,179.0081856504797,1.6303235254895676,92.81556661034796,1553.0,1710.0,1000.0,1528.0,1471.0,1011.0,183.0,293.5,1649156619.989805,1649156621.3098135,26ca5603-0de9-41d6-b225-d056b692080e
0.3483758531807381,0.3525122136109369,0.6040494901349898,-1.907174688060315,0.0660076129606485,1.6059390323482308,0.7245107112507987,0.7073215318856754,-2.785112833645158,26.974308492756503,32.52579112318929,8.123554696169633,1.3271372130003347,-1.8860515452555304,-1.0,11.886444444444445,0.0,178.99915462257715,1.7096961696229989,92.67629677644167,1553.0,1814.0,1000.0,1528.0,1471.0,1011.0,183.0,293.5,1649156622.4279926,1649156623.5636408,d3b15eb4-6b24-439e-8ea7-6bd95e3ba6b8
0.3692768000608873,0.3743719195016208,0.6188417719827028,-1.9218848140961848,0.073842044482152,1.5988031234638165,0.7375498337593888,0.7173611083615806,-2.5285033795491816,26.89547029301014,32.737182094349826,8.14107859297431,1.4081821753195591,-1.932424759766984,-1.0,11.879111111111111,0.0,178.99771724721182,1.701423482445775,92.54707415080448,1553.0,1814.0,1000.0,1528.0,1471.0,1011.0,183.0,293.5,1649156623.6812012,1649156624.6722252,d3b15eb4-6b24-439e-8ea7-6bd95e3ba6b8
0.3651678327933391,0.366277253983627,0.6151984877498918,-1.915598084087088,0.0734722373932926,1.6010493597305888,0.7329888801973309,0.7213057168473606,-2.820909964394287,26.969649349309226,32.72105087099721,8.132105432402684,1.379031072872675,-1.9216430614475464,-1.0,11.872333333333334,0.0,179.01361185632035,1.7149976177895618,92.39698377943309,1553.0,1814.0,1000.0,1528.0,1471.0,1011.0,183.0,293.5,1649156624.784167,1649156626.0257528,d3b15eb4-6b24-439e-8ea7-6bd95e3ba6b8
0.242124532576358,0.3728883083842303,0.6456579875066134,0.3134430568690678,0.3591479218251205,-0.5513336153954354,0.17210772808913,0.1568683895549582,-4.196705716631467,29.20195792126053,17.4033067267473,-1.7195765539747094,1.2768510239757154,-1.5568263264506432,-1.0,11.982666666666669,0.0,179.0014723334355,1.017809888383951,92.20561629817756,1553.0,1349.0,1000.0,1528.0,1471.0,1011.0,183.0,293.5,1649156627.9576652,1649156629.0952358,ac11dc5c-6a30-444f-88e7-47f66fe73894
0.2503819133997242,0.380383064682553,0.6431071406839584,0.3028583570692287,0.3551507184667821,-0.5464291503288323,0.1718447542004026,0.1402747351495112,-4.1217762936172,29.027922635409464,17.749523769294317,-1.6858668861495434,1.302500613407589,-1.5461042926609392,-1.0,11.984,0.0,179.02259886744824,1.006367032936489,92.59100592754602,1553.0,1349.0,1000.0,1528.0,1471.0,1011.0,183.0,293.5,1649156629.2035048,1649156630.3205097,ac11dc5c-6a30-444f-88e7-47f66fe73894
0.2437549708192716,0.3745844900741699,0.6365459418964372,0.3012410675320952,0.3498517942659983,-0.5405648301710317,0.1666378706576162,0.149071212837249,-4.2064575844814485,29.054325692328785,17.518754319661195,-1.6692718540113805,1.2831807160121669,-1.5236411820366578,-1.0,11.983,0.0,179.01500066145158,1.020200810332475,92.85292926292772,1553.0,1349.0,1000.0,1528.0,1471.0,1011.0,183.0,293.5,1649156630.4285257,1649156631.5524762,ac11dc5c-6a30-444f-88e7-47f66fe73894
0.2104926059537426,0.3740568986722488,0.6583700362255649,0.7933496081675582,0.4165162269562376,-1.0135965144327237,0.0438191881227592,0.014083958916193,-4.791702512267935,30.99949921871715,14.212297296407122,-3.8291536904126833,1.2554766180399124,-1.4709416198834837,-1.0,11.94888888888889,0.0,179.0093771390349,0.8517507481764738,93.4155144899338,1553.0,1264.0,1000.0,1528.0,1471.0,1011.0,183.0,293.5,1649156633.486653,1649156634.6249287,509ac74e-6241-4a9c-a91c-3facb0198a7e
0.2106860013419109,0.3739927987907618,0.6554669139495896,0.7948036346920682,0.4155032295645401,-1.0149831549285622,0.0410941208006177,0.0165980993137634,-4.8924706076943805,30.876615293379537,14.17695509841845,-3.836565110693571,1.2558975050388697,-1.461789580172641,-1.0,11.950555555555557,0.0,179.01199386039693,0.8601184710326962,93.61053156893584,1553.0,1264.0,1000.0,1528.0,1471.0,1011.0,183.0,293.5,1649156634.7333848,1649156635.860728,509ac74e-6241-4a9c-a91c-3facb0198a7e
0.2196556032234783,0.374974568031007,0.6663962187762456,0.7901172206404089,0.4249943960273746,-1.0112133117027249,0.0515988334187685,0.0199460857211608,-5.001721572946909,30.986351331533047,14.317845888015349,-3.8162832431628377,1.2603759951378724,-1.5044162322832615,-1.0,11.946333333333335,0.0,179.01715444776983,0.84353122619568,93.715889513613,1553.0,1264.0,1000.0,1528.0,1471.0,1011.0,183.0,293.5,1649156635.975196,1649156637.0835466,509ac74e-6241-4a9c-a91c-3facb0198a7e
0.1890027064261609,0.3807819084388741,0.6879409033393022,1.2540607227330722,0.4834239099261253,-1.4602827634399915,-0.0687391329265702,-0.0904755726131955,-5.494067165321403,33.25700332522155,11.616960745780498,-5.856498298951023,1.2538625819972364,-1.4423464942526802,-1.0,11.939,0.0,179.00607588093607,0.6898785613620835,94.02317517091244,1553.0,1178.0,1000.0,1528.0,1471.0,1011.0,183.0,293.5,1649156638.7813456,1649156639.7495203,0c5fe314-dbb7-4fa4-b270-97104cdd8250
0.1905290508333112,0.3824079637490048,0.6926777206995871,1.242187997954573,0.4881234726979819,-1.4526115865346731,-0.0603217755063806,-0.0817935976756159,-5.530928539006499,33.06987168566008,11.432981113193955,-5.813530720767762,1.26361168250248,-1.467304606670097,-1.0,11.933125,0.0,179.01342004184116,0.679150281847124,94.17930134250788,1553.0,1178.0,1000.0,1528.0,1471.0,1011.0,183.0,293.5,1649156639.858411,1649156640.9692602,0c5fe314-dbb7-4fa4-b270-97104cdd8250
0.1924093143349542,0.3827235324330412,0.6880230826821573,1.2383617273679857,0.4830480763984019,-1.4502974134488986,-0.0642006410628235,-0.0784406801000886,-5.50412219421436,33.054162563680755,11.272325448875772,-5.800047359224805,1.2662051654726518,-1.4487210336404996,-1.0,11.93588888888889,0.0,179.01867682104486,0.672041166605576,94.30187193307592,1553.0,1178.0,1000.0,1528.0,1471.0,1011.0,183.0,293.5,1649156641.0782895,1649156642.204909,0c5fe314-dbb7-4fa4-b270-97104cdd8250
0.1813052407680354,0.388999842954721,0.6970902035892457,1.482450845631024,0.5070778644712743,-1.6883855298684989,-0.1394681655662716,-0.1629303729631592,-6.173477001416617,34.92801669343974,9.9797974486621,-6.873337880580851,1.2764923092517428,-1.3868055669454582,-1.0,11.90577777777778,0.0,179.01189671992876,0.5841509979149068,94.62106868137796,1553.0,1088.0,1000.0,1528.0,1471.0,1011.0,183.0,293.5,1649156644.3467183,1649156645.4792318,2aa9a18d-f771-481b-88ae-a41b7a25fcf3
0.1731333263726392,0.3900605043639611,0.6910472825272674,1.4726057587301924,0.4992341200049028,-1.680044863006961,-0.1408575446174125,-0.1659189618118352,-5.866868974782144,34.81036149105804,9.995613781233818,-6.833311172280739,1.2789872150111987,-1.3655797258163975,-1.0,11.898,0.0,179.01652607036624,0.5534052986079993,94.65170966890452,1553.0,1088.0,1000.0,1528.0,1471.0,1011.0,183.0,293.5,1649156645.5879889,1649156646.9217446,2aa9a18d-f771-481b-88ae-a41b7a25fcf3
0.1814559029130099,0.3894107396679629,0.6982544109568568,1.4773694220095266,0.5069956851242479,-1.683783480017672,-0.1354276805378402,-0.1580680944171492,-5.969579555438209,34.86673323584945,10.045714055633193,-6.8517691547768464,1.276704465748603,-1.3937674922961925,-1.0,11.894777777777778,0.0,178.99568336865894,0.5567020684662123,94.64247145859711,1553.0,1088.0,1000.0,1528.0,1471.0,1011.0,183.0,293.5,1649156647.0408497,1649156648.1448934,2aa9a18d-f771-481b-88ae-a41b7a25fcf3
0.2707755400803189,0.3738481631403394,0.6350601393653159,-0.2368035899987343,0.2927075642100891,-0.0230189230595506,0.3156388889967447,0.2993871013347902,-3.745361780825932,27.736883989302413,21.135982400962018,0.6994210765172645,1.3112243970778494,-1.6547708467666045,-1.0,11.98488888888889,0.0,178.98914611871336,1.077064969227018,94.62582097522044,1553.0,1435.0,1000.0,1528.0,1471.0,1011.0,183.0,293.5,1649156648.7823763,1649156649.7816317,e9396ebf-5fa0-4587-9deb-2b0b33a4e68c
0.2771526574704351,0.3790550464583619,0.6373480122893305,-0.2373163892225303,0.2940224337526016,-0.0264638815435024,0.3163752159382454,0.2936542700863196,-3.762435321735688,27.73365082780656,21.31605794492675,0.6929491427142347,1.3294863332731952,-1.6598598370912023,-1.0,11.987333333333332,0.0,178.99021466386347,1.114816491986736,94.60279868425806,1553.0,1435.0,1000.0,1528.0,1471.0,1011.0,183.0,293.5,1649156649.8899095,1649156650.9395497,e9396ebf-5fa0-4587-9deb-2b0b33a4e68c
0.2792958948341329,0.3747685718094707,0.630905151754826,-0.2310050142776316,0.28944668772787,-0.029041026067507,0.3098797604021054,0.2941670692988298,-3.748309640098376,27.71038206373992,21.12932598172716,0.6724233207475997,1.3137785667921995,-1.636304298550633,-1.0,11.983222222222224,0.0,178.98255270943457,1.1047803472011468,94.59379118256264,1553.0,1435.0,1000.0,1528.0,1471.0,1011.0,183.0,293.5,1649156651.0476744,1649156652.2373478,e9396ebf-5fa0-4587-9deb-2b0b33a4e68c
0.3682221651408552,0.4214743807555017,0.9283428779404892,-0.2503281214046708,0.5574674988419487,-0.0721906658303472,0.6118702243395913,0.5938455549489646,-1.7858016034417894,27.70684754547163,21.26877287013629,0.6348456017038079,1.4950626774718043,-2.8297162308208605,-1.0,11.973777777777777,0.0,178.94182201468405,1.0898156517469624,94.54630391290316,1553.0,1435.0,1000.0,1435.0,1471.0,1011.0,183.0,293.5,1649156653.3529928,1649156654.4954402,becec722-cec5-4eef-9c68-ea53e67285eb
0.3748376024421883,0.4281993904770913,0.929630354345668,-0.25917609938992,0.5560567534410318,-0.0699581267086592,0.6144999633338898,0.6008992819484076,-1.6184488415009184,27.644265032155804,21.379504164831744,0.6595724187857651,1.519289595571636,-2.8322588621124645,-1.0,11.974777777777778,0.0,178.96666265378545,1.0951884137289216,94.52832002481853,1553.0,1435.0,1000.0,1435.0,1471.0,1011.0,183.0,293.5,1649156654.610306,1649156655.71887,becec722-cec5-4eef-9c68-ea53e67285eb
0.3763332665119919,0.4181066712173521,0.9245155119106688,-0.2550802800038509,0.5548530999848938,-0.0654234698828813,0.6119578823054361,0.590433468601471,-1.7239948012461044,27.550964283896946,21.12684828903448,0.659556642203337,1.4835919539461704,-2.821605142441718,-1.0,11.976111111111113,0.0,178.9696740082995,1.1019809301367935,94.50578571292684,1553.0,1435.0,1000.0,1435.0,1471.0,1011.0,183.0,293.5,1649156655.8279622,1649156656.9204648,becec722-cec5-4eef-9c68-ea53e67285eb
0.4874096081178128,0.4725351468240351,1.3158458988695425,-0.2263454445460047,0.9108249809089932,-0.1661490637141683,0.9941548371338924,0.97828052693216,0.9046164851272784,28.03025736002673,21.109150724066016,0.3923773222812277,1.6905625333189207,-4.375590754336435,-1.0,11.941222222222224,0.0,178.87158186707947,1.0821033839627312,94.35525213816928,1553.0,1435.0,1000.0,1330.0,1471.0,1011.0,183.0,293.5,1649156658.8861682,1649156660.022394,d05eac94-6f67-496d-9065-9294ee3eef72
0.4912994303947788,0.4885190292731323,1.3164622439984808,-0.2327006485227493,0.9075241105516796,-0.1751203104313524,0.9916483670848364,0.9773217679832792,1.0111577472888538,27.97927247523474,21.220984795740133,0.3863176782519581,1.7495872251643367,-4.366234824036905,-1.0,11.944222222222225,0.0,178.87553123423953,1.0802003936530404,94.3265031130428,1553.0,1435.0,1000.0,1330.0,1471.0,1011.0,183.0,293.5,1649156660.1307476,1649156661.451579,d05eac94-6f67-496d-9065-9294ee3eef72
0.4944742923958137,0.4783934383437913,1.325879450012525,-0.2297821854867882,0.9191639929750134,-0.1673390208807447,1.0047357018603622,0.9806735895141536,1.0133585058938337,27.958044927257543,21.385593777823747,0.3975754787022169,1.7103729165617385,-4.414516219779286,-1.0,11.940777777777775,0.0,178.84842904361292,1.0792610766306214,94.28327332796596,1553.0,1435.0,1000.0,1330.0,1471.0,1011.0,183.0,293.5,1649156661.5623071,1649156662.885594,d05eac94-6f67-496d-9065-9294ee3eef72
0.5614805901169203,0.5008596274528426,1.6056924930650565,-0.120402554707519,1.1806882594936503,-0.3071688473192264,1.252540404751538,1.223394128537997,2.6967028568126863,29.190213250663472,20.96313414580357,-0.1404934362748319,1.7907573145390956,-5.5012056817972725,-1.0,11.89875,0.0,178.74635793774632,1.0574595722961737,94.14566351461922,1553.0,1435.0,1000.0,1210.0,1471.0,1011.0,183.0,293.5,1649156663.8015833,1649156664.9314334,437ca53c-7232-40a8-980c-1f0300949ac5
0.5690410897396921,0.5088584169389537,1.6043502301911927,-0.1172112563376809,1.1774147821063603,-0.3183041511712574,1.2492395341658422,1.226462157730462,2.9489770992278537,29.1345700308852,20.893557778726933,-0.1730345418936423,1.8191098037328952,-5.489120735742419,-1.0,11.903777777777776,0.0,178.76174028266712,1.058486261786218,94.08994254677904,1553.0,1435.0,1000.0,1210.0,1471.0,1011.0,183.0,293.5,1649156665.0396397,1649156666.088788,437ca53c-7232-40a8-980c-1f0300949ac5
0.5772058814685495,0.5174845087434793,1.6202130387200608,-0.1307461964062787,1.191644410393073,-0.3159061572829426,1.2658950972288974,1.243239893905784,2.793813665139733,28.99223472265915,20.79199359305431,-0.1373624119593959,1.856130906462402,-5.553106988405646,-1.0,11.90025,0.0,178.73972240896768,1.0517611668159734,94.0446868517034,1553.0,1435.0,1000.0,1210.0,1471.0,1011.0,183.0,293.5,1649156666.1988738,1649156667.3897507,437ca53c-7232-40a8-980c-1f0300949ac5
0.6173625437983205,0.5310331432476789,1.7813645861717522,-0.0170894087753469,1.3425678852782574,-0.4447645006527173,1.3883828753391925,1.3679476092454668,3.640591216675048,30.41560402256276,20.30984855741538,-0.6654968340032186,1.90147318423399,-6.150770101487207,-1.0,11.886,0.0,178.72636900968533,1.0119393526502922,93.95845912852656,1553.0,1435.0,1000.0,1071.0,1471.0,1011.0,183.0,293.5,1649156668.3038151,1649156669.4398546,d4a4c810-b6c3-4ede-bc5e-17a1abcc2ac1
0.6124575327103688,0.5262415396333288,1.7844008400102245,-0.0211781055400362,1.3466938367129788,-0.4379786761197717,1.394620836267717,1.3783953445062689,3.626184290732205,30.33654014880168,20.108711627021112,-0.6414373353255634,1.8860809451466656,-6.170287018264787,-1.0,11.902111111111113,0.0,178.73488853231007,1.0121744842840636,93.9227675955637,1553.0,1435.0,1000.0,1071.0,1471.0,1011.0,183.0,293.5,1649156669.5514653,1649156670.6693227,d4a4c810-b6c3-4ede-bc5e-17a1abcc2ac1
0.6047129513716943,0.5234540162900434,1.7929343459131195,-0.023860439637968,1.354175445085634,-0.4329427243614337,1.4056920390381953,1.385390451118357,3.781424234392873,30.36069884883372,20.15953765354568,-0.6233988824042384,1.8749484590862595,-6.208062857086763,-1.0,11.895333333333332,0.0,178.72383576841318,1.0148845278488083,93.90556538468408,1553.0,1435.0,1000.0,1071.0,1471.0,1011.0,183.0,293.5,1649156670.778061,1649156672.103248,d4a4c810-b6c3-4ede-bc5e-17a1abcc2ac1
0.1582813265773484,0.322420876501247,0.2985340798752092,-0.1575339276588813,-0.0078990177055782,-0.0272385589156562,-0.0492352326937298,-0.0731494251646643,-6.381280787004166,28.444792094002,21.05473390198195,0.4977223056264852,1.1066355506314114,-0.2748849048779514,-1.0,11.988111111111111,0.0,178.888866799139,1.1113553884885703,94.09679398542649,1553.0,1435.0,1000.0,1613.0,1471.0,1011.0,183.0,293.5,1649156672.8090522,1649156673.958236,7ccd3b58-c834-4a8c-a886-24829c493670
0.1534053518659032,0.3159287081648047,0.3082723324112151,-0.1554246574987312,0.0028253878684719,-0.0233898258736335,-0.0361139291264377,-0.0514814686888443,-6.240403801024679,28.389169180853003,21.06160637750542,0.5018011043045106,1.0815846825636124,-0.3220842020160396,-1.0,11.988,0.0,178.89539342434597,1.109848916747727,94.13176834852646,1553.0,1435.0,1000.0,1613.0,1471.0,1011.0,183.0,293.5,1649156674.0666783,1649156675.085807,7ccd3b58-c834-4a8c-a886-24829c493670
0.1647050123353369,0.3167368050619801,0.307190304342178,-0.1539591256013001,0.0011544076798246,-0.0275398832121569,-0.0385656132065309,-0.0624935024936629,-6.205948799051963,28.43717495630654,20.761861701235706,0.4894034114842127,1.0867800837081332,-0.3151504084435504,-1.0,11.986222222222224,0.0,178.89507923564412,1.119256328390656,94.18076888454203,1553.0,1435.0,1000.0,1613.0,1471.0,1011.0,183.0,293.5,1649156675.195014,1649156676.404157,7ccd3b58-c834-4a8c-a886-24829c493670
0.0910723149999352,0.2847657521553822,0.0995269266208955,-0.1011879254114525,-0.1842087995631134,-0.035825753562765,-0.2661777809892101,-0.282100854996099,-7.9014715527712704,28.952881658306868,20.3659404219168,0.3439068929749894,0.9627254616005536,0.5390986671965585,-1.0,11.978,0.0,178.96798619266465,1.1058348406600385,94.236242922071,1553.0,1435.0,1000.0,1694.0,1471.0,1011.0,183.0,293.5,1649156677.325016,1649156678.4519107,9ad2c44f-2326-4cc0-9e04-7012cadb040b
0.0869359543491823,0.2864126262618435,0.1020021686498404,-0.0969403485052734,-0.1817768384195214,-0.0400722347785441,-0.2624358807084122,-0.2927874591651436,-7.64862424257364,28.826907646507564,20.571669173564448,0.3242312146776216,0.964921094028217,0.5278397537750172,-1.0,11.980555555555554,0.0,178.96752781108034,1.111546586353462,94.2236010008272,1553.0,1435.0,1000.0,1694.0,1471.0,1011.0,183.0,293.5,1649156678.5627692,1649156679.683232,9ad2c44f-2326-4cc0-9e04-7012cadb040b
0.1054126116563736,0.2924117185663071,0.1093983101674345,-0.0979812869202058,-0.1766954147279051,-0.0444414370490774,-0.2565737528979983,-0.286637703715066,-7.557102488548028,28.87003556613347,20.69986275709596,0.317481819000507,0.9862351617684988,0.5034343673891291,-1.0,11.980666666666666,0.0,178.9782542437169,1.111490735327436,94.2206632605742,1553.0,1435.0,1000.0,1694.0,1471.0,1011.0,183.0,293.5,1649156679.7938883,1649156680.915662,9ad2c44f-2326-4cc0-9e04-7012cadb040b
0.022986722296801,0.2583483793277584,-0.1145130341257092,-0.0365111293606601,-0.3785279295914552,-0.0562615675204668,-0.5036323237576346,-0.5306419453030228,-9.212069403177136,29.600834896883715,20.50846295688059,0.1450904809750155,0.850136066393183,1.430002186420731,-1.0,11.955111111111112,0.0,179.00194133975847,1.087949563431537,94.22596652300972,1553.0,1435.0,1000.0,1774.0,1471.0,1011.0,183.0,293.5,1649156682.8442345,1649156683.9815967,8e70410b-6c1c-4a88-be9c-4af4dfa0721f
0.0195488860617744,0.2559377851532819,-0.1175536702976915,-0.0312379541278507,-0.3810480968323794,-0.0595761348329507,-0.5085493895576448,-0.5296283997952652,-9.260571934312445,29.701565272530104,20.360281281031064,0.126215528759864,0.8419111995200513,1.4440506168797833,-1.0,11.963,0.0,179.00841180563222,1.0891956460682413,94.14626200994525,1553.0,1435.0,1000.0,1774.0,1471.0,1011.0,183.0,293.5,1649156684.0899594,1649156685.4173918,8e70410b-6c1c-4a88-be9c-4af4dfa0721f
0.0160836566743639,0.2546366121651224,-0.1222378936270496,-0.0310872920321718,-0.3841435196540357,-0.0584941066909548,-0.5136719038185418,-0.527998508493495,-9.442384777436525,29.673878958063387,20.316155831913736,0.1277918009155758,0.8383929450071429,1.4616110363088703,-1.0,11.960444444444445,0.0,179.00908419981047,1.0783818557865243,94.0921927146556,1553.0,1435.0,1000.0,1774.0,1471.0,1011.0,183.0,293.5,1649156685.5262902,1649156686.64505,8e70410b-6c1c-4a88-be9c-4af4dfa0721f
-0.04631786567714968,0.22616146830674647,-0.31494849372397415,0.04207972513266942,-0.5581035523454212,-0.08773626058469113,-0.7335428335044519,-0.7514716369909512,-10.807592700722294,30.555209910687157,20.17904216026628,-0.10742840760477786,0.7212613803544702,2.269972221737083,-1.0,11.92977777777778,0.0,179.04281926303113,1.0628458908992593,94.07916223153903,1553.0,1435.0,1000.0,1856.0,1471.0,1011.0,183.0,293.5,1649156687.9694793,1649156689.1036785,5a021b1f-e9cc-4ec5-8942-99c713d593c8
-0.05436541595438664,0.2257412579016293,-0.31244804963847544,0.038451232848212405,-0.5555674968534444,-0.08514651514593438,-0.7301690958270832,-0.7537841645012564,-10.85483391145032,30.529240748912752,20.036943719964032,-0.09351799283184033,0.7218839318831226,2.258000701874828,-1.0,11.922666666666666,0.0,179.052794374859,1.0696818667573187,93.96879016910117,1553.0,1435.0,1000.0,1856.0,1471.0,1011.0,183.0,293.5,1649156689.2116966,1649156690.2583845,5a021b1f-e9cc-4ec5-8942-99c713d593c8
-0.042216020196627256,0.23654948569569836,-0.30776711305631604,0.031127408997890814,-0.5537135301282785,-0.088630919816904,-0.726395418462404,-0.7422790506161874,-10.778325154880866,30.45816784165838,20.12130925698502,-0.08501327369809811,0.7623293782051284,2.245167232760823,-1.0,11.925333333333334,0.0,179.0460643617968,1.0656228845474311,93.90818665950555,1553.0,1435.0,1000.0,1856.0,1471.0,1011.0,183.0,293.5,1649156690.3671138,1649156691.5593994,5a021b1f-e9cc-4ec5-8942-99c713d593c8
