raw_voltage_G-,raw_voltage_G0,raw_voltage_G1,raw_voltage_G2,raw_voltage_G3,raw_voltage_G4,raw_voltage_G5,raw_voltage_G6,load_x,load_y,load_z,load_l,load_m,load_n,rpm,voltage,current,roll,pitch,yaw,aileron1_pwm,elevator_pwm,throttle_pwm,rudder_pwm,aileron2_pwm,pbaro,pdiff,Tt,sample_start_time,sample_end_time,uid
0.0057701479353299,0.1624039906114715,0.0634189634667338,-0.0317584233807268,-0.1528634007963503,0.0071261073397309,-0.3166742603851094,-0.3394516412675619,-14.827621939856806,29.10845374435191,18.219746886286533,0.279214320487286,0.5610030377387331,0.5953889452373821,-1.0,11.988666666666669,0.0,179.25723407927595,1.077341900195553,95.9765986487974,1553.0,1435.0,1000.0,1528.0,1471.0,1011.0,183.0,293.5,1649155327.3647206,1649155328.3133523,8c5469c0-3b96-46d9-b0ee-d118f4ca8964
0.0054480049034604,0.1657700567447412,0.0660897923752459,-0.0293171487103767,-0.1502983091121851,0.0020556412491893,-0.315985049444239,-0.339705301712057,-14.885727452668707,29.10934130666976,18.300561125080243,0.2624358952496335,0.573191592464312,0.5877749564847927,-1.0,11.990111111111112,0.0,179.25230420051503,1.0819073361892106,95.98090546252402,1553.0,1435.0,1000.0,1528.0,1471.0,1011.0,183.0,293.5,1649155328.4219046,1649155329.6256087,8c5469c0-3b96-46d9-b0ee-d118f4ca8964
0.0064960655535633,0.1564185946941191,0.0640353086053843,-0.0233898258539639,-0.1515896207517582,0.0061947413201098,-0.3158113770585782,-0.3374245506413218,-14.695658917468409,29.19833178443244,18.35295814051221,0.258958074709195,0.5354497579323282,0.5911777256479182,-1.0,11.989666666666668,0.0,179.26431926217504,1.089154570069483,95.96184923473967,1553.0,1435.0,1000.0,1528.0,1471.0,1011.0,183.0,293.5,1649155329.7347777,1649155330.8583777,8c5469c0-3b96-46d9-b0ee-d118f4ca8964
0.2348270065356491,0.5655298403249619,0.0936494594752346,-0.2298347801781713,-0.2178957626829201,-0.1993823964701789,-0.3727479807702915,-0.3928654900733573,-14.269684440165088,28.096323418950377,18.994405629289943,0.2571739501887477,2.088442073588576,0.7715345908564061,-1.0,11.971444444444446,0.0,179.0686009504182,1.084133112227021,95.9569823455011,1631.0,1435.0,1000.0,1528.0,1531.0,1011.0,183.0,293.5,1649155331.9737794,1649155333.1179545,752be072-0e84-408d-943e-79f138a7c346
0.2062285935618414,0.5534461896221187,0.0905858133043007,-0.2233393234983194,-0.2169359077359102,-0.1928343450900745,-0.3739576610266363,-0.3934834790032379,-14.449997270337716,28.10758802928904,19.07674286288064,0.2570806225582369,2.0426737361804044,0.7747058865160039,-1.0,11.951714285714289,0.0,179.08262473818834,1.0796131955818729,95.93104996028949,1631.0,1435.0,1000.0,1528.0,1531.0,1011.0,183.0,293.5,1649155333.231067,1649155334.3274362,752be072-0e84-408d-943e-79f138a7c346
0.2233262807814944,0.5578510024448234,0.0928939573282881,-0.2261947823624512,-0.216073024457254,-0.1927888725257608,-0.3722959942474542,-0.4018805667861284,-14.440187462923156,28.12741933595686,19.3377958060192,0.2639169667344392,2.057309553768812,0.7688933536146051,-1.0,11.958222222222222,0.0,179.0810926075002,1.0848829270738745,95.93108909835756,1631.0,1435.0,1000.0,1528.0,1531.0,1011.0,183.0,293.5,1649155334.4359996,1649155335.5643375,752be072-0e84-408d-943e-79f138a7c346
0.5089542928241494,1.050762710208745,0.1255328558853979,-0.4603237947345628,-0.3016902230038492,-0.4562696124216766,-0.4513936364362427,-0.4811425691784838,-13.793250192830314,27.22548872909354,19.719267565001843,0.1960109064749691,3.9289484368406256,1.0125849731505172,-1.0,11.938666666666668,0.0,178.7021142490327,1.069988798383146,95.9359301846593,1712.0,1435.0,1000.0,1528.0,1591.0,1011.0,183.0,293.5,1649155336.454612,1649155337.6200724,2251cb86-950d-4dd2-8b57-8643c5bed8c3
0.4911350716975048,1.039750677757754,0.1185613076847168,-0.456365488416874,-0.3053472047135141,-0.4489693450655613,-0.4567079024439444,-0.4719795693444296,-13.962194564361214,27.26237520301164,19.694525340111426,0.2032950146977918,3.888132970693,1.0331693517702722,-1.0,11.930666666666667,0.0,178.69207690659243,1.0703453200282602,95.96377914263518,1712.0,1435.0,1000.0,1528.0,1591.0,1011.0,183.0,293.5,1649155337.728356,1649155338.8453205,2251cb86-950d-4dd2-8b57-8643c5bed8c3
0.495805597773447,1.046242846137129,0.1227113648651209,-0.458789779781087,-0.3041145142538261,-0.4519688920278682,-0.4540781625688381,-0.4847036753858977,-13.842698044903903,27.337537502155985,19.879507246443964,0.2028177833231937,3.910560140718685,1.0231671248700929,-1.0,11.93222222222222,0.0,178.71000842989346,1.0754905513334934,96.0065217075512,1712.0,1435.0,1000.0,1528.0,1591.0,1011.0,183.0,293.5,1649155338.9539669,1649155340.0739582,2251cb86-950d-4dd2-8b57-8643c5bed8c3
0.7639020099757666,1.5280329965214634,0.1468857901822912,-0.68587879061729,-0.3986481780332528,-0.7146004852226895,-0.5425168641895938,-0.5645683304482313,-13.056792178604743,26.75489570625855,19.6813520639718,0.1226120376396692,5.743242092751969,1.30170562659713,-1.0,11.905666666666669,0.0,178.3271930229322,1.094500746488735,96.02090305030362,1796.0,1435.0,1000.0,1528.0,1650.0,1011.0,183.0,293.5,1649155340.9848769,1649155342.120675,f3bde2dd-3a48-44a2-87de-99bd00348bf0
0.7720037975523382,1.538349245540365,0.1581043670807114,-0.6936025568959817,-0.3897360995102705,-0.7176252344470538,-0.5315316731878148,-0.5544498575189215,-13.019261926233437,26.63397330084525,19.763924185157205,0.1330270018956492,5.782596942409939,1.2600072067062562,-1.0,11.875,0.0,178.31018736971868,1.0874961029036716,96.04863361833388,1796.0,1435.0,1000.0,1528.0,1650.0,1011.0,183.0,293.5,1649155342.2326958,1649155343.3515933,f3bde2dd-3a48-44a2-87de-99bd00348bf0
0.776842517311822,1.532471777676925,0.1492421460653482,-0.6847403322248664,-0.3972966013527068,-0.7195054987451721,-0.5414457929799487,-0.555961958506571,-12.991144575005608,26.743945345280345,19.764300047037995,0.1091127413623435,5.758699443451493,1.2958422497452446,-1.0,11.876666666666663,0.0,178.318101282237,1.0864342219311462,96.03154752067012,1796.0,1435.0,1000.0,1528.0,1650.0,1011.0,183.0,293.5,1649155343.4601924,1649155344.506609,f3bde2dd-3a48-44a2-87de-99bd00348bf0
0.8769807874735802,1.7180453819583568,0.151282385377929,-0.7925339372887317,-0.444504265908889,-0.8305692985402212,-0.5854008019183227,-0.6126569633612534,-12.749236048689832,26.643177979805767,15.554628007498565,0.1015778329657682,6.503710666647678,1.4357247306811896,-1.0,11.860666666666669,0.0,178.28442541398925,1.085559542688529,96.06172709097278,1886.0,1435.0,1000.0,1528.0,1710.0,1011.0,183.0,293.5,1649155346.309307,1649155347.4473622,72a1a2f2-da89-48f3-9054-30b074262df3
0.8691200592334887,1.7064027570328912,0.1440484111974156,-0.7851438187284039,-0.4481294718472761,-0.8247082643373329,-0.5895174408721339,-0.6035339559597805,-12.72495008478859,26.59629002254323,15.690173145504229,0.0974408645773108,6.457301248949291,1.4552677523955355,-1.0,11.740333333333332,0.0,178.26749109830703,1.087084074113584,95.82626922080505,1886.0,1435.0,1000.0,1528.0,1710.0,1011.0,183.0,293.5,1649155347.5551186,1649155348.8857503,72a1a2f2-da89-48f3-9054-30b074262df3
0.8762685664972786,1.7199629005728398,0.1505975574720859,-0.7909177425730597,-0.4456958667641457,-0.83333600472907,-0.586195202553259,-0.6026447751993421,-12.632734641439823,26.615628308475408,15.633943928447712,0.0915694927343904,6.509132114141955,1.4398631253228775,-1.0,11.744111111111112,0.0,178.27232383659978,1.0832946590745332,95.6702244422972,1886.0,1435.0,1000.0,1528.0,1710.0,1011.0,183.0,293.5,1649155349.0183313,1649155350.1104376,72a1a2f2-da89-48f3-9054-30b074262df3
-0.2927874586847716,-0.3869787078285447,0.0269998140598337,0.2198062654105063,-0.0637809784957724,0.3070396422111621,-0.2287697356838622,-0.2522730330766391,-15.235648191814988,30.502831613930493,17.446443641597373,0.392793184070463,-1.5230325564491671,0.3323235444161937,-1.0,11.87977777777778,0.0,179.45308899481617,1.0854020925985992,95.33369039715195,1475.0,1435.0,1000.0,1528.0,1408.0,1011.0,183.0,293.5,1649155352.4539278,1649155353.5883403,aad5ec24-6d78-4f83-8ecf-e1dd314c3256
-0.2994176897853554,-0.390827441524214,0.0221337006991896,0.2252547561672021,-0.0674483691594476,0.3071185343850342,-0.2328063858642941,-0.2554878899679638,-15.146723851968252,30.48878049098062,17.600127167913318,0.3804138188006468,-1.5404386754204396,0.3495658275282886,-1.0,11.979888888888889,0.0,179.46782854304507,1.088413375964863,95.32049143603584,1475.0,1435.0,1000.0,1528.0,1408.0,1011.0,183.0,293.5,1649155353.696657,1649155354.830258,aad5ec24-6d78-4f83-8ecf-e1dd314c3256
-0.2896482070079785,-0.3823728282091345,0.0265253652883885,0.2215468239978523,-0.0654366185479827,0.3005047405976618,-0.2306237020366092,-0.2620227931312688,-15.107832731465312,30.486242862481628,17.377449966776858,0.374101861694585,-1.506295523606786,0.3384364215279549,-1.0,11.978333333333332,0.0,179.47563772599608,1.0942101314259254,95.31693442529809,1475.0,1435.0,1000.0,1528.0,1408.0,1011.0,183.0,293.5,1649155354.9566317,1649155356.0566006,aad5ec24-6d78-4f83-8ecf-e1dd314c3256
-0.5483105102510232,-0.8213515100801093,0.0021679530282629,0.4426355620056883,0.009564094779856,0.5250477476973402,-0.1640808831984794,-0.1886936014847827,-15.513830209728871,32.01671068711541,17.24051458731014,0.3886645767430071,-3.177384202414576,0.122458646601142,-1.0,11.953666666666669,0.0,179.58927689558698,1.0861365158038854,95.28938675455562,1396.0,1435.0,1000.0,1528.0,1340.0,1011.0,183.0,293.5,1649155357.9838002,1649155359.120679,789328ed-a651-4b64-9af6-f0782b2bcb83
-0.5383394127193354,-0.8152976282519743,-0.000448089690745,0.4377869806728116,0.0058523273635844,0.5219249326286352,-0.1694910242617628,-0.1924738518907091,-15.6909136544678,32.053415208306205,16.97488660515211,0.3925659812077572,-3.150639114169282,0.1389595100535595,-1.0,11.919222222222222,0.0,179.6014452570483,1.096435919321703,95.1518115664734,1396.0,1435.0,1000.0,1528.0,1340.0,1011.0,183.0,293.5,1649155359.230197,1649155360.3524697,789328ed-a651-4b64-9af6-f0782b2bcb83
-0.5378874261667586,-0.8203105711097812,0.0031814983766981,0.4393620847780955,0.0092079842495286,0.525732575564584,-0.1628481928237937,-0.1774487259536457,-15.43975740065918,32.05442941537149,17.062253145617237,0.3978970192787196,-3.171956462695812,0.1196891696516255,-1.0,11.922666666666666,0.0,179.59889076629872,1.0894863441368223,95.03707045969644,1396.0,1435.0,1000.0,1528.0,1340.0,1011.0,183.0,293.5,1649155360.461223,1649155361.5768635,789328ed-a651-4b64-9af6-f0782b2bcb83
-0.8558942480998919,-1.3794181967260204,-0.0221708321098868,0.7335093493548941,0.108384764847309,0.8027180533757048,-0.0778884344531083,-0.100474061368579,-15.906381184918354,34.359277250863386,17.26925771112822,0.3706110583936026,-5.305265959194106,-0.1678530485645443,-1.0,11.91122222222222,0.0,179.77181749570508,1.0792541752936475,94.8566927528155,1314.0,1435.0,1000.0,1528.0,1268.0,1011.0,183.0,293.5,1649155362.2850466,1649155363.4220188,c5087f5f-3791-44d6-a0a5-c9af32011eb9
-0.8537406002015695,-1.3862500470445738,-0.0291856617279871,0.7330705116578575,0.104036929376752,0.8121599121370542,-0.0813991364991172,-0.1031470814338216,-15.96706921262357,34.26012120354048,17.563254083363212,0.3918277928710082,-5.333458053207866,-0.1477882543746303,-1.0,11.887666666666668,0.0,179.77774609990468,1.0768260667596423,94.6866051053741,1314.0,1435.0,1000.0,1528.0,1268.0,1011.0,183.0,293.5,1649155363.534552,1649155364.653617,c5087f5f-3791-44d6-a0a5-c9af32011eb9
-0.8434320171152067,-1.3833178847922156,-0.0229794769379753,0.7249577668550014,0.1078237538297057,0.8142768520347636,-0.0736414053785052,-0.0895381801199546,-15.813847781102714,34.24553564858349,17.26391817627336,0.4151269531751689,-5.319500074864651,-0.1724765060163087,-1.0,11.886777777777777,0.0,179.78860154722554,1.0806100034177968,94.53987215143472,1314.0,1435.0,1000.0,1528.0,1268.0,1011.0,183.0,293.5,1649155364.7809875,1649155365.8875115,c5087f5f-3791-44d6-a0a5-c9af32011eb9
-0.9597060017161886,-1.5846246496689966,-0.0062806323220298,0.8078734375582519,0.1627064106121444,0.9050554430363316,-0.0198369384513239,-0.0428997529105085,-15.98348543252268,35.37989834029335,13.243984493648613,0.4397062558225142,-6.046824450273461,-0.3764822127983354,-1.0,11.857444444444443,0.0,179.8260097343998,1.0607403665079298,94.32819244649752,1227.0,1435.0,1000.0,1528.0,1189.0,1011.0,183.0,293.5,1649155366.7671688,1649155367.932911,3ff9fa44-401a-4deb-9a0b-2991dac7d4a8
-0.9562626850333694,-1.5907837258001187,-0.0097891428410903,0.822550668406676,0.162664225213312,0.8967038301590075,-0.0266359103182136,-0.0502487783331112,-16.18059778017,35.4475041037934,13.080811198676969,0.3879790639814042,-6.069111772492088,-0.3629742725812896,-1.0,11.746777777777778,0.0,179.8433265406755,1.0625554892798603,93.97728692442864,1227.0,1435.0,1000.0,1528.0,1189.0,1011.0,183.0,293.5,1649155368.0636213,1649155369.164534,3ff9fa44-401a-4deb-9a0b-2991dac7d4a8
-0.9611386627206484,-1.5994673547275788,-0.0185138508606871,0.8203181295596559,0.1557063736702616,0.9086198351607386,-0.0306079124178761,-0.0541796912240084,-16.103902845283947,35.38633262109969,13.224329549989845,0.4190135175064419,-6.1037747520705095,-0.3367385397652265,-1.0,11.752444444444444,0.0,179.84772973596046,1.0623310535326025,93.71227937918172,1227.0,1435.0,1000.0,1528.0,1189.0,1011.0,183.0,293.5,1649155369.2990124,1649155370.384856,3ff9fa44-401a-4deb-9a0b-2991dac7d4a8
-0.0104224718261722,0.1370007101895626,0.054900251907169,-0.0339849360009278,-0.1534539964402319,0.0318637359950061,-0.3162874694955957,-0.347002829560388,-15.16545693936574,28.950310885020343,17.8791174944062,0.3381286631572127,0.4708668023465647,0.6035094906907315,-1.0,11.806333333333336,0.0,179.24963435545948,1.0745228700532712,93.48579410085364,1553.0,1435.0,1000.0,1528.0,1471.0,1011.0,183.0,293.5,1649155371.295761,1649155372.4411783,cadb5592-a905-45aa-b491-06b7bf9744c6
-0.0039927592241657,0.1375135093281773,0.0529147987607638,-0.030092921805989,-0.1558733567573401,0.0261440530892353,-0.3194694544893162,-0.3470948702896953,-15.054162042211148,28.978355329297777,17.62625583432312,0.3165991045924261,0.4736389177079891,0.6138474631847797,-1.0,11.99,0.0,179.2574131820142,1.0820318448459558,93.86703704648596,1553.0,1435.0,1000.0,1528.0,1471.0,1011.0,183.0,293.5,1649155372.5543797,1649155373.8661711,cadb5592-a905-45aa-b491-06b7bf9744c6
0.0001096341416282,0.1443113851081753,0.0597784182026769,-0.0316576166887813,-0.1516920710211465,0.0210292102015292,-0.3135919863557547,-0.3368125878483548,-14.872541630097594,28.986227862569844,17.68914237242658,0.3091303359486167,0.4979201563441198,0.5914495704213988,-1.0,11.988888888888887,0.0,179.26998680136631,1.096938293964718,94.12495789101406,1553.0,1435.0,1000.0,1528.0,1471.0,1011.0,183.0,293.5,1649155373.974778,1649155375.1059272,cadb5592-a905-45aa-b491-06b7bf9744c6
0.0125483009887161,0.143522463363223,0.0415543251827741,-0.4361510068769859,-0.212005146150134,0.4124921783772272,-0.2213801675670948,-0.2439433331918147,-14.694225569801873,28.180529376561825,20.570561831159228,2.095538445167443,0.5167940145879701,0.5680268888250805,-1.0,11.992,0.0,179.2820155234046,1.2419764123525543,94.41389614238302,1553.0,1522.0,1000.0,1528.0,1471.0,1011.0,183.0,293.5,1649155375.7663944,1649155376.7268035,46125105-730f-4303-b100-17d8b406f85a
0.0104406744597814,0.1423796225425173,0.0418194905644455,-0.4395050209159704,-0.2113614078096943,0.4161053302356799,-0.2201409028086343,-0.2498487422326812,-14.76472721959084,28.15641861120904,20.49246324586752,2.111028945951295,0.5141281978915843,0.564706944040157,-1.0,11.981333333333332,0.0,179.2811867937853,1.223390542699499,94.53711047828033,1553.0,1522.0,1000.0,1528.0,1471.0,1011.0,183.0,293.5,1649155376.8415782,1649155377.972051,46125105-730f-4303-b100-17d8b406f85a
0.0085916390531999,0.137777578976983,0.0384364405844754,-0.436286328936226,-0.2138952714168613,0.4174338963068337,-0.2228802148143854,-0.2470957334630615,-14.727712547359262,28.19066398881237,20.43750467691888,2.106822265756204,0.4964826757356231,0.576075514157307,-1.0,11.986666666666668,0.0,179.29085227037078,1.230558411204572,94.6843496251282,1553.0,1522.0,1000.0,1528.0,1471.0,1011.0,183.0,293.5,1649155378.1019013,1649155379.189561,46125105-730f-4303-b100-17d8b406f85a
0.0317799130329426,0.1221224128754011,-0.0043379123984899,-0.9321978172337324,-0.3087439517235829,0.9116467743555784,-0.1290313871259523,-0.1562053616979507,-14.463409330991832,27.599887746883184,23.796299966242845,4.330661660318391,0.4644623271020409,0.6288703719866261,-1.0,11.977666666666668,0.0,179.28197909572904,1.4224888138841767,94.83354979517776,1553.0,1613.0,1000.0,1528.0,1471.0,1011.0,183.0,293.5,1649155380.3076591,1649155381.4483788,b280d5cc-94c8-4768-b6a8-304d6626349c
0.0168917536781718,0.1205199155523818,-0.0023930010739523,-0.9320471550308936,-0.3056759221774947,0.914125851262621,-0.1263194683754038,-0.1415637395723998,-14.54999129209623,27.557505399296826,23.96403153827352,4.33569166024805,0.4576822214639419,0.6181801170705338,-1.0,11.966444444444445,0.0,179.26386391623035,1.4165466560279714,94.7908064713518,1553.0,1613.0,1000.0,1528.0,1471.0,1011.0,183.0,293.5,1649155381.5589523,1649155382.668492,b280d5cc-94c8-4768-b6a8-304d6626349c
0.0342830960821514,0.1221558324724958,0.0040016483260603,-0.929043224079671,-0.3001408680898165,0.9093024715726756,-0.1204639152582927,-0.1444076929743522,-14.416133242149844,27.5618487601998,23.945854256706088,4.318488436479098,0.4630672070980955,0.5938779772588026,-1.0,11.96622222222222,0.0,179.2733366296992,1.4100924592853938,94.79896095831091,1553.0,1613.0,1000.0,1528.0,1471.0,1011.0,183.0,293.5,1649155382.7772875,1649155383.8404386,b280d5cc-94c8-4768-b6a8-304d6626349c
0.0323962581669693,0.1039470799496237,-0.0340183556011702,-1.399196047410964,-0.3879237705396582,1.382397478891252,-0.0301285328488176,-0.0493721986741555,-14.320003006105104,27.20317846266944,27.321692433756564,6.438461374481254,0.4196424868944,0.635298726217869,-1.0,11.964666666666666,0.0,179.27702493185103,1.5849364915680095,94.80709267797278,1553.0,1710.0,1000.0,1528.0,1471.0,1011.0,183.0,293.5,1649155384.812076,1649155385.957435,fa750c9f-e374-497e-888b-a68e52531346
0.0459969408967957,0.1152604371454839,-0.0272522554745096,-1.400401345809195,-0.3840613402779151,1.37093345891261,-0.028019262780542,-0.0613703845458093,-14.341420719140675,27.26169867096694,27.14373765863388,6.416104744768851,0.4643815779965569,0.6188802301564514,-1.0,11.917,0.0,179.2826014018534,1.5852677320268205,94.68042985545452,1553.0,1710.0,1000.0,1528.0,1471.0,1011.0,183.0,293.5,1649155386.0904262,1649155387.1869602,fa750c9f-e374-497e-888b-a68e52531346
0.0323414718975848,0.1039881696294654,-0.0346347007704822,-1.3961143185703004,-0.3887455642407788,1.3781789386687795,-0.0328541481009694,-0.0550562708390771,-14.360542133628885,27.29057189508089,27.117550884899064,6.422525830136091,0.4214758079088268,0.6408187318360218,-1.0,11.922444444444444,0.0,179.28301576666306,1.5862496665837489,94.57400564235692,1553.0,1710.0,1000.0,1528.0,1471.0,1011.0,183.0,293.5,1649155387.295461,1649155388.4151895,fa750c9f-e374-497e-888b-a68e52531346
0.0415280277494922,0.0934522290468359,-0.0420187897905675,-1.6190216840550602,-0.4272361891134915,1.6037377205422103,0.0123247730277253,-0.014314486062432,-14.417107813560516,28.03022893335496,28.67130375188289,7.436965735032431,0.3955782104639472,0.6376035054718701,-1.0,11.908222222222223,0.0,179.3053611099877,1.650610124103923,94.4315817788739,1553.0,1814.0,1000.0,1528.0,1471.0,1011.0,183.0,293.5,1649155389.3183415,1649155390.4564185,cedeec69-b13b-40f9-a184-3cb8c12e4e45
0.0470241827997671,0.1032480076100296,-0.0315392784803643,-1.6105802118022146,-0.4194521591694538,1.5840804176357155,0.0187676343451761,-0.0039533132614516,-14.105761996914872,28.02121445144172,28.41010184756672,7.374328395555515,0.432054598936801,0.6046557210079097,-1.0,11.870888888888889,0.0,179.29276927679783,1.6933542305557052,94.23274055284658,1553.0,1814.0,1000.0,1528.0,1471.0,1011.0,183.0,293.5,1649155390.5651162,1649155391.681863,cedeec69-b13b-40f9-a184-3cb8c12e4e45
0.0483522011418483,0.1079420920905323,-0.0297116097003132,-1.659309342493753,-0.4247116388743748,1.6281154072543649,0.031193152422544,0.0097344798238181,-14.11009568789772,28.05442408765517,28.9991313438902,7.583604746644373,0.4505864156056584,0.592591555372274,-1.0,11.878333333333334,0.0,179.28616676060017,1.6779659447933066,94.13491478900414,1553.0,1814.0,1000.0,1528.0,1471.0,1011.0,183.0,293.5,1649155391.7908862,1649155392.845327,cedeec69-b13b-40f9-a184-3cb8c12e4e45
-0.0369302441128704,0.1339107666438711,0.0988957892072184,0.5290290629789522,-0.0601245450554886,-0.5038273627408614,-0.4322063971640612,-0.4632899228984506,-15.33238919853618,31.10348549466695,14.697197489166962,-2.1197893120654627,0.4221669424956669,0.5805389131983335,-1.0,11.912999999999998,0.0,179.28074510821898,0.9818151116231012,94.01123827697296,1553.0,1349.0,1000.0,1528.0,1471.0,1011.0,183.0,293.5,1649155393.8238251,1649155394.9629958,af9e17bc-bbad-4b3e-9f34-ee0d885f0ac8
-0.0335526726618904,0.1442560510220321,0.0986602084128226,0.515638212819226,-0.0633015989016856,-0.4996740172344866,-0.4325197744802323,-0.4526537210129055,-15.382334106137684,31.06380919906768,14.974159947169875,-2.0805054538503303,0.4604999281161988,0.5871398360642573,-1.0,11.986666666666668,0.0,179.29747603604588,0.9700625853593634,94.36451615141355,1553.0,1349.0,1000.0,1528.0,1471.0,1011.0,183.0,293.5,1649155395.071514,1649155396.19907,af9e17bc-bbad-4b3e-9f34-ee0d885f0ac8
-0.0290738978604749,0.1467899142931267,0.1012488579509053,0.5123784321726499,-0.0612060253549515,-0.5014408737617603,-0.4289175787809542,-0.4445864457095062,-15.289723683324269,30.95468739461909,14.674043466275288,-2.077718256629422,0.472571511663361,0.5755924938501565,-1.0,11.986222222222224,0.0,179.2885618802691,0.9637936930719246,94.65368055793505,1553.0,1349.0,1000.0,1528.0,1471.0,1011.0,183.0,293.5,1649155396.30756,1649155397.6228724,af9e17bc-bbad-4b3e-9f34-ee0d885f0ac8
-0.0348658987317842,0.1656648671816156,0.1409847650424251,0.9948215855516416,0.0181101995931318,-0.9853722722339862,-0.536409840897423,-0.561103100527509,-15.715793541366867,32.7976412952532,11.383781556108548,-4.239993491884873,0.5186924084238563,0.5672616004793287,-1.0,11.986,0.0,179.30575726095955,0.7994022988896776,95.04540177266404,1553.0,1264.0,1000.0,1528.0,1471.0,1011.0,183.0,293.5,1649155398.2689302,1649155399.2682822,92588524-5090-4d0e-8525-b848c5338602
-0.0389814408026407,0.1603790914547921,0.1387100406638237,0.9831060979999108,0.0161904899353621,-0.9684630385546292,-0.5331358145851374,-0.5568034748712285,-15.727415929450215,32.725663327484355,11.522386272518448,-4.176143089196582,0.4990183472049255,0.5677900994054056,-1.0,11.950666666666663,0.0,179.29641356217496,0.8046151206085725,95.24288303213665,1553.0,1264.0,1000.0,1528.0,1471.0,1011.0,183.0,293.5,1649155399.4002683,1649155400.7007673,92588524-5090-4d0e-8525-b848c5338602
-0.0367198649464936,0.1564344827034149,0.1314914065822718,0.9793587198338348,0.0086299894732025,-0.9602845445800814,-0.5383689972051573,-0.5708462875017402,-15.676750699142804,32.789231589914706,11.596008849489763,-4.149212552836442,0.4832173926264977,0.5949815287581294,-1.0,11.951,0.0,179.28125054221755,0.7931132954896827,95.40827378615876,1553.0,1264.0,1000.0,1528.0,1471.0,1011.0,183.0,293.5,1649155400.809995,1649155401.931203,92588524-5090-4d0e-8525-b848c5338602
-0.0636987991611505,0.1665814408371615,0.1741282443550399,1.429143835670461,0.0861141608806673,-1.4015107681968957,-0.6359822095349238,-0.6612386730595808,-16.335084300937485,35.03790350043425,8.930994823208737,-6.139038273510407,0.4969170396221073,0.5703364869616453,-1.0,11.945222222222222,0.0,179.2725367386564,0.6200482606815907,95.61959604452942,1553.0,1178.0,1000.0,1528.0,1471.0,1011.0,183.0,293.5,1649155402.8456357,1649155403.985195,009f996d-7f9a-4e4e-a54b-5e200e0c1023
-0.0710127617846647,0.1561857532011913,0.1690879109708532,1.4245280951851822,0.0825119660130249,-1.3869924014194015,-0.6359000301429116,-0.648377599891671,-16.29824242736618,35.0280248642228,8.923495368013956,-6.096300696986141,0.4579811988738391,0.5807172208196992,-1.0,11.932666666666668,0.0,179.27618709531285,0.6180951052411988,95.76319773618933,1553.0,1178.0,1000.0,1528.0,1471.0,1011.0,183.0,293.5,1649155404.0930357,1649155405.2061317,009f996d-7f9a-4e4e-a54b-5e200e0c1023
-0.0695883196256681,0.1657733439242857,0.1728544644520614,1.4288288147923478,0.0845664497775845,-1.4004698286912003,-0.636475285823313,-0.6553491512554382,-16.25318804527244,35.03684754772064,8.917955739434376,-6.136019813321443,0.4933801254363783,0.5748216362130005,-1.0,11.936333333333332,0.0,179.28709111286784,0.6214985375153567,95.93090316543018,1553.0,1178.0,1000.0,1528.0,1471.0,1011.0,183.0,293.5,1649155405.3216712,1649155406.4288845,009f996d-7f9a-4e4e-a54b-5e200e0c1023
-0.0671092424261111,0.1836884419165199,0.1813737235625283,1.6155403207287382,0.101152981996224,-1.5971937246096009,-0.6965484140969972,-0.717846571405858,-16.587889074987267,36.457502160274096,7.675869327286719,-6.989784669701829,0.5515261335637813,0.6273846782396759,-1.0,11.913333333333334,0.0,179.272630843485,0.5197624903730629,96.08323080320967,1553.0,1088.0,1000.0,1528.0,1471.0,1011.0,183.0,293.5,1649155407.341004,1649155408.478493,2ec40cce-18f8-4ed8-a971-2ec30ab2e765
-0.0721556026647647,0.1766045820690549,0.1859401559635057,1.6249597192502807,0.1075081849908869,-1.599364357947762,-0.6943520331415951,-0.7220169011918796,-16.782357375558256,36.63678601625501,7.638571201485162,-7.014598191676515,0.5257971217891512,0.6083401923982737,-1.0,11.878,0.0,179.27524908266685,0.5420998414277471,96.12461036593136,1553.0,1088.0,1000.0,1528.0,1471.0,1011.0,183.0,293.5,1649155408.587361,1649155409.7040083,2ec40cce-18f8-4ed8-a971-2ec30ab2e765
-0.0595328537684406,0.1878598656402816,0.1854405054999789,1.6064069060492585,0.1034978326947648,-1.5944204416537706,-0.6923665793482502,-0.7196238378092613,-16.652191156815558,36.46044535118372,7.487722852720244,-6.962790337096148,0.5706765415594525,0.6128065138566181,-1.0,11.881,0.0,179.2781906174694,0.5202641713249905,96.14593193979044,1553.0,1088.0,1000.0,1528.0,1471.0,1011.0,183.0,293.5,1649155409.812105,1649155410.9365785,2ec40cce-18f8-4ed8-a971-2ec30ab2e765
-0.0177605401684392,0.1306279755727235,0.0580362159557403,-0.0078853211772369,-0.15130199299767,0.0150701114241376,-0.321536539443638,-0.343889326990805,-15.078805407328725,29.49335611740496,18.00546692422155,0.2453366313578681,0.4422266347625571,0.6032509458851735,-1.0,11.927333333333332,0.0,179.27437026499365,1.0263716253723003,96.19104685707816,1553.0,1435.0,1000.0,1528.0,1471.0,1011.0,183.0,293.5,1649155412.8721287,1649155414.005371,6511fd1b-5433-499b-a95b-4cc662d5218f
-0.0122819166296129,0.127847574241798,0.0608577070282076,-0.0017903524660263,-0.1481106945915219,0.0136867589799228,-0.3191533378496702,-0.3517237602835435,-15.031213297512297,29.560654456767224,18.23822511553403,0.2291269774693554,0.4288282517906117,0.5917160670338594,-1.0,11.98825,0.0,179.27127334338746,1.0411525089929814,96.2347502968012,1553.0,1435.0,1000.0,1528.0,1471.0,1011.0,183.0,293.5,1649155414.1241615,1649155415.2323887,6511fd1b-5433-499b-a95b-4cc662d5218f
-0.0078990177481478,0.1347780327185367,0.0637750739899176,-0.0057486579734574,-0.1471656319934575,0.0080848664499841,-0.3169755847090392,-0.3479024195240575,-14.910131504068026,29.49610222576899,17.908999701031224,0.2251935543273333,0.4575538170125497,0.5838022136767321,-1.0,11.986555555555556,0.0,179.27530979545944,1.034784675308562,96.22902650341298,1553.0,1435.0,1000.0,1528.0,1471.0,1011.0,183.0,293.5,1649155415.3414247,1649155416.4656005,6511fd1b-5433-499b-a95b-4cc662d5218f
0.0619534316585511,0.1718135260551686,0.2831391489632353,-0.0292930427584104,0.0509003089335812,-0.0165963326192504,-0.0900098893948454,-0.1128831442311268,-13.410162898392525,29.23835289299697,18.190315561616483,0.2328560725013848,0.6001506890641152,-0.3023125495232411,-1.0,11.990444444444444,0.0,179.23921452242567,1.0409202959014143,96.21435222143616,1553.0,1435.0,1000.0,1435.0,1471.0,1011.0,183.0,293.5,1649155418.4003382,1649155419.5438488,b9a08eec-4b59-4f7d-859f-805542fa7105
0.0491016768256976,0.1654413393557043,0.2790723670324499,-0.0246625101020409,0.0481549707321733,-0.0158002885987738,-0.0940876290197277,-0.1115490989685555,-13.43733366160422,29.314656275176585,17.990046990098225,0.2244572672306458,0.5773917620480788,-0.2882872088061555,-1.0,11.99075,0.0,179.24896936065278,1.0487396485416758,96.24053632080184,1553.0,1435.0,1000.0,1435.0,1471.0,1011.0,183.0,293.5,1649155419.6779811,1649155420.7905872,b9a08eec-4b59-4f7d-859f-805542fa7105
0.0535327874599538,0.158906437513898,0.2795457200623265,-0.021204402925358,0.0506137769252124,-0.0121318022679706,-0.0917734583689575,-0.1151912879379394,-13.455088970017652,29.2883701030772,18.065086077806573,0.2247525429950542,0.5519463003723962,-0.2962325050884602,-1.0,11.989,0.0,179.23126266441196,1.046364442846574,96.2637656044416,1553.0,1435.0,1000.0,1435.0,1471.0,1011.0,183.0,293.5,1649155420.9012885,1649155421.9952753,b9a08eec-4b59-4f7d-859f-805542fa7105
0.1651706953267997,0.2164369121592237,0.5930374580966767,-0.0477697008736979,0.3282556100516532,-0.0615073496654483,0.2246822400321415,0.1978643790883983,-11.142971000613308,29.41990358966066,17.99333836650125,0.1913580701733138,0.7751385461274687,-1.5440899438841995,-1.0,11.985333333333331,0.0,179.19033465308542,1.0528285409918547,96.20572569251443,1553.0,1435.0,1000.0,1330.0,1471.0,1011.0,183.0,293.5,1649155422.9059937,1649155424.041898,e21782f6-3ada-4ec0-a661-8968ea270688
0.1643215087005796,0.2207787210274867,0.5908870986061924,-0.0520430273389073,0.3258998021430651,-0.0624250191447893,0.221792266302341,0.2066164799002419,-11.246823522190704,29.358623757558806,17.890204357183325,0.1983535000297821,0.7934608632843023,-1.5335404120580158,-1.0,11.980444444444444,0.0,179.20545972754746,1.0663621932352485,96.20773604486014,1553.0,1435.0,1000.0,1330.0,1471.0,1011.0,183.0,293.5,1649155424.1501377,1649155425.0974803,e21782f6-3ada-4ec0-a661-8968ea270688
0.1546517386567881,0.2160123188601765,0.5875314420750398,-0.0473861972367816,0.323379635535359,-0.0602198731031931,0.219121437511424,0.201411787813854,-11.19327848164818,29.41129314165499,18.12510845936528,0.1930505505411122,0.7723378364911412,-1.5219197969493947,-1.0,11.981333333333332,0.0,179.21792558169267,1.0700208148948809,96.19719706297082,1553.0,1435.0,1000.0,1330.0,1471.0,1011.0,183.0,293.5,1649155425.2091582,1649155426.5002422,e21782f6-3ada-4ec0-a661-8968ea270688
0.249185382109562,0.2641880437376694,0.8981129319936448,-0.0493031676441133,0.6011628037307247,-0.121568405801204,0.5270041639397962,0.5045593414538974,-9.009059758189538,29.82251899808556,18.22786710126012,0.078823232716242,0.956588189487633,-2.7546705802456035,-1.0,11.967333333333332,0.0,179.17813441740796,1.068473587320396,96.12381047488856,1553.0,1435.0,1000.0,1210.0,1471.0,1011.0,183.0,293.5,1649155428.4332864,1649155429.5686018,d90e58df-4061-47b7-abd3-14c463f35489
0.256824774233373,0.2752066505607648,0.9026229344380812,-0.0658179307616641,0.6020832123776529,-0.118412718501621,0.5329868201731724,0.5111336890285905,-8.922425901283011,29.698737991241988,18.090900603958715,0.1225935276736443,1.000832553481328,-2.769483210038884,-1.0,11.955111111111112,0.0,179.17486655134508,1.0839278389549345,96.07521064330427,1553.0,1435.0,1000.0,1210.0,1471.0,1011.0,183.0,293.5,1649155429.6778307,1649155430.8079512,d90e58df-4061-47b7-abd3-14c463f35489
0.2739969705568105,0.2682641393441534,0.8982970137215882,-0.0716691008369776,0.5979019273776616,-0.1053692110311386,0.532631805410817,0.5091876821399554,-8.871069788256927,29.734145488770785,18.193385826974826,0.1651643434072616,0.9739688699748358,-2.7581113963513206,-1.0,11.95488888888889,0.0,179.15627325860447,1.080777947808795,96.02726650988036,1553.0,1435.0,1000.0,1210.0,1471.0,1011.0,183.0,293.5,1649155430.922217,1649155432.037369,d90e58df-4061-47b7-abd3-14c463f35489
0.3261737332581954,0.2904942004814749,1.1335447063900246,-0.0015164213402101,0.8151682240034187,-0.205595156110938,0.7458910371439723,0.7254831668195628,-7.45330198544525,30.69287149217507,17.933071166138415,-0.1995625474444233,1.055910077561801,-3.674804359155823,-1.0,11.959333333333335,0.0,179.1245584135584,1.046677837064585,95.98396766400192,1553.0,1435.0,1000.0,1071.0,1471.0,1011.0,183.0,293.5,1649155432.7660954,1649155433.8782356,c4bafe2f-ff0a-4019-9d54-37d862cadbfd
0.3391356075513916,0.3047649178958178,1.137866244517384,-0.0104093230734511,0.8150526250937591,-0.211676428768414,0.7479548344186656,0.7265882050669886,-7.331009007929458,30.67996471947472,17.916311141837443,-0.1929792608367545,1.1100855785595944,-3.681760083461808,-1.0,11.952000000000002,0.0,179.14023901007292,1.0541750606116664,95.9859461421315,1553.0,1435.0,1000.0,1071.0,1471.0,1011.0,183.0,293.5,1649155433.987343,1649155435.098695,c4bafe2f-ff0a-4019-9d54-37d862cadbfd
0.3367474757735589,0.3064917799060829,1.135489617711455,-0.0112820677586112,0.8132507059984914,-0.2136624298922644,0.7445487745422318,0.7138547896679608,-7.451701403781492,30.64298685680363,17.73920582700104,-0.1959258283078584,1.1189424330306543,-3.6713344169900224,-1.0,11.925666666666665,0.0,179.14015401216324,1.0443516596175688,95.96434225378675,1553.0,1435.0,1000.0,1071.0,1471.0,1011.0,183.0,293.5,1649155435.207441,1649155436.3362925,c4bafe2f-ff0a-4019-9d54-37d862cadbfd
-0.1038965570488522,0.0784890128611277,-0.231083906467427,0.0267225957352782,-0.4131013374461086,0.0474975359080807,-0.622599571444386,-0.6414548087500124,-17.086310375236803,30.054340177532893,17.61512026661359,0.2283882312576004,0.2417619481396087,1.7743932200725467,-1.0,11.96577777777778,0.0,179.28693477742684,1.0676262406924255,96.13811061428083,1553.0,1435.0,1000.0,1613.0,1471.0,1011.0,183.0,293.5,1649155438.4709494,1649155439.607277,35adaf14-4004-4731-bdbc-89999f81c092
-0.1020951855237676,0.0907304489571876,-0.2160812424108708,0.0203191805910479,-0.4010702779336093,0.0411730129979642,-0.6078730267552516,-0.6278327546540612,-16.931474748043286,29.9046223310895,17.698296554149387,0.2284664534421082,0.2875786456344193,1.718300847086057,-1.0,11.991666666666667,0.0,179.30252734039206,1.0708637622169792,96.09866703073394,1553.0,1435.0,1000.0,1613.0,1471.0,1011.0,183.0,293.5,1649155439.7165625,1649155440.8327415,35adaf14-4004-4731-bdbc-89999f81c092
-0.1028052151724561,0.0896917019658509,-0.2162390267878882,0.0217655372090917,-0.4009650883451571,0.0403051990503277,-0.6082806364581975,-0.6305019410153776,-16.936229329150134,29.91925962545229,17.61729916399119,0.2233276044552591,0.2842464105390535,1.718716423113907,-1.0,11.989333333333336,0.0,179.29273892040152,1.067622137835737,96.06994380854432,1553.0,1435.0,1000.0,1613.0,1471.0,1011.0,183.0,293.5,1649155440.9409745,1649155442.2786205,35adaf14-4004-4731-bdbc-89999f81c092
-0.1904938770277601,0.0512580630317243,-0.4569128030400545,0.0754779614331391,-0.6173400912203991,0.0403446451256975,-0.8694138541093391,-0.8865729124592394,-18.807745708029767,30.565331620852124,17.371051636367493,0.0935717907224604,0.1336658893799311,2.70718912485834,-1.0,11.97788888888889,0.0,179.30427283317994,1.0607291488708557,96.06762457986612,1553.0,1435.0,1000.0,1694.0,1471.0,1011.0,183.0,293.5,1649155443.3857386,1649155444.5267422,c653651f-5e9f-4941-868f-7c42d25d8825
-0.1811467967104624,0.0472844174700276,-0.4551875840506383,0.0747186242504616,-0.614492301753151,0.0449012162597199,-0.8661803688112447,-0.8950664267097382,-18.874444286294644,30.548030712522785,17.385561701600704,0.1054638463081993,0.1193083432980724,2.695848327567908,-1.0,11.966555555555557,0.0,179.29795870274722,1.059290516560987,95.99708542175787,1553.0,1435.0,1000.0,1694.0,1471.0,1011.0,183.0,293.5,1649155444.6351955,1649155445.748584,c653651f-5e9f-4941-868f-7c42d25d8825
-0.1711893977496003,0.0547079522197966,-0.4548177769779998,0.0723902092858319,-0.6160674065979898,0.0401622069596688,-0.8668515006179801,-0.8899028213505944,-18.755079908329705,30.50553365025181,17.439778451636656,0.0998724165576801,0.1461351594629857,2.6995003548725127,-1.0,11.968,0.0,179.30000168821894,1.0556805125673216,95.93544827686786,1553.0,1435.0,1000.0,1694.0,1471.0,1011.0,183.0,293.5,1649155445.857116,1649155446.977237,c653651f-5e9f-4941-868f-7c42d25d8825
-0.2640739894162215,0.0117462305375803,-0.6895001621503235,0.1416290511466331,-0.8264833392056278,0.0315613159949347,-1.1252350496209502,-1.1480217577203586,-20.5142870084398,31.38187564743697,17.397164601034866,-0.0824093694207223,-0.025556029523911,3.66763419910066,-1.0,11.950777777777777,0.0,179.33623660067576,1.0345080170732746,95.81523163510629,1553.0,1435.0,1000.0,1774.0,1471.0,1011.0,183.0,293.5,1649155448.9146626,1649155450.0608575,b2aacf61-d8eb-472f-89c0-a1e9b09ddc93
-0.2644158555248521,0.0144680107041044,-0.6842538303205898,0.1428781772550668,-0.8211581146391034,0.0265911087737272,-1.120777638264884,-1.1514930159778596,-20.51858521142832,31.317570815594102,17.27147677714407,-0.096583062314843,-0.0140256047000742,3.647069721529415,-1.0,11.92988888888889,0.0,179.35345171302384,1.0411416485771725,95.69057461147428,1553.0,1435.0,1000.0,1774.0,1471.0,1011.0,183.0,293.5,1649155450.1746953,1649155451.282613,b2aacf61-d8eb-472f-89c0-a1e9b09ddc93
-0.2601293800263412,0.0093663164804151,-0.68679152969801,0.1437854372802883,-0.8228279998775367,0.0297073497986071,-1.1233547846846774,-1.1436169412755637,-20.62167214893917,31.40740505314352,17.102503498857978,-0.0912366741102301,-0.0312038861457127,3.65551600325753,-1.0,11.932777777777778,0.0,179.334910026157,1.0394806438063573,95.60826931415583,1553.0,1435.0,1000.0,1774.0,1471.0,1011.0,183.0,293.5,1649155451.3912528,1649155452.515073,b2aacf61-d8eb-472f-89c0-a1e9b09ddc93
-0.3301067515463423,-0.01824594617515692,-0.8758698674672923,0.23497164220643307,-0.9936033614010137,-0.015642504257763947,-1.3444765980857547,-1.3713394115992872,-21.80589604596069,32.451434277135235,17.16066746995732,-0.40191826844800055,-0.1500963453041358,4.456966986551093,-1.0,11.911777777777777,0.0,179.3469174987179,1.0125463857127772,95.48665172470449,1553.0,1435.0,1000.0,1856.0,1471.0,1011.0,183.0,293.5,1649155454.4436007,1649155455.5825756,3f33e92a-1daa-49db-aba9-c807fbae4ac1
-0.3209338908571568,-0.011049226252426894,-0.8696729934781495,0.2335850026947981,-0.9884907070409277,-0.02308850154118573,-1.341464996206074,-1.3606128045283643,-21.932439898488482,32.454549413962646,16.959286567216445,-0.41528908620157906,-0.11986016328353082,4.437753307712409,-1.0,11.890444444444444,0.0,179.35154836697515,1.00766640527828,95.36557827365702,1553.0,1435.0,1000.0,1856.0,1471.0,1011.0,183.0,293.5,1649155455.6911004,1649155456.808326,3f33e92a-1daa-49db-aba9-c807fbae4ac1
-0.32993253129021655,-0.01628131175796341,-0.8739874115911271,0.2325029745999716,-0.9913943791837915,-0.01633609801941312,-1.3442317035724054,-1.3610237013816906,-22.03210866563951,32.46534966553349,17.021875864819883,-0.39785817027721104,-0.13947306846285112,4.450900015813709,-1.0,11.883999999999999,0.0,179.353211897493,1.0053243381550698,95.25689630358379,1553.0,1435.0,1000.0,1856.0,1471.0,1011.0,183.0,293.5,1649155456.9187653,1649155458.04197,3f33e92a-1daa-49db-aba9-c807fbae4ac1
