raw_voltage_G-,raw_voltage_G0,raw_voltage_G1,raw_voltage_G2,raw_voltage_G3,raw_voltage_G4,raw_voltage_G5,raw_voltage_G6,load_x,load_y,load_z,load_l,load_m,load_n,rpm,voltage,current,roll,pitch,yaw,aileron1_pwm,elevator_pwm,throttle_pwm,rudder_pwm,aileron2_pwm,pbaro,pdiff,Tt,sample_start_time,sample_end_time,uid
-0.0565628918315585,0.0462571755550066,0.0057016651855605,0.1944950262089971,-0.0953241544323992,0.0152755597366846,-0.2876923381576785,-0.3151402460468352,-13.64690689002078,21.414197818298096,32.78470321748626,-0.2638091298358002,-0.0437098876027283,0.566885549814327,-1.0,12.052,0.04,179.505264050976,-1.6071674885138991,89.93433934252738,1525.0,1435.0,1000.0,1528.0,1475.0,1021.47,241.0,293.54999999999995,1637231085.1470726,1637231086.3804252,99e7780e-aba4-484b-a71a-2c736fc328eb
-0.0521115101179832,0.0540779104987951,0.0104132814212773,0.1920707354065852,-0.0926807184808057,0.0081670457275058,-0.2852954400659106,-0.3062922674765599,-13.616825369079834,21.412119664189674,32.57353069035245,-0.2741119930156009,-0.0121215312382207,0.5540990734882211,-1.0,12.048,0.04,179.51609521317985,-1.6245435253363134,89.93722168235712,1525.0,1435.0,1000.0,1528.0,1475.0,1021.47,241.0,293.54999999999995,1637231086.489382,1637231087.6143942,99e7780e-aba4-484b-a71a-2c736fc328eb
-0.0549877875252897,0.0501333016323501,0.0091121083214334,0.1910982797729799,-0.0933518498947434,0.0130841103438762,-0.2843092877445421,-0.3034159899238938,-13.558910532210584,21.382146965280644,32.5946127148407,-0.2611000395543587,-0.02747623486949,0.5549794623816197,-1.0,12.052,0.04,179.5293442623498,-1.6151900555866734,89.93112232342831,1525.0,1435.0,1000.0,1528.0,1475.0,1021.47,241.0,293.54999999999995,1637231087.7472975,1637231088.7252817,99e7780e-aba4-484b-a71a-2c736fc328eb
0.0944646785844577,0.3120229977578221,0.0231067042207038,0.055833809292459,-0.1415807228642613,-0.1219760154453951,-0.3276610935548949,-0.3488173496534004,-13.354307727841611,20.769385734130093,32.06016263008794,-0.2628221036864973,0.9755887847063248,0.6934599368346801,-1.0,12.049888888888889,0.0388888888888888,179.45580741010585,-1.6173127147407649,89.87983898641012,1576.0,1435.0,1000.0,1528.0,1515.0,1021.47,241.0,293.54999999999995,1637231090.6598914,1637231091.705621,bc86c979-0343-41cd-afaf-d8e80d89afe2
0.0844322234716524,0.3018722049046796,0.0122853270683275,0.0580427902778679,-0.1476554209897643,-0.1118383700282145,-0.3346036063194625,-0.3613612080334888,-13.520460856580744,20.616950549575467,32.310749406884035,-0.2466174165967155,0.9355116109468194,0.7254602019186228,-1.0,12.041,0.03,179.46520575040378,-1.6133046269265674,89.77335861397935,1576.0,1435.0,1000.0,1528.0,1515.0,1021.47,241.0,293.54999999999995,1637231091.814027,1637231092.828967,bc86c979-0343-41cd-afaf-d8e80d89afe2
0.0904411776038216,0.305001594412672,0.0140866984988201,0.0585292920396089,-0.1478263540291123,-0.1185310568373651,-0.3343143349388047,-0.3584553455483333,-13.358745208404592,20.67181084088754,31.86570288296973,-0.2622903739407161,0.9501038057222324,0.7226714897615574,-1.0,12.039888888888887,0.03,179.4651253059536,-1.6039863990557697,89.70535117932346,1576.0,1435.0,1000.0,1528.0,1515.0,1021.47,241.0,293.54999999999995,1637231092.9428437,1637231093.9581325,bc86c979-0343-41cd-afaf-d8e80d89afe2
0.3270640095338613,0.7335230459115033,0.0485855905235128,-0.1547535260544601,-0.2161004175932917,-0.3390955304320177,-0.3927449601132931,-0.4135363405905909,-12.772455535363004,19.718505715110307,32.195716553498464,-0.2810684443016054,2.578675829057352,0.903077977358024,-1.0,12.038777777777778,0.03,179.35058303357243,-1.6077226073955049,89.51480483858816,1627.0,1435.0,1000.0,1528.0,1556.0,1021.47,241.0,293.54999999999995,1637231095.687957,1637231096.8255932,31c28bf1-aa20-496f-80b0-edfa8d3990a4
0.3297348382632015,0.7307700379028489,0.0507770398656579,-0.1476039219159147,-0.2141144164590284,-0.3428757812405696,-0.3904439379176363,-0.4100300208798583,-12.556384477466173,19.764163391124512,32.226349703037,-0.3051654903237016,2.565809007775146,0.8940147644435547,-1.0,12.032111111111112,0.03,179.35486632109192,-1.6130128497829608,89.38332673270503,1627.0,1435.0,1000.0,1528.0,1556.0,1021.47,241.0,293.54999999999995,1637231096.9338272,1637231098.0605834,31c28bf1-aa20-496f-80b0-edfa8d3990a4
0.3476615250447069,0.7469899224641094,0.0538513905033226,-0.1513441363578999,-0.215722181820071,-0.3599912146058882,-0.394531834584616,-0.4279978024860496,-12.570337934292413,19.883518695401577,31.558049525083977,-0.3343583988205857,2.633322745318388,0.898762705546546,-1.0,12.032444444444444,0.03,179.35323921824968,-1.6196002114984187,89.30710561611724,1627.0,1435.0,1000.0,1528.0,1556.0,1021.47,241.0,293.54999999999995,1637231098.176717,1637231099.2789488,31c28bf1-aa20-496f-80b0-edfa8d3990a4
0.543518924879232,1.131752100853757,0.0678780150551885,-0.3347219446809224,-0.2922122031102596,-0.5513073181515389,-0.4637501266667042,-0.4938606487593364,-12.070361783854729,19.030705265002734,33.743209577391134,-0.354970789270138,4.076961604289141,1.1311071667678894,-1.0,12.03,0.03,179.2436571810258,-1.6339020050771418,89.16821182207025,1678.0,1435.0,1000.0,1528.0,1596.0,1021.47,241.0,293.54999999999995,1637231101.2171707,1637231102.350937,5d83a4f7-f904-456e-afc6-d9e7d15d032c
0.5503956923721554,1.1378925417545551,0.0818813763993065,-0.3321579484039589,-0.2839153747059519,-0.5609979100664995,-0.4532706134126595,-0.4677604803677351,-11.711537190730326,19.31991324519087,33.6454804629375,-0.3797510775074152,4.0988954498341785,1.0865577449978596,-1.0,12.024333333333333,0.03,179.232693968498,-1.619796045828528,89.05063049496344,1678.0,1435.0,1000.0,1528.0,1596.0,1021.47,241.0,293.54999999999995,1637231102.4581287,1637231103.5800085,5d83a4f7-f904-456e-afc6-d9e7d15d032c
0.5616860384807959,1.142365289771238,0.0786632330498537,-0.3434784299979941,-0.28822650404513,-0.5560627646433135,-0.4554889084986408,-0.4820054524618646,-11.793876152703598,19.248656934765005,33.46862724824202,-0.3438271613537052,4.119009766815019,1.1001388935431142,-1.0,12.023666666666664,0.03,179.21360434867776,-1.6200374859009072,88.96575021632788,1678.0,1435.0,1000.0,1528.0,1596.0,1021.47,241.0,293.54999999999995,1637231103.6898184,1637231104.8199875,5d83a4f7-f904-456e-afc6-d9e7d15d032c
0.7691340948610917,1.5271016304878815,0.1091243789838955,-0.5271356246029546,-0.360338896475392,-0.7636615788578262,-0.524875691831502,-0.5544602670215122,-11.452690553166397,19.75884339761566,33.347360842633385,-0.3909925181972102,5.585216773830273,1.3004296662314834,-1.0,12.019666666666666,0.03,179.09012818886225,-1.6231411665484434,88.82745254601348,1729.0,1435.0,1000.0,1528.0,1636.0,1021.47,241.0,293.54999999999995,1637231106.7471874,1637231107.885141,01a8253c-7d13-4094-b252-cbed88cbe3e4
0.7765618432370679,1.5069339728022773,0.0964329372527445,-0.5140838543258263,-0.365655269330548,-0.7571072458881358,-0.5339333339421704,-0.5629363319592213,-11.61310987474599,19.668940187778272,33.09685130653201,-0.4070542648853482,5.510518417185796,1.3351122845159888,-1.0,12.012333333333332,0.03,179.09426273003984,-1.6285482573457624,88.70088003377424,1729.0,1435.0,1000.0,1528.0,1636.0,1021.47,241.0,293.54999999999995,1637231107.9935544,1637231109.1136177,01a8253c-7d13-4094-b252-cbed88cbe3e4
0.7637650443972962,1.5087345436309094,0.1037690246721496,-0.5234649458807117,-0.3614346213576444,-0.7511703119135623,-0.5239580221659437,-0.5534056316483844,-11.386342260185556,19.695212613671675,33.02877001677815,-0.3719089896131166,5.517890577404621,1.30534838987676,-1.0,12.014,0.03,179.06970592324393,-1.6334791914657865,88.61022065619093,1729.0,1435.0,1000.0,1528.0,1636.0,1021.47,241.0,293.54999999999995,1637231109.2214465,1637231110.3421395,01a8253c-7d13-4094-b252-cbed88cbe3e4
-0.2558954992719041,-0.3228092238896839,-0.0171020095756587,0.3573596992321947,-0.0340112334079137,0.1994438665085389,-0.2277835833360418,-0.2462969500546787,-13.803407902361586,22.174399898001266,29.01502528010771,-0.2141168406492745,-1.4148999059200782,0.3801944477094012,-1.0,12.02888888888889,0.03,179.58083022831337,-1.6136340412584127,88.415787178908,1474.0,1435.0,1000.0,1528.0,1435.0,1021.47,241.0,293.54999999999995,1637231112.2766397,1637231113.414929,c3e72a3c-dae0-45f5-bd09-15cb74df8838
-0.2549438622331395,-0.320002524652197,-0.0167196016629927,0.3560459254573735,-0.0356208530333406,0.2023705470709601,-0.2282766595184026,-0.2598198381489403,-13.7695859166049,22.30666764513856,29.6474617046805,-0.2035629475023466,-1.4100294896276009,0.3837570339832781,-1.0,12.044000000000002,0.03,179.5727812298315,-1.6213127035632895,88.45540531173371,1474.0,1435.0,1000.0,1528.0,1435.0,1021.47,241.0,293.54999999999995,1637231113.5235512,1637231114.5268755,c3e72a3c-dae0-45f5-bd09-15cb74df8838
-0.2517668081129557,-0.3227040342820045,-0.0132494415024937,0.3550060827998013,-0.0312894532136504,0.201928970027812,-0.2231289443995434,-0.2436409130143774,-13.727342701437664,22.21151028318586,29.10670023201986,-0.2027325549942052,-1.4153216223155038,0.364767950354228,-1.0,12.044666666666664,0.03,179.5687332043834,-1.625122810755295,88.51838648607038,1474.0,1435.0,1000.0,1528.0,1435.0,1021.47,241.0,293.54999999999995,1637231114.6348884,1637231115.8718407,c3e72a3c-dae0-45f5-bd09-15cb74df8838
-0.4015929387338873,-0.5846337944939899,-0.0323747685699212,0.4925184240100164,0.0118788131931551,0.3309538318808391,-0.1895975741443137,-0.2077592127208352,-14.193103035790196,23.00934569768512,29.01384821191891,-0.2189032330711942,-2.411727618309337,0.2530276799567835,-1.0,12.044,0.04,179.6338112467953,-1.6029196800325822,88.60503198915143,1423.0,1435.0,1000.0,1528.0,1394.0,1021.47,241.0,293.54999999999995,1637231117.6465418,1637231118.6254618,32c28ad3-9d5c-4926-ac7d-cf70cc70f049
-0.4019764424481024,-0.5921942971641508,-0.0293067393447302,0.5037906906948852,0.0163575879171909,0.3271461888580242,-0.18757048324908,-0.2083618614643473,-14.160220974696104,23.13613131421116,28.91302924081444,-0.2518932618607089,-2.440614485623298,0.2388719982616051,-1.0,12.028444444444444,0.03,179.64615263971555,-1.6238608621583317,88.51117304739694,1423.0,1435.0,1000.0,1528.0,1394.0,1021.47,241.0,293.54999999999995,1637231118.7467537,1637231119.967898,32c28ad3-9d5c-4926-ac7d-cf70cc70f049
-0.4154264657783204,-0.5964128385875912,-0.0353332252728421,0.5088858100368138,0.0124951583727521,0.327283154421344,-0.1948022668626053,-0.2192917164477358,-14.349818523817984,23.18324697759588,28.96124542153904,-0.2631543188551147,-2.456530561030608,0.2620943575357502,-1.0,12.029222222222224,0.03,179.65744521914334,-1.6199845637928072,88.43677027894817,1423.0,1435.0,1000.0,1528.0,1394.0,1021.47,241.0,293.54999999999995,1637231120.0763102,1637231121.1967478,32c28ad3-9d5c-4926-ac7d-cf70cc70f049
-0.6083425449452114,-0.9640286381826456,-0.0451673546704211,0.6883928897299363,0.0836350838076726,0.5102554657760703,-0.1292916217733726,-0.15645189963554,-14.61895818395972,24.54753629762889,27.465633144284755,-0.2487346192345742,-3.8428542973993287,0.0395658185515678,-1.0,12.023111111111112,0.03,179.75834684484204,-1.5996089829917646,88.23017602930298,1372.0,1435.0,1000.0,1528.0,1354.0,1021.47,241.0,293.54999999999995,1637231123.336068,1637231124.473687,bfb482cb-fe97-414d-9c65-7cb58671f86a
-0.6137800805513818,-0.968575898306533,-0.0589323965662087,0.6881326551434667,0.0749925553969479,0.5170078685359084,-0.1409473939454347,-0.1676419889318496,-14.96128719291333,24.31214379488284,27.664754805287533,-0.2353604742566553,-3.860095759172996,0.0862814114278038,-1.0,12.017666666666663,0.03,179.7470102486396,-1.617413875059878,88.05466445275071,1372.0,1435.0,1000.0,1528.0,1354.0,1021.47,241.0,293.54999999999995,1637231124.582461,1637231125.8178272,bfb482cb-fe97-414d-9c65-7cb58671f86a
-0.6068737255413437,-0.9552354422438276,-0.0419530462243221,0.6839338385501769,0.0857865391793189,0.5046645310585931,-0.127090858610395,-0.1526650747736416,-14.624058036420577,24.410610758674185,27.33453323709724,-0.252010779129807,-3.807925983248824,0.0300131902155095,-1.0,12.017,0.03,179.76308547830618,-1.6256437194012148,87.94392204227785,1372.0,1435.0,1000.0,1528.0,1354.0,1021.47,241.0,293.54999999999995,1637231125.929931,1637231127.0235393,bfb482cb-fe97-414d-9c65-7cb58671f86a
-0.8394611088255121,-1.377230032433137,-0.0668040830682709,0.8935503347862668,0.1554483304791739,0.7244844138428469,-0.0661203508350796,-0.0849887309805177,-15.171800168612478,26.053212440499355,27.366061700652825,-0.2215087151972187,-5.414420761920183,-0.1680391883170944,-1.0,12.016777777777778,0.03,179.87894066482778,-1.6303674711164151,87.71156204235363,1321.0,1435.0,1000.0,1528.0,1314.0,1021.47,241.0,293.54999999999995,1637231128.645821,1637231129.7963686,3c791616-d65e-4b36-8b49-956d4560cc6b
-0.839814480180968,-1.3607908586387651,-0.0633426886194212,0.8902664482080046,0.1558981254539052,0.7128001547729094,-0.0677803737885101,-0.0891059167188697,-15.24811185366849,26.033458310705544,27.57244343632773,-0.2403212749664539,-5.353429490366928,-0.1688003955984658,-1.0,12.007666666666667,0.03,179.8802399185899,-1.632066302802946,87.53218457873112,1321.0,1435.0,1000.0,1528.0,1314.0,1021.47,241.0,293.54999999999995,1637231129.9049797,1637231131.0288465,3c791616-d65e-4b36-8b49-956d4560cc6b
-0.8350957394661797,-1.361793447665928,-0.067448369208732,0.8899738897152123,0.1528974834794474,0.7129793057397227,-0.070972219937306,-0.0926018266110681,-15.25686353879681,25.942200227385435,27.39312018791319,-0.2401011454219399,-5.355764334806869,-0.1549178737898032,-1.0,12.009777777777778,0.03,179.89100733236148,-1.6131665171813188,87.39218087894403,1321.0,1435.0,1000.0,1528.0,1314.0,1021.47,241.0,293.54999999999995,1637231131.1376808,1637231132.2630794,3c791616-d65e-4b36-8b49-956d4560cc6b
-0.0625439052572824,0.0363737388303891,-0.0095020629852769,0.2012846839349614,-0.1031470812560793,0.0138763193077933,-0.3003643959730657,-0.3192459268034123,-13.887688897468236,21.067782993453783,31.9965307299995,-0.2855695269322168,-0.0738946981252974,0.6140331024000732,-1.0,12.00988888888889,0.0311111111111111,179.52490919284875,-1.6230649909664503,87.1817101174899,1525.0,1435.0,1000.0,1528.0,1475.0,1021.47,241.0,293.54999999999995,1637231134.190839,1637231135.2120469,d0b1ea75-f289-445c-ab75-37d909a938e9
-0.0558232776251578,0.0462297824432555,0.0009900489651724,0.2041510995947786,-0.0949132576306351,9.977258423309968e-05,-0.294472135594658,-0.3214132705399491,-13.871093063967686,21.10744075662708,31.84876598832119,-0.3222230657510765,-0.0354234688056981,0.5811317458751323,-1.0,12.048555555555556,0.04,179.50598046192894,-1.609363797502947,87.50252713844503,1525.0,1435.0,1000.0,1528.0,1475.0,1021.47,241.0,293.54999999999995,1637231135.321253,1637231136.4447334,d0b1ea75-f289-445c-ab75-37d909a938e9
-0.0547861742243382,0.0490227846471477,0.0104839556547743,0.1967615326240237,-0.0878025519235724,0.0022265742475173,-0.2823243821911242,-0.3027311618603436,-13.625960449739576,21.03899701964045,31.65576927996709,-0.3006631657158091,-0.0234619596773715,0.5414101292884288,-1.0,12.049,0.04,179.50502575326493,-1.6088998189580783,87.73852914701668,1525.0,1435.0,1000.0,1528.0,1475.0,1021.47,241.0,293.54999999999995,1637231136.5525377,1637231137.5819294,d0b1ea75-f289-445c-ab75-37d909a938e9
-0.0568505195634983,0.0229045429990478,-0.0418527873924929,-0.2832546526097554,-0.1838450189715523,0.4929156241814139,-0.196664999020636,-0.2254688647948933,-13.63064779649297,20.13806536161729,35.073781109062274,1.876743642772526,-0.095914705327418,0.6194216220747913,-1.0,12.049888888888889,0.04,179.4836366364241,-1.4300487067884864,88.26711672797406,1525.0,1521.0,1000.0,1528.0,1475.0,1021.47,241.0,293.54999999999995,1637231139.1515915,1637231140.2434947,e60629d1-c971-490e-816e-822501006387
-0.0311420782715865,0.0506948605218097,-0.0231295912385891,-0.2946638875673095,-0.1736136887861084,0.4758497136840656,-0.1839408948734679,-0.2102793799206889,-13.411772003517086,20.1587995829011,35.144730317651174,1.8653219280326805,0.0087299351146657,0.5653552070472702,-1.0,12.044222222222222,0.04,179.49204232256267,-1.4326600209174165,88.3157545050537,1525.0,1521.0,1000.0,1528.0,1475.0,1021.47,241.0,293.54999999999995,1637231140.3513443,1637231141.3598423,e60629d1-c971-490e-816e-822501006387
-0.0473314110210447,0.0276846419780604,-0.0374151022527122,-0.2874594966777977,-0.1800510718830549,0.4909296233569682,-0.1942407078727351,-0.2209216069607011,-13.824560427868066,20.150446529311235,34.934231060758265,1.881949119354676,-0.0745778915314399,0.6049574133487012,-1.0,12.044666666666666,0.03,179.50172449516614,-1.4179130851748951,88.36309302837124,1525.0,1521.0,1000.0,1528.0,1475.0,1021.47,241.0,293.54999999999995,1637231141.4680336,1637231142.4967136,e60629d1-c971-490e-816e-822501006387
-0.0242253159599894,0.0127006067319518,-0.0736151079702221,-0.8584281126788774,-0.2728178734568293,1.0566796232107598,-0.0703279337598047,-0.0906673243726255,-13.612309270600576,19.0423424884608,38.87795225584146,4.432817438414522,-0.0992477193206113,0.6035744692674707,-1.0,12.043444444444445,0.03,179.48369127793748,-1.2280477712180962,88.49799533575828,1525.0,1607.0,1000.0,1528.0,1475.0,1021.47,241.0,293.54999999999995,1637231144.1467123,1637231145.2504222,27e2b8e3-89b7-4772-9d10-7ea06135f0e0
-0.0234446121134298,0.0097832396887593,-0.0764502957527568,-0.8539082461325741,-0.2751873784405937,1.051968007333974,-0.0743547222084065,-0.0980634665904062,-13.583938351597103,19.09930060276432,38.36652313151533,4.412203262115716,-0.1065929005712982,0.6153615495125426,-1.0,12.036888888888887,0.03,179.49231856576912,-1.2132576131847337,88.42237527581742,1525.0,1607.0,1000.0,1528.0,1475.0,1021.47,241.0,293.54999999999995,1637231145.3589675,1637231146.3874714,27e2b8e3-89b7-4772-9d10-7ea06135f0e0
-0.0201711345371106,0.0166315191063426,-0.074820405193038,-0.8601401836600481,-0.276420068881632,1.053036338892805,-0.0730672456167679,-0.0952967615643478,-13.488072736765533,19.13165003214517,38.666650949205085,4.429053374365719,-0.0833750676742938,0.6142367743239199,-1.0,12.03711111111111,0.03,179.50581805520866,-1.230910450538043,88.3910573406531,1525.0,1607.0,1000.0,1528.0,1475.0,1021.47,241.0,293.54999999999995,1637231146.495519,1637231147.617698,27e2b8e3-89b7-4772-9d10-7ea06135f0e0
-0.0006661389364486,0.0155593524843776,-0.0950474839114208,-1.3871178620078275,-0.3630047950767601,1.5590058497101682,0.0326132116887808,0.0079462571795669,-13.722332370535684,19.62998891229577,41.7833607137364,6.757442231809028,-0.0497532381075296,0.6085507544280114,-1.0,12.0315,0.03,179.52400229550898,-1.045752761460904,88.21330014968369,1525.0,1693.0,1000.0,1528.0,1475.0,1021.47,241.0,293.54999999999995,1637231149.7559674,1637231150.8892524,5ef71a34-43dc-4cad-a4e3-b15110aa9db6
-0.0027080219485813,0.0116733648103429,-0.0935025120299414,-1.3829656091101874,-0.3597910339968903,1.5629044385959023,0.0359025772062384,0.0065645482955928,-13.71879567906632,19.582793296319096,42.35866143081014,6.756693966740027,-0.0698660507535126,0.5977836299135645,-1.0,12.028444444444444,0.03,179.54860387798948,-1.026152241119116,88.04445028430192,1525.0,1693.0,1000.0,1528.0,1475.0,1021.47,241.0,293.54999999999995,1637231150.998183,1637231152.1214254,5ef71a34-43dc-4cad-a4e3-b15110aa9db6
-0.0082140386009218,0.0107693919534789,-0.091776745571214,-1.375090079952977,-0.358804881621361,1.5547001990294724,0.0342863832659608,0.0062769205457033,-13.67597723746792,19.758704998102296,42.09562869947988,6.721724377070461,-0.0720855629881212,0.5959355955105116,-1.0,12.028,0.03,179.54159003262177,-1.0181232588860274,87.91758255610856,1525.0,1693.0,1000.0,1528.0,1475.0,1021.47,241.0,293.54999999999995,1637231152.2305584,1637231153.357773,5ef71a34-43dc-4cad-a4e3-b15110aa9db6
0.0170287193064901,0.0064549759086605,-0.1026107240434633,-1.782850828686124,-0.4274931364662527,1.951996362297633,0.1165890032684909,0.0941951302406493,-13.73632803329223,20.86599721202581,44.85612966422045,8.54152082581255,-0.0627703102573237,0.5863774486337895,-1.0,12.0234,0.03,179.5230324086468,-0.9054963102864028,87.57712745114279,1525.0,1780.0,1000.0,1528.0,1475.0,1021.47,241.0,293.54999999999995,1637231155.172515,1637231156.2188656,966a6bee-8c86-4d5a-a4f5-9eb0b0f3cef4
0.0155067577147012,0.0089718555572792,-0.1023713081438238,-1.7815923871178192,-0.426591902670184,1.9470502593923689,0.1170541384014935,0.091703452305766,-13.677825166769988,20.71811143146212,44.6726048364004,8.526599298852473,-0.0522602457611027,0.5843196708477156,-1.0,12.013,0.03,179.5403939906071,-0.9040434175850484,87.33387307181945,1525.0,1780.0,1000.0,1528.0,1475.0,1021.47,241.0,293.54999999999995,1637231156.3273966,1637231157.446615,966a6bee-8c86-4d5a-a4f5-9eb0b0f3cef4
0.0130430207040003,0.0002915244589244,-0.1134036128248792,-1.7730166848855171,-0.4330539404498887,1.945915088034754,0.1048099630805935,0.0820736760049776,-13.98251579741931,20.71607200065558,44.33698561528346,8.503934006164572,-0.0814409312809636,0.6239318121645858,-1.0,12.011666666666663,0.03,179.55256538770806,-0.9002964599979472,87.12448148025419,1525.0,1780.0,1000.0,1528.0,1475.0,1021.47,241.0,293.54999999999995,1637231157.554898,1637231158.5628483,966a6bee-8c86-4d5a-a4f5-9eb0b0f3cef4
-0.0871062188553082,0.0527767374322892,0.0518590680194023,0.8769260012230312,0.0195077964423292,-0.6545136598524324,-0.4306570421515602,-0.4610497128161279,-13.908485095670397,22.84945561504532,27.425088234892872,-3.297485218649706,-0.0509754336007362,0.5495551745333576,-1.0,12.01,0.03,179.54213644775533,-1.7795407947280013,86.87286186469038,1525.0,1349.0,1000.0,1528.0,1475.0,1021.47,241.0,293.54999999999995,1637231159.145774,1637231160.1095805,a0fc3f3c-1ab7-422a-933f-5ce124f2ff5e
-0.0889826474659574,0.0381214197107175,0.0505168052717027,0.8784737122090155,0.0199323897556714,-0.6388173981461943,-0.4274520467360106,-0.4508731677878816,-13.87735942626849,22.974778090617963,27.82295739222248,-3.264861846967728,-0.1099619128180738,0.5450150515382424,-1.0,12.050888888888888,0.04,179.52282522624202,-1.7649528268952257,87.24780889372774,1525.0,1349.0,1000.0,1528.0,1475.0,1021.47,241.0,293.54999999999995,1637231160.2178156,1637231161.2258327,a0fc3f3c-1ab7-422a-933f-5ce124f2ff5e
-0.090229034350922,0.0327660652907701,0.0458051890691967,0.8676534318535305,0.0153029528675848,-0.623504640375616,-0.425657797311935,-0.4508320777838737,-13.719168561205942,22.85261247046832,27.826804611641776,-3.207008349331649,-0.1301700368682415,0.5546116547987255,-1.0,12.048555555555556,0.04,179.5153438923711,-1.7497575295507817,87.64111774798386,1525.0,1349.0,1000.0,1528.0,1475.0,1021.47,241.0,293.54999999999995,1637231161.3337507,1637231162.566783,a0fc3f3c-1ab7-422a-933f-5ce124f2ff5e
-0.1166770904943338,0.0499278532600599,0.0917297498493896,1.4213915831159518,0.106248101745918,-1.1755036499233087,-0.552008582030879,-0.5837846078542349,-14.521094853177814,25.29094119121592,23.900867072271563,-5.679100204736137,-0.0905558690676282,0.5478705137031863,-1.0,12.050000000000002,0.04,179.4847628587273,-1.9432178471726005,88.07104779983985,1525.0,1262.0,1000.0,1528.0,1475.0,1021.47,241.0,293.54999999999995,1637231163.145442,1637231164.2037003,46292677-4563-48b2-8552-7cd1613e55cc
-0.1087330860334013,0.0456682235258335,0.0915243014583538,1.393286243474834,0.1031800726515293,-1.1469326063288872,-0.5420785742087908,-0.5745805179260208,-14.314693302420418,25.19531368267308,23.727614020647696,-5.552066371048912,-0.1030116696525091,0.537368498528449,-1.0,12.03422222222222,0.03,179.47381937785707,-1.93737767969322,88.28761792022277,1525.0,1262.0,1000.0,1528.0,1475.0,1021.47,241.0,293.54999999999995,1637231164.3159628,1637231165.4346063,46292677-4563-48b2-8552-7cd1613e55cc
-0.1052130703179584,0.0601865755914074,0.0936472680118761,1.374946550815375,0.1022213135786929,-1.1437276092675146,-0.5381476608143219,-0.555432722949914,-14.272651398615857,24.951724126660405,23.830690070266144,-5.504965942618519,-0.0473816826614889,0.5320544150692306,-1.0,12.037,0.03,179.48606059466954,-1.925997019284294,88.47422703635652,1525.0,1262.0,1000.0,1528.0,1475.0,1021.47,241.0,293.54999999999995,1637231165.5424783,1637231166.6661026,46292677-4563-48b2-8552-7cd1613e55cc
-0.121128472324027,0.0799370130038134,0.1412702012995592,1.949147476973259,0.1921118251111591,-1.7110259720375691,-0.6739353870698347,-0.7079439556345796,-15.198741309517857,28.00097554814029,20.73209320412852,-8.053392664181581,-0.0069137824694629,0.5391928263047169,-1.0,12.033666666666669,0.03,179.48318280829926,-2.129842520959444,88.8445690000735,1525.0,1176.0,1000.0,1528.0,1475.0,1021.47,241.0,293.54999999999995,1637231168.6894758,1637231169.8267295,920f3b4f-ad8f-421c-9f9f-191922bf208c
-0.1263194683812047,0.0679114346096198,0.1385445862069542,1.9605841072778016,0.1906873830775912,-1.7081907804156051,-0.6764281616864753,-0.6979180707307636,-15.11183805120971,28.22637479402353,20.93381546700381,-8.071385464041906,-0.0559970129824761,0.5472954193458932,-1.0,12.027444444444445,0.03,179.49129707303325,-2.1509087453504674,88.95745457212595,1525.0,1176.0,1000.0,1528.0,1475.0,1021.47,241.0,293.54999999999995,1637231169.9350078,1637231170.9628134,920f3b4f-ad8f-421c-9f9f-191922bf208c
-0.1298120910536892,0.0679251312041931,0.1402840491010372,1.9661586086276963,0.1950565850785258,-1.7152582144876718,-0.6766746998434551,-0.707765900130183,-15.334266339311728,28.13023447845424,20.6690129724785,-8.100546529258384,-0.0526021100908714,0.5388853094621114,-1.0,12.02588888888889,0.03,179.5048223654097,-2.1460172389717456,89.08844090438882,1525.0,1176.0,1000.0,1528.0,1475.0,1021.47,241.0,293.54999999999995,1637231171.0711946,1637231172.0075195,920f3b4f-ad8f-421c-9f9f-191922bf208c
-0.1418376703214293,0.0771566115789433,0.1472282040808935,2.185865200781832,0.2110678613550495,-1.9312806696147289,-0.7473489706705303,-0.7724684703621563,-15.635416689285035,30.062638971182142,19.739750504802807,-9.068725879013078,-0.0341885374140379,0.6089659064817923,-1.0,12.031,0.03,179.4900357647665,-2.2850811948496093,89.29574169915816,1525.0,1090.0,1000.0,1528.0,1475.0,1021.47,241.0,293.54999999999995,1637231173.6449368,1637231174.6516902,643f1e40-c62c-4257-b2f0-faf45fea9b95
-0.1448235203647166,0.0722806368118785,0.1513234749304502,2.2200107398368,0.2178339609803645,-1.9586875300238096,-0.7500882836389487,-0.7854665102567534,-15.442188331505612,30.205899728953955,19.63681502044358,-9.206102256438044,-0.05687371433689,0.5977086759856749,-1.0,12.009222222222222,0.05,179.49711791202589,-2.267543830381955,89.22623465852446,1525.0,1090.0,1000.0,1528.0,1475.0,1021.47,241.0,293.54999999999995,1637231174.759072,1637231175.8791015,643f1e40-c62c-4257-b2f0-faf45fea9b95
-0.1344015342089163,0.0838142347796342,0.1473092877122593,2.172984403599548,0.2090950091349779,-1.9262808704722345,-0.7465786758349084,-0.764276829262863,-15.70338103905057,30.0146052677338,19.695939040895087,-9.02879031924911,-0.0067588402683031,0.6110487665681126,-1.0,12.009222222222222,0.05,179.50724177019566,-2.276195474478442,89.20301732771577,1525.0,1090.0,1000.0,1528.0,1475.0,1021.47,241.0,293.54999999999995,1637231175.9878538,1637231177.107591,643f1e40-c62c-4257-b2f0-faf45fea9b95
-0.0685747742511613,0.0318073061665793,-0.0036256913667964,0.1959331647586195,-0.1003918813783721,0.0258219099511939,-0.2949241221242394,-0.3255359355016095,-13.951028535738734,21.4660833242448,32.39696672068158,-0.2436895402813274,-0.0930841765832105,0.594282041846252,-1.0,12.021222222222224,0.0477777777777777,179.52027680677168,-1.6700786534115943,89.22311781553323,1525.0,1435.0,1000.0,1528.0,1475.0,1021.47,241.0,293.54999999999995,1637231179.2474594,1637231180.2717493,f3c885fa-a2d4-4b42-8fec-2c60a5d7ffd3
-0.0725106174422751,0.0284976697069596,0.0006487307163999,0.2029151221750633,-0.0944689412678861,0.0214762658094863,-0.2895956122070527,-0.3129477004042528,-13.832518951572148,21.36296399320341,32.26982880739947,-0.2696357328839307,-0.1057996888031645,0.5724082466937525,-1.0,12.05,0.04,179.5212224085168,-1.6748331765519615,89.31266463119171,1525.0,1435.0,1000.0,1528.0,1475.0,1021.47,241.0,293.54999999999995,1637231180.380277,1637231181.613988,f3c885fa-a2d4-4b42-8fec-2c60a5d7ffd3
-0.0653149931215212,0.0374091986687128,0.0131936828515059,0.2054522726210411,-0.0856269904438181,0.0083177079079327,-0.2820082655692295,-0.300347960294698,-13.73502528438103,21.52529799256508,32.047818592996286,-0.3032134865738493,-0.0706127436882928,0.5332512452465915,-1.0,12.049333333333331,0.04,179.52249737716184,-1.6709795980518012,89.40546641144468,1525.0,1435.0,1000.0,1528.0,1475.0,1021.47,241.0,293.54999999999995,1637231181.722701,1637231182.8474035,f3c885fa-a2d4-4b42-8fec-2c60a5d7ffd3
0.0191790790206508,0.0708698912610113,0.2459529944540634,0.1737310441464455,0.1242316828223295,-0.0079264109223463,-0.0378396956109451,-0.0624250192288958,-12.094481057917028,21.28549869602092,32.07720197448202,-0.2573301775336638,0.0616705991011555,-0.412446690028351,-1.0,12.049666666666669,0.04,179.5011370988975,-1.6652216774336768,89.5042628210592,1525.0,1435.0,1000.0,1439.0,1475.0,1021.47,241.0,293.54999999999995,1637231184.7766874,1637231185.9139082,19af7106-52ef-47d9-9a56-97e377c5f3c7
0.0168506640370996,0.0734037546059337,0.2551981710238905,0.1814148132338058,0.1315456449491171,-0.016007380644773,-0.0301148363242977,-0.0560287262367363,-11.822125593573494,21.36815303860948,32.349934916001615,-0.2916330503103638,0.0664706972391498,-0.4450941405150424,-1.0,12.050555555555556,0.04,179.52900578853098,-1.6557784547294745,89.54371171697547,1525.0,1435.0,1000.0,1439.0,1475.0,1021.47,241.0,293.54999999999995,1637231186.0227194,1637231187.1436963,19af7106-52ef-47d9-9a56-97e377c5f3c7
0.0242243434166764,0.0829332721507504,0.2527223812160332,0.1754080506882498,0.1297031839183065,-0.0186009610841852,-0.0341032743269563,-0.0576525903446346,-12.08562767907278,21.177188507189623,32.50101533107261,-0.2854091491218321,0.1033175335403011,-0.432323589661986,-1.0,12.050333333333334,0.04,179.52866427907244,-1.659946636960311,89.5837806422864,1525.0,1435.0,1000.0,1439.0,1475.0,1021.47,241.0,293.54999999999995,1637231187.2525015,1637231188.3727314,19af7106-52ef-47d9-9a56-97e377c5f3c7
0.1227524545182681,0.1322030797426938,0.5698902762979116,0.1528711860685914,0.412420956260463,-0.0646986480169644,0.2867824333122845,0.2563349851612115,-9.831234335847684,21.40398553342673,32.30240256848692,-0.319759708967428,0.2967988958583702,-1.699635655123861,-1.0,12.04611111111111,0.04,179.5141478503565,-1.6748776795032727,89.51801123294852,1525.0,1435.0,1000.0,1351.0,1475.0,1021.47,241.0,293.54999999999995,1637231189.1619606,1637231190.1067152,e0dbaf73-4500-4be2-8983-f530cc07857e
0.1202870740288101,0.1272860153131503,0.5637542186333135,0.1547887041795589,0.4071203885231007,-0.0611512392241658,0.2820845139718634,0.2639365747760548,-9.766824625674715,21.421800206540365,32.33052200199627,-0.316264193293468,0.2770270380398432,-1.6778638926263518,-1.0,12.045666666666667,0.0333333333333333,179.5044155896991,-1.673081482047167,89.52831647058626,1525.0,1435.0,1000.0,1351.0,1475.0,1021.47,241.0,293.54999999999995,1637231190.2182157,1637231191.4439063,e0dbaf73-4500-4be2-8983-f530cc07857e
0.1203018663096113,0.116449298352679,0.5617430161521426,0.1522794947419433,0.4066410089919102,-0.0504865504287766,0.2835429234271964,0.2606904906062217,-9.801091710231324,21.46849441458057,32.006366804330945,-0.2864985761664708,0.2396805038875825,-1.678379499467351,-1.0,12.05,0.04,179.52254746521578,-1.6640796484601093,89.53190231990051,1525.0,1435.0,1000.0,1351.0,1475.0,1021.47,241.0,293.54999999999995,1637231191.5526028,1637231192.672434,e0dbaf73-4500-4be2-8983-f530cc07857e
0.2120403170352115,0.1706482228597486,0.8582723857523317,0.1491764025286197,0.6721131617744027,-0.1157435330949805,0.5746550346430266,0.5460434743180483,-7.919284650397266,21.76074912645737,32.121578674530575,-0.4084717198219583,0.4478047301468191,-2.850756549062324,-1.0,12.045666666666667,0.0366666666666666,179.4900448716854,-1.6650081273004078,89.4820214483919,1525.0,1435.0,1000.0,1262.0,1475.0,1021.47,241.0,293.54999999999995,1637231194.6997163,1637231195.9500473,9f8c822e-74dd-4cc3-9b9f-fb0f5c28408e
0.2235317291431224,0.186099036115258,0.8660920243111482,0.1362709574800088,0.6749017808318615,-0.1189918091316239,0.5813405981770219,0.5636309495966292,-7.779339943538422,21.71457799273768,32.178190185488766,-0.3864967470415368,0.506346310113324,-2.872779539522472,-1.0,12.042,0.03,179.4865796890465,-1.6750494658756787,89.47990408974921,1525.0,1435.0,1000.0,1262.0,1475.0,1021.47,241.0,293.54999999999995,1637231196.0585096,1637231197.1347313,9f8c822e-74dd-4cc3-9b9f-fb0f5c28408e
0.2107939302430056,0.1700055803665776,0.8528474533089906,0.1527753101460498,0.6678343572881656,-0.116649697440618,0.5686301930189573,0.5423875892193503,-7.97326882875558,21.74574405662204,32.33062058563877,-0.4189896935564915,0.4431365148095271,-2.828738754987737,-1.0,12.041777777777778,0.03,179.49020879622543,-1.6626724634795442,89.49483867782439,1525.0,1435.0,1000.0,1262.0,1475.0,1021.47,241.0,293.54999999999995,1637231197.2431142,1637231198.186497,9f8c822e-74dd-4cc3-9b9f-fb0f5c28408e
0.2940826985884328,0.2119170479791632,1.0973994898519122,0.150351019319918,0.8851302391524355,-0.1692718794596971,0.8084843040456593,0.7831045833353413,-6.297443954793075,22.15633223676945,32.22165139524013,-0.5160450620115574,0.6052434554862781,-3.7936563188643055,-1.0,12.041,0.03,179.47531291255558,-1.688607509957827,89.38945037675091,1525.0,1435.0,1000.0,1173.0,1475.0,1021.47,241.0,293.54999999999995,1637231200.2269962,1637231201.2710044,dee0a000-f802-4753-82d5-3232b89d8f72
0.2925897738033725,0.2107254474718137,1.1047271483182788,0.161280872826288,0.893813856548392,-0.1785033606567278,0.814264251224217,0.783912680219229,-6.251259458026605,22.12995981688809,32.22465011835721,-0.5612307359241512,0.599539157280143,-3.82370253671975,-1.0,12.033666666666669,0.03,179.4881050979611,-1.6763068610131957,89.32728578947498,1525.0,1435.0,1000.0,1173.0,1475.0,1021.47,241.0,293.54999999999995,1637231201.379671,1637231202.5037944,dee0a000-f802-4753-82d5-3232b89d8f72
0.2903670964106987,0.2062943370076044,1.1022858738167418,0.158170110480654,0.8906970679374026,-0.1684829575739938,0.8127910495097528,0.7898991714662332,-6.305365716537226,22.301226769218555,32.60763229860293,-0.5306488305309771,0.5801395305596646,-3.8141635133643215,-1.0,12.035222222222224,0.03,179.47611432141818,-1.6785794878798446,89.28078662051546,1525.0,1435.0,1000.0,1173.0,1475.0,1021.47,241.0,293.54999999999995,1637231202.6135504,1637231203.731928,dee0a000-f802-4753-82d5-3232b89d8f72
-0.1876115729229908,-0.0298956914120537,-0.3572023840152483,0.2665526174421683,-0.4166591563217955,0.0359710599607951,-0.6690183207167645,-0.6980139465178196,-16.306106322352793,21.99637372052223,31.694565177377463,-0.3955710811249185,-0.3327145535304354,2.029941735709991,-1.0,12.04188888888889,0.0355555555555555,179.53851037621598,-1.6742244122262495,89.54853686616914,1525.0,1435.0,1000.0,1617.0,1475.0,1021.47,241.0,293.54999999999995,1637231204.734853,1637231205.9840438,afdb009a-fbe5-472d-b1a7-72262adb34e0
-0.1802115955953415,-0.0222168525716495,-0.3504214905989928,0.2725900601263192,-0.4112736683188864,0.0223703771716356,-0.6658850947857026,-0.6834386110392835,-16.20867814629507,21.99378557691849,31.65873874916144,-0.4393888048315175,-0.3045997929623313,2.009903099316921,-1.0,12.049333333333331,0.04,179.53657667377098,-1.669778291099656,89.55487148716935,1525.0,1435.0,1000.0,1617.0,1475.0,1021.47,241.0,293.54999999999995,1637231206.0921235,1637231207.220454,afdb009a-fbe5-472d-b1a7-72262adb34e0
-0.185926896078156,-0.0245129437514142,-0.3495049167348104,0.2717299162613157,-0.4098793583651156,0.0253014406680729,-0.6646217237555264,-0.6825368294504891,-16.290588794693893,22.02277510722769,31.651479154182315,-0.4306666145675522,-0.3124029461985507,2.0045910484900205,-1.0,12.050666666666665,0.04,179.538823047098,-1.6681579472987436,89.5755092832015,1525.0,1435.0,1000.0,1617.0,1475.0,1021.47,241.0,293.54999999999995,1637231207.3343632,1637231208.4478962,afdb009a-fbe5-472d-b1a7-72262adb34e0
-0.2978140963983791,-0.0800114011311278,-0.6786196118941444,0.3502522815807298,-0.7057388084056765,0.0240550539121258,-1.018540975345064,-1.042263431281431,-18.4461768213954,22.7981404002706,31.39544435794305,-0.6229682359963383,-0.5335487029571455,3.3518738551210574,-1.0,12.048444444444444,0.0388888888888888,179.55851524138507,-1.6922984090044746,89.60977710117737,1525.0,1435.0,1000.0,1706.0,1475.0,1021.47,241.0,293.54999999999995,1637231210.1772337,1637231211.403104,9147734d-6efc-459c-9345-bd594a9878d4
-0.2928038945067591,-0.0772835944225026,-0.6719729434101221,0.3462096056122586,-0.6987174017707702,0.0263018373743658,-1.010828164283707,-1.0319712823595462,-18.53710938536541,22.679574836784344,31.62265399358671,-0.6092647073742817,-0.5237708317554197,3.3228690527757565,-1.0,12.04188888888889,0.03,179.55768195830632,-1.6729046797545888,89.52756439086765,1525.0,1435.0,1000.0,1706.0,1475.0,1021.47,241.0,293.54999999999995,1637231211.5166051,1637231212.745761,9147734d-6efc-459c-9345-bd594a9878d4
-0.2904371288506663,-0.0751272081495754,-0.675260118675325,0.3411868040334515,-0.7032405550249256,0.0272222461570515,-1.0144572068179527,-1.0400971823532583,-18.540977332068028,22.712555477058324,31.36949984173453,-0.5958535641707838,-0.5130014125945201,3.338521106213184,-1.0,12.04011111111111,0.03,179.55499389941295,-1.6827603818516366,89.44236157552129,1525.0,1435.0,1000.0,1706.0,1475.0,1021.47,241.0,293.54999999999995,1637231212.8547127,1637231214.0774555,9147734d-6efc-459c-9345-bd594a9878d4
-0.3927449601617105,-0.1234842805486592,-0.9735888419904374,0.4398551608266012,-0.9716850192062072,-0.0027354151125947,-1.3470258040947105,-1.3709674124456357,-20.549061940419325,23.80678746747382,30.86011955684145,-0.8944370675395641,-0.7066845605410537,4.576755972742373,-1.0,12.036666666666669,0.03,179.57715710435974,-1.693406524191538,89.32154387711275,1525.0,1435.0,1000.0,1795.0,1475.0,1021.47,241.0,293.54999999999995,1637231216.319513,1637231217.4585688,599773ed-5246-449b-95d5-e9871bcc402c
-0.4053304564067624,-0.1444997336736038,-0.974721821879907,0.4506891377533145,-0.9656360672874478,0.0079988520032823,-1.3436745267396812,-1.3698141608048795,-20.78628204537817,23.74047355683077,30.887647242215685,-0.89536557392173,-0.7854771226156125,4.562742222405345,-1.0,12.026111111111112,0.03,179.5881886187792,-1.717987035064108,89.12571931796884,1525.0,1435.0,1000.0,1795.0,1475.0,1021.47,241.0,293.54999999999995,1637231217.5754344,1637231218.6824143,599773ed-5246-449b-95d5-e9871bcc402c
-0.4088310446183486,-0.1280684136832354,-0.9714816778707884,0.4406000428429273,-0.9682956456712054,0.002040469632063,-1.3439440754143208,-1.368762263754856,-20.657109465526258,23.83011258293817,31.018212961590542,-0.8851549278190751,-0.7244720233334389,4.564469195934569,-1.0,12.027666666666669,0.03,179.6015439153363,-1.7194066709103475,88.98288716095544,1525.0,1435.0,1000.0,1795.0,1475.0,1021.47,241.0,293.54999999999995,1637231218.790826,1637231219.908139,599773ed-5246-449b-95d5-e9871bcc402c
-0.4558861087546959,-0.14387845770850968,-1.1625193023903393,0.5333889510853485,-1.1413033167337008,-0.060466411294545754,-1.5744163186680413,-1.6020697055693587,-22.170903799115127,24.86799973921309,30.449770029169937,-1.2384100164308887,-0.7915344068110436,5.385274801642843,-1.0,12.019222222222222,0.03888888888888889,179.60882945045103,-1.7334579708586506,88.70265967750797,1525.0,1435.0,1000.0,1883.0,1475.0,1021.4699999999999,241.0,293.54999999999995,1637231221.7330167,1637231222.777602,712f8ed6-da24-4b30-861d-89be506b6e10
-0.44524990674576814,-0.138254102478703,-1.1605919209507414,0.5247031422752917,-1.1432882233280481,-0.05727127801782743,-1.5718178042316586,-1.5980231883645428,-21.962382876048704,24.94089298692185,30.565750312194435,-1.2109344277730614,-0.7717506143723156,5.382535228731192,-1.0,11.998444444444443,0.060000000000000005,179.6129579203493,-1.7388672909538236,88.42665097423784,1525.0,1435.0,1000.0,1883.0,1475.0,1021.4699999999999,241.0,293.54999999999995,1637231222.8854284,1637231224.0133917,712f8ed6-da24-4b30-861d-89be506b6e10
-0.4612003747137627,-0.15408239468535576,-1.1693538901820777,0.5405659471167317,-1.1460423293279414,-0.056508105757290365,-1.5814837511955346,-1.6001932740878526,-22.279975715048,25.033108317004544,30.47572687447686,-1.2450012785251925,-0.8305775631889638,5.409829142395261,-1.0,12.0,0.060000000000000005,179.60796581097594,-1.7231330371372162,88.18884807245506,1525.0,1435.0,1000.0,1883.0,1475.0,1021.4699999999999,241.0,293.54999999999995,1637231224.1263306,1637231225.1256769,712f8ed6-da24-4b30-861d-89be506b6e10
