raw_voltage_G-,raw_voltage_G0,raw_voltage_G1,raw_voltage_G2,raw_voltage_G3,raw_voltage_G4,raw_voltage_G5,raw_voltage_G6,load_x,load_y,load_z,load_l,load_m,load_n,rpm,voltage,current,roll,pitch,yaw,aileron1_pwm,elevator_pwm,throttle_pwm,rudder_pwm,aileron2_pwm,pbaro,pdiff,Tt,sample_start_time,sample_end_time,uid
-0.1212659857935615,-0.0265559224454272,0.0036334848149548,0.3185053045604774,-0.0937852090141405,-0.2275995016356667,-0.3625051445503785,-0.3876980515290802,-14.111372409112311,24.1744902901595,4.040097607597101,-1.0759391529656714,-0.0741058064632827,0.6244036261033803,-1.0,12.051,0.04,179.5680501854664,3.204899639871856,78.65940912358829,1525.0,1435.0,1000.0,1528.0,1475.0,1021.47,241.0,293.54999999999995,1637231249.1785696,1637231250.3177128,2c654fb2-9f32-4565-a579-b03e1f246470
-0.1154307036177529,-0.0262113170168468,0.0044278852010044,0.3117786511064056,-0.0928724703168318,-0.222524104463244,-0.3579693914240159,-0.3809248283152562,-13.996878688265411,23.991178133834524,3.951224605069041,-1.0504925519321489,-0.0719605589072738,0.6156323145790984,-1.0,12.049444444444443,0.04,179.58882458528194,3.211444621212152,78.40849377641888,1525.0,1435.0,1000.0,1528.0,1475.0,1021.47,241.0,293.54999999999995,1637231250.425182,1637231251.4478948,2c654fb2-9f32-4565-a579-b03e1f246470
-0.1232908851481237,-0.0415454365996687,0.0014770985918941,0.3246983400726445,-0.0917471610072501,-0.2165020008300986,-0.3601646761970314,-0.3937990478669024,-14.152032116407362,24.141978036978408,4.341639502768206,-1.0652668585373752,-0.1336101268876522,0.619885570517923,-1.0,12.053333333333333,0.04,179.6116419705692,3.239990495642705,78.15539580435471,1525.0,1435.0,1000.0,1528.0,1475.0,1021.47,241.0,293.54999999999995,1637231251.558108,1637231252.776368,2c654fb2-9f32-4565-a579-b03e1f246470
0.0155084012955456,0.22103895560795,0.0193160445968455,0.2020281330112219,-0.1368110329975712,-0.3532029884310542,-0.4010176832142809,-0.4260276044772025,-13.767939578609534,23.66420249271226,5.340255228859181,-1.0976647414009009,0.8558978947281745,0.7476840307838951,-1.0,12.049,0.0388888888888888,179.5688910576442,3.240342440112437,77.80171191311346,1576.0,1435.0,1000.0,1528.0,1515.0,1021.47,241.0,293.54999999999995,1637231253.6741402,1637231254.635163,d77476d6-0407-45c1-ad08-9b3eb2561c04
0.0254794960523057,0.229982807957486,0.0193708308366741,0.2004119392563529,-0.1353591976849899,-0.3573119565474317,-0.4022914634071694,-0.4273013850546505,-13.995711909107456,23.435174582024644,5.789362696237583,-1.1048109944201496,0.887273044301499,0.7490816637558707,-1.0,12.039222222222222,0.03,179.5877879143479,3.254757127468926,77.61825682655646,1576.0,1435.0,1000.0,1528.0,1515.0,1021.47,241.0,293.54999999999995,1637231254.7675474,1637231255.7524593,d77476d6-0407-45c1-ad08-9b3eb2561c04
0.0238298824958417,0.226490733528156,0.0066445362675046,0.1892930734541597,-0.1477606106000721,-0.3444914275919383,-0.4128383635407638,-0.4364139812165441,-14.175793045551636,23.462715738502183,5.581130078192974,-1.051495069512642,0.8778584307159203,0.7973857505303416,-1.0,12.039333333333335,0.03,179.5941460615553,3.2516039753817774,77.4511258921158,1576.0,1435.0,1000.0,1528.0,1515.0,1021.47,241.0,293.54999999999995,1637231255.860471,1637231256.9791412,d77476d6-0407-45c1-ad08-9b3eb2561c04
0.2538926151326632,0.6569527164811704,0.0291025097330067,-0.0096992934679615,-0.2265213084019011,-0.5855202361917756,-0.489876592520887,-0.5154376647817795,-13.665687977316376,22.558986948705368,5.025305756978505,-1.1489454566593733,2.5195770528536623,1.0340188568842257,-1.0,12.041,0.03,179.49612829350616,3.263583059968921,77.23503464388466,1627.0,1435.0,1000.0,1528.0,1556.0,1021.47,241.0,293.54999999999995,1637231258.6441095,1637231259.6492996,b44e9374-4e0e-4e14-881b-d301089078f0
0.2817968862740426,0.6760796847557483,0.036286080839421,-0.0302928917331429,-0.2242361742873331,-0.5835106764075846,-0.4835120740962607,-0.5150826502541882,-13.740745499016006,22.44656641486131,5.333104606263067,-1.098351867825263,2.5921070444895267,1.014614276941742,-1.0,12.034333333333333,0.03,179.48195640988828,3.280699727472385,77.10961871034488,1627.0,1435.0,1000.0,1528.0,1556.0,1021.47,241.0,293.54999999999995,1637231259.7572267,1637231260.698347,b44e9374-4e0e-4e14-881b-d301089078f0
0.2584579517966611,0.6542473724905603,0.0379844541268467,-0.0122134339587864,-0.2159360588804523,-0.5783470722418304,-0.4791291742422472,-0.5010573702116919,-13.8728455301045,22.49180240764852,5.416341691286337,-1.1272001718619284,2.508302309680721,0.9922770969315032,-1.0,12.031666666666666,0.03,179.4891660540122,3.2895307351823884,77.02367671674834,1627.0,1435.0,1000.0,1528.0,1556.0,1021.47,241.0,293.54999999999995,1637231260.8107135,1637231261.800752,b44e9374-4e0e-4e14-881b-d301089078f0
0.4621394597453157,1.0277387966188565,0.0437507053054241,-0.1971854683555532,-0.2976634342405625,-0.7661269604739592,-0.5547752876850999,-0.5830997798643397,-13.5280346259972,21.617802237742712,6.270943114166061,-1.1371119967783896,3.922232177056929,1.2488124781977792,-1.0,12.027666666666669,0.03,179.3817605704038,3.286054429770133,76.85034245272148,1678.0,1435.0,1000.0,1528.0,1596.0,1021.47,241.0,293.54999999999995,1637231263.830093,1637231264.8723152,ac048e38-3728-4ee8-97e7-95cac9645c74
0.454592656619705,1.0187264616275609,0.0316018577831888,-0.2051979560596647,-0.3105792908783761,-0.7489514687853687,-0.5631712806081018,-0.5919751524920253,-13.472606519328066,21.7901555156722,6.326870428318448,-1.0798677290154084,3.887761712081397,1.2938048213673523,-1.0,12.023666666666664,0.03,179.38434541754972,3.286021227461668,76.81021281461794,1678.0,1435.0,1000.0,1528.0,1596.0,1021.47,241.0,293.54999999999995,1637231264.9840553,1637231266.005874,ac048e38-3728-4ee8-97e7-95cac9645c74
0.4832058607341569,1.0452336837796417,0.0573196119913999,-0.2152791719295028,-0.2901084114439415,-0.7661702416610412,-0.5424845403154454,-0.562076103753822,-13.48890581771591,21.610987201270408,6.432438508256996,-1.0957183900957952,3.9892281699608407,1.2047431167807234,-1.0,12.024888888888889,0.03,179.39309716660625,3.275983363270818,76.79156488036398,1678.0,1435.0,1000.0,1528.0,1596.0,1021.47,241.0,293.54999999999995,1637231266.1132915,1637231267.1201005,ac048e38-3728-4ee8-97e7-95cac9645c74
0.6486427412629971,1.3890063426451686,0.0538352074854432,-0.3844108767398925,-0.3777313376033093,-0.9441905312971024,-0.6267677096561219,-0.6444921582881527,-13.19903368131301,21.25972566015385,6.5340799795487055,-1.1165740008010008,5.296229046334104,1.4894434111897448,-1.0,12.01911111111111,0.03,179.26563824759472,3.286051014675547,76.75874733922188,1729.0,1435.0,1000.0,1528.0,1636.0,1021.47,241.0,293.54999999999995,1637231269.1581943,1637231270.2938974,dd93b822-3eb9-461d-a363-75ce4d6e99f4
0.6791608622774631,1.4094657149280698,0.0656558853655771,-0.3917347018933112,-0.3729189139179902,-0.959219499732599,-0.6216002702904718,-0.6487654862659487,-13.095663852074937,21.41138130338694,6.35179361732954,-1.1322084337156824,5.375501764339707,1.4615828164574405,-1.0,12.011333333333331,0.03,179.25967169789976,3.2788663908626674,76.69452307045624,1729.0,1435.0,1000.0,1528.0,1636.0,1021.47,241.0,293.54999999999995,1637231270.40141,1637231271.5316875,dd93b822-3eb9-461d-a363-75ce4d6e99f4
0.6773989371516769,1.412358428290834,0.0673257697804324,-0.3883291889890304,-0.3705652968098328,-0.963834694897684,-0.620061872297863,-0.6449918089877537,-13.046340333319549,21.288322601694546,6.557876511191928,-1.15093633913731,5.38386007421817,1.454666056566404,-1.0,12.01025,0.03,179.26516544672216,3.279424643212135,76.6382690632696,1729.0,1435.0,1000.0,1528.0,1636.0,1021.47,241.0,293.54999999999995,1637231271.639891,1637231272.853674,dd93b822-3eb9-461d-a363-75ce4d6e99f4
-0.3006931134373601,-0.3713936648255494,0.0037518230581065,0.4819567346859656,-0.0170231174212664,-0.0517751227295538,-0.284612255636386,-0.3109885444653909,-13.997905864851823,25.067170373520167,2.688880488374963,-1.0437793767210892,-1.3763860133237689,0.36630165712683,-1.0,12.024666666666665,0.0333333333333333,179.76882587284865,3.27882121200722,76.58539030789777,1474.0,1435.0,1000.0,1528.0,1435.0,1021.47,241.0,293.54999999999995,1637231274.691953,1637231275.8380191,f6bc8c43-88d2-4077-9366-77f92fe766cc
-0.3028681272610418,-0.3799934616363884,-0.0050090437984219,0.4820679507197074,-0.0225269426390276,-0.045496072163572,-0.2908151539180238,-0.3182082758523396,-14.126067630146435,24.984049510520265,2.342472105813705,-1.031027371621798,-1.4052336687657716,0.3929880055300452,-1.0,12.04866666666667,0.04,179.79709678473324,3.27702494340331,76.71647150389913,1474.0,1435.0,1000.0,1528.0,1435.0,1021.47,241.0,293.54999999999995,1637231275.94553,1637231276.9457233,f6bc8c43-88d2-4077-9366-77f92fe766cc
-0.3015943471334355,-0.3717755249336563,0.0070850176320778,0.4763975759942108,-0.0138844139643335,-0.0480573286307636,-0.2775020971489949,-0.3003890502078996,-13.818423934847791,24.90289791991546,2.47783869183123,-1.0237512027224296,-1.3763251195265986,0.3471601000463059,-1.0,12.04622222222222,0.0322222222222222,179.80628414807683,3.295682435178912,76.88111017820266,1474.0,1435.0,1000.0,1528.0,1435.0,1021.47,241.0,293.54999999999995,1637231277.0535538,1637231278.082589,f6bc8c43-88d2-4077-9366-77f92fe766cc
-0.4484899654017751,-0.643035939652024,-0.0153088561007187,0.6030907311217504,0.0231784741781992,0.0992765534366429,-0.2411377295182202,-0.2602992174741181,-13.933669321276916,25.87085555530209,2.266284648630205,-0.9732511071679428,-2.4080277983962737,0.2429413895130082,-1.0,12.037666666666668,0.0333333333333333,179.86462610614723,3.267146070838141,77.16421468911052,1423.0,1435.0,1000.0,1528.0,1394.0,1021.47,241.0,293.54999999999995,1637231280.4266577,1637231281.5613909,14538d67-ee04-4b28-ba67-14b4ff05ed41
-0.4515218363319566,-0.6397980720880294,-0.0065041601877091,0.601175952414131,0.0299966210981562,0.1000528743859137,-0.2322015457894974,-0.252424243262555,-13.829761852385532,25.915580126126017,2.643977002402245,-0.9663399283216144,-2.399172056234633,0.2098918399445557,-1.0,12.033,0.03,179.8694315236833,3.282473228779061,77.16647851736542,1423.0,1435.0,1000.0,1528.0,1394.0,1021.47,241.0,293.54999999999995,1637231281.6696055,1637231282.6756122,14538d67-ee04-4b28-ba67-14b4ff05ed41
-0.4529550445091797,-0.653157699999826,-0.0184864577618649,0.6088569817300495,0.02415092984913,0.1047277836840511,-0.2448358007968462,-0.2739135988066921,-14.33832829351873,25.948955877415624,2.3608820344616994,-0.9738378161015754,-2.444874958536269,0.2498577607999281,-1.0,12.032333333333334,0.03,179.86441209355326,3.274557679861251,77.22949536046777,1423.0,1435.0,1000.0,1528.0,1394.0,1021.47,241.0,293.54999999999995,1637231282.7837632,1637231283.815899,14538d67-ee04-4b28-ba67-14b4ff05ed41
-0.6420333512886471,-1.019992811525682,-0.0132494415251674,0.7626419267141493,0.1049704867620996,0.3118652133469777,-0.1519550449781718,-0.1781998454054596,-13.931721774381886,27.110513140022075,1.2041549483067688,-0.8472923543124767,-3.831937998824561,-0.0444649550290143,-1.0,12.029333333333334,0.03,179.94913831347756,3.276487990927622,77.23412395199531,1372.0,1435.0,1000.0,1528.0,1354.0,1021.47,241.0,293.54999999999995,1637231284.718146,1637231285.839475,b46b469f-f058-4272-8d6f-ad3842fdc33d
-0.6565681444083565,-1.0243894097246795,-0.0112409781387258,0.7813514239939429,0.1099324758967058,0.2998489492825138,-0.1540276084687732,-0.1772021877435823,-14.047573762825282,27.19240132460305,1.3320177042633656,-0.9158936262542672,-3.850916012599439,-0.0513124610726421,-1.0,12.0156,0.03,179.96478582152008,3.2766584752952177,77.1617945254146,1372.0,1435.0,1000.0,1528.0,1354.0,1021.47,241.0,293.54999999999995,1637231285.947445,1637231287.0807142,b46b469f-f058-4272-8d6f-ad3842fdc33d
-0.6471723018895104,-1.0124870925076608,-0.0033380636429728,0.7734622069821088,0.1135346707595731,0.2941374847481836,-0.1479600324799071,-0.1738191376303239,-13.904302634537236,27.203764507447108,1.1981918275326098,-0.910412282250144,-3.804630502119339,-0.0743524705523899,-1.0,12.019333333333334,0.03,179.9703756483368,3.271615860467483,77.08000756356314,1372.0,1435.0,1000.0,1528.0,1354.0,1021.47,241.0,293.54999999999995,1637231287.1884773,1637231288.3099186,b46b469f-f058-4272-8d6f-ad3842fdc33d
-0.8640300081472368,-1.4080988197109945,-0.0161991324707679,0.9720759862604048,0.1888931339396733,0.5020101382488252,-0.0757517712661737,-0.1077058442347151,-14.010709692603925,28.552240340639344,1.8561214233238328,-0.8829685705911858,-5.318739160724413,-0.30809904398922,-1.0,12.017666666666663,0.03,-179.91572351023802,3.2673564786100733,76.97299898983655,1321.0,1435.0,1000.0,1528.0,1314.0,1021.47,241.0,293.54999999999995,1637231290.2488134,1637231291.384119,c3b81119-6fad-4e86-8d6e-d910d715a7ee
-0.8749100120285134,-1.4293909641744935,-0.0251753093425163,0.9901932448643552,0.1848882603651224,0.5054008579518108,-0.0839499837764172,-0.1130743478226176,-14.070406546908186,28.7550305053503,1.6758563858408433,-0.9153786856828586,-5.399373668715643,-0.2815329585533082,-1.0,12.014666666666663,0.03,-179.90878100240164,3.2770872688794865,76.88994161279949,1321.0,1435.0,1000.0,1528.0,1314.0,1021.47,241.0,293.54999999999995,1637231291.4964345,1637231292.52863,c3b81119-6fad-4e86-8d6e-d910d715a7ee
-0.8535828157499425,-1.4113903800210972,-0.0182853922797218,0.9741255391831928,0.1882806238918759,0.5047039771404542,-0.077270445715846,-0.1089193595620005,-14.094186224210937,28.54274512236275,2.035459330155036,-0.8817187033847325,-5.332467916726325,-0.3024405608569825,-1.0,12.015,0.03,-179.90527028516829,3.269822010888905,76.8279075580277,1321.0,1435.0,1000.0,1528.0,1314.0,1021.47,241.0,293.54999999999995,1637231292.6381607,1637231293.6325157,c3b81119-6fad-4e86-8d6e-d910d715a7ee
-0.1081852236977267,-0.0106794192264537,0.0049757475702905,0.3076559872462526,-0.0955569959179423,-0.2265645895608621,-0.3615031041480975,-0.3820479460514908,-14.085227485262775,24.0300492395294,4.988480959738294,-1.049866508559447,-0.0217313857699433,0.6268016268667269,-1.0,12.029444444444444,0.0344444444444444,179.68513177039893,3.263002280446059,76.828579952206,1525.0,1435.0,1000.0,1528.0,1475.0,1021.47,241.0,293.54999999999995,1637231294.760743,1637231295.8925142,dd6ac050-111f-4de8-8644-6b37565e9dd8
-0.1041447386520477,-0.0060362857573958,0.0081670457455109,0.3041085787873303,-0.0931600980930229,-0.2294134741519825,-0.3567230043813565,-0.3815000839333414,-13.904336535844608,23.85346639485517,4.797823716753854,-1.0492172679007792,-0.0032712451291026,0.6128418157755792,-1.0,12.049,0.04,179.69247346484678,3.263327236182196,77.04260468875825,1525.0,1435.0,1000.0,1528.0,1475.0,1021.47,241.0,293.54999999999995,1637231296.0003154,1637231297.112532,dd6ac050-111f-4de8-8644-6b37565e9dd8
-0.1137186336798239,-0.0229104463140899,-0.0064882721905213,0.3171203086531151,-0.1010219231262127,-0.2227706424170155,-0.3715289868708447,-0.3956897212695767,-14.347797835496968,23.936145017707844,4.982883237505728,-1.0640165906885894,-0.0675907637043445,0.6625965485935122,-1.0,12.050333333333334,0.04,179.69846581747862,3.266920532299922,77.23815604033535,1525.0,1435.0,1000.0,1528.0,1475.0,1021.47,241.0,293.54999999999995,1637231297.2203324,1637231298.347521,dd6ac050-111f-4de8-8644-6b37565e9dd8
-0.0890922199415068,-0.0213216454588587,-0.0262524066940074,-0.1903097952455973,-0.1752846690761652,0.2648816373887962,-0.2534920268565094,-0.2844325570147188,-13.989053589865362,22.9707007266054,8.488742465187785,1.169796455899755,-0.0340370472170136,0.6239611741569537,-1.0,12.049,0.04,179.71299742439274,3.4087254810372074,77.47699864869179,1525.0,1521.0,1000.0,1528.0,1475.0,1021.47,241.0,293.54999999999995,1637231299.1660616,1637231300.1888025,aa0b6f03-0f13-4cb1-a2ee-235b0b090e69
-0.0919443914435224,-0.0364042962001445,-0.0327095124437435,-0.1751230498223009,-0.1754254697049474,0.2660814557846238,-0.2583543057808577,-0.2827319919306849,-14.143018615144143,22.90133505045601,8.50452841166574,1.137378691230017,-0.0919366774047763,0.638128763494793,-1.0,12.046111111111111,0.04,179.70136485332634,3.4229505832123595,77.55307936694666,1525.0,1521.0,1000.0,1528.0,1475.0,1021.47,241.0,293.54999999999995,1637231300.2966225,1637231301.4192135,aa0b6f03-0f13-4cb1-a2ee-235b0b090e69
-0.0888593784534934,-0.029060201316843,-0.025718240881878,-0.180078465143214,-0.1734082403772333,0.260046752423646,-0.2522730329670553,-0.2851310816450513,-13.780690808862568,22.99495544793095,8.068451065274214,1.136077722804553,-0.0620364662738895,0.6176380138216002,-1.0,12.047888888888888,0.0377777777777777,179.70864735280136,3.427446578949456,77.56541468858772,1525.0,1521.0,1000.0,1528.0,1475.0,1021.47,241.0,293.54999999999995,1637231301.5277965,1637231302.6369302,aa0b6f03-0f13-4cb1-a2ee-235b0b090e69
-0.0800524908438351,-0.0458658791918766,-0.0727385281909896,-0.7458560451357036,-0.2740505639243594,0.8208796884499141,-0.1420157256066089,-0.1712715772324444,-13.871324068693616,21.87281926287165,11.646739909964063,3.663344522587832,-0.0894813160956601,0.6602771564220293,-1.0,12.04322222222222,0.0377777777777777,179.6814540929858,3.6443583273705777,77.6271391081171,1525.0,1607.0,1000.0,1528.0,1475.0,1021.47,241.0,293.54999999999995,1637231303.6643455,1637231304.8019447,8e8b5ccd-bf7b-490c-9fa2-458a52f9f89d
-0.0631783299200489,-0.0311557748358432,-0.0602061766397195,-0.7538685352916518,-0.2675446978304054,0.8159215346885276,-0.1328116376505283,-0.1515622279453299,-13.740441469308475,22.0159001853707,12.02303556438657,3.67197549861385,-0.0367875149895049,0.6235015048241298,-1.0,12.0411,0.03,179.66867799647034,3.643204077575902,77.52709421581332,1525.0,1607.0,1000.0,1528.0,1475.0,1021.47,241.0,293.54999999999995,1637231304.90967,1637231306.1275456,8e8b5ccd-bf7b-490c-9fa2-458a52f9f89d
-0.0792170006971778,-0.0458658791840056,-0.0728617972358834,-0.7373367821400242,-0.2757763305445686,0.8144012167989754,-0.1443715338478556,-0.1666558367102279,-13.653139945092237,22.042643571856164,11.828123006291328,3.630827551413655,-0.0936870015751333,0.6665633161157997,-1.0,12.039,0.04,179.68432732589667,3.6369583391554303,77.49482088896609,1525.0,1607.0,1000.0,1528.0,1475.0,1021.47,241.0,293.54999999999995,1637231306.2365773,1637231307.2675636,8e8b5ccd-bf7b-490c-9fa2-458a52f9f89d
-0.0544048619751664,-0.0454505995072977,-0.0977298181030569,-1.2786804607616822,-0.3631757281688715,1.3350177941501968,-0.0326174715740788,-0.0632670838958463,-13.772394025655222,21.83608044881256,15.366768280015483,6.019757681340875,-0.0575773323734645,0.6606843563808295,-1.0,12.04022222222222,0.03,179.66768443161908,3.781745874978092,77.30137399456326,1525.0,1693.0,1000.0,1528.0,1475.0,1021.47,241.0,293.54999999999995,1637231309.1126225,1637231310.2286215,61c2c667-e634-408d-a6ab-fc2e7a29e5bc
-0.0558780638732465,-0.0533578970184823,-0.101282157753049,-1.2755981846403406,-0.3654203206451398,1.3387465453747975,-0.0331143827263073,-0.0583708377395752,-13.598736829780217,21.805767226300464,15.182875665985057,6.020864091696336,-0.0874389806281134,0.6682360593663779,-1.0,12.027666666666669,0.03,179.65444145372837,3.817229893513039,77.09302666303111,1525.0,1693.0,1000.0,1528.0,1475.0,1021.47,241.0,293.54999999999995,1637231310.3366668,1637231311.4719574,61c2c667-e634-408d-a6ab-fc2e7a29e5bc
-0.0621510879595098,-0.0649314894533211,-0.1092261621875809,-1.264380693142287,-0.3684609571628698,1.340691456728867,-0.0408118489169502,-0.0654519590632388,-13.82010388642654,21.81074075505263,15.256554534832972,5.999468380716936,-0.1318178577666277,0.6928106396032891,-1.0,12.029,0.03,179.64602514285107,3.834973918634955,76.88290727686427,1525.0,1693.0,1000.0,1528.0,1475.0,1021.47,241.0,293.54999999999995,1637231311.580304,1637231312.6877449,61c2c667-e634-408d-a6ab-fc2e7a29e5bc
-0.0409351179583395,-0.0583982307708505,-0.1123489777089821,-1.722229772866533,-0.4359165217857463,1.7757626926067924,0.0557351940893185,0.0381351159542912,-14.271208744717253,22.941626362229258,18.427337951534344,8.017546538069043,-0.0760316989282387,0.6519504478471555,-1.0,12.021888888888888,0.03,179.6242945165517,3.9864328417294255,76.5173547935753,1525.0,1780.0,1000.0,1528.0,1475.0,1021.47,241.0,293.54999999999995,1637231313.7943497,1637231314.9377177,8a454b71-c70b-431b-9813-238172651850
-0.0362098050731643,-0.0618086739945559,-0.1144445513090699,-1.7164772102822303,-0.438231240710925,1.7746121813596785,0.0547764349927336,0.0277942142752219,-14.006570138789575,22.96876579863535,18.528220919083854,8.002209672564232,-0.0924307562487024,0.659278736027867,-1.0,12.012333333333332,0.03,179.60686994506912,3.989558317320876,76.18469953696871,1525.0,1780.0,1000.0,1528.0,1475.0,1021.47,241.0,293.54999999999995,1637231315.0452688,1637231316.067578,8a454b71-c70b-431b-9813-238172651850
-0.0330185068359333,-0.0455097686756322,-0.1055691808317333,-1.7201752867078646,-0.4323691123779768,1.761888075691344,0.0598989478981544,0.0413675038717223,-13.977657797396086,22.866230972574925,18.560520211286683,7.981740783435172,-0.030774629308398,0.633950432215632,-1.0,12.014,0.03,179.61602846983618,3.989194372588227,75.95813457310031,1525.0,1780.0,1000.0,1528.0,1475.0,1021.47,241.0,293.54999999999995,1637231316.175888,1637231317.1228297,8a454b71-c70b-431b-9813-238172651850
-0.1423827933935274,-0.0165497643896793,0.0507715612591391,0.9426212652930468,0.0147572819977814,-0.8307435190182495,-0.4863527410221197,-0.5094418580583974,-14.227234923020143,25.494846635794183,1.0830932362269778,-3.8285667138595136,-0.0833800667797836,0.5905325662825741,-1.0,12.017888888888889,0.0311111111111111,179.59770534902276,3.086623412164796,75.56533798303195,1525.0,1349.0,1000.0,1528.0,1475.0,1021.47,241.0,293.54999999999995,1637231319.208965,1637231320.1684446,c4ecf656-8ca6-4161-9725-9e887590493d
-0.1383461434168737,-0.0210860646733438,0.0379384336972131,0.9430157261287012,0.0052902205771571,-0.8277982096275701,-0.4990675335043586,-0.5200660072693026,-14.50902972328576,25.42077489759934,0.8257570559476852,-3.824150921173987,-0.0969820871316903,0.6379481174050851,-1.0,12.049666666666669,0.0333333333333333,179.63941200191468,3.1073337315250056,75.97276559721239,1525.0,1349.0,1000.0,1528.0,1475.0,1021.47,241.0,293.54999999999995,1637231320.2767525,1637231321.2805588,c4ecf656-8ca6-4161-9725-9e887590493d
-0.1411336671779509,-0.0229005847749942,0.043316250490493,0.9332462455635492,0.0082618259836156,-0.8154910239477524,-0.4893506445306531,-0.5170549548971082,-14.296107358239563,25.457387316583432,1.1000779866747763,-3.773796081490707,-0.1061815743829738,0.6129509116219113,-1.0,12.046111111111111,0.04,179.67361303581868,3.107652046799449,76.32874215528503,1525.0,1349.0,1000.0,1528.0,1475.0,1021.47,241.0,293.54999999999995,1637231321.388216,1637231322.5088794,c4ecf656-8ca6-4161-9725-9e887590493d
-0.1693376228056724,-0.0128681292850971,0.0835644095541059,1.5254109272099998,0.098751153529523,-1.3955987799141838,-0.6278984978987177,-0.6510402117459901,-14.976926206915447,27.932302867871268,-2.854452980737441,-6.395716585176123,-0.0990008453401002,0.6314378292954682,-1.0,12.046699999999998,0.039,179.67560927244008,2.9051291827979515,77.13156547418596,1525.0,1262.0,1000.0,1528.0,1475.0,1021.47,241.0,293.54999999999995,1637231324.6548102,1637231325.7002804,18eb9ddd-0892-46de-95e7-b7ecc3b3ae24
-0.1619086088360677,-0.0052550340470294,0.0908487871925124,1.5123674192857988,0.103379494540042,-1.3913254491239606,-0.6178134444529096,-0.6492651369068433,-14.82610522024966,27.77968778409269,-2.826106395660795,-6.35725943450888,-0.0697006809542151,0.6018603934801204,-1.0,12.032333333333334,0.03,179.6992945470979,2.9362778336209714,77.31778693913881,1525.0,1262.0,1000.0,1528.0,1475.0,1021.47,241.0,293.54999999999995,1637231325.8089902,1637231326.8349435,18eb9ddd-0892-46de-95e7-b7ecc3b3ae24
-0.1624099029140052,-0.0059541063750414,0.0925652399143836,1.5166922450951923,0.1056591497339272,-1.3938543844470648,-0.6159852271652951,-0.6406938279451037,-14.75704164828855,27.74621639556169,-2.703240658653415,-6.372780104926974,-0.0743246304568774,0.5940013738559046,-1.0,12.034555555555556,0.03,179.70501672780256,2.932270623296355,77.5024600760978,1525.0,1262.0,1000.0,1528.0,1475.0,1021.47,241.0,293.54999999999995,1637231326.944479,1637231328.033461,18eb9ddd-0892-46de-95e7-b7ecc3b3ae24
-0.1721481568825978,0.0191105962380996,0.1419139395482763,2.0118777380156487,0.1890985823504054,-1.892396073946536,-0.7276533109334263,-0.7481296750934284,-15.483576117355932,30.400434887526654,-5.527775204629582,-8.59085059374676,-0.0079352205469946,0.5738711820733216,-1.0,12.033111111111111,0.03,179.68611531763943,2.7090444361353594,77.92141021940805,1525.0,1176.0,1000.0,1528.0,1475.0,1021.47,241.0,293.54999999999995,1637231330.1830082,1637231331.2271652,3725dc24-c8d2-4f7a-82e5-e62f79f90319
-0.188899049537368,-0.0065978446465039,0.1329837835641033,2.0206572355547974,0.186701684675552,-1.873878296961431,-0.7301049959006606,-0.755868233867303,-15.597970098043348,30.43096858512092,-5.370649003308411,-8.569317858555477,-0.106587008051838,0.5898946440225932,-1.0,12.017888888888889,0.03,179.67639823518022,2.6971308549596302,78.03006790436423,1525.0,1176.0,1000.0,1528.0,1475.0,1021.47,241.0,293.54999999999995,1637231331.3353326,1637231332.345826,3725dc24-c8d2-4f7a-82e5-e62f79f90319
-0.1801195547042591,0.0092764670361097,0.1372160200485263,2.0158497416515746,0.1869208295899459,-1.8860819504895272,-0.7303926238616131,-0.7552244953148243,-15.545338479303387,30.43205716389817,-5.508710270512066,-8.585674129994752,-0.0453373427865932,0.5859569547930609,-1.0,12.022,0.03,179.67611288505486,2.699099016657652,78.11113162507357,1525.0,1176.0,1000.0,1528.0,1475.0,1021.47,241.0,293.54999999999995,1637231332.4530325,1637231333.572657,3725dc24-c8d2-4f7a-82e5-e62f79f90319
-0.1905974230038709,0.0076465765147701,0.1599386100692316,2.247623018600697,0.2207924174914141,-2.104665718932736,-0.7868498629389121,-0.8070522966420106,-15.996624398637955,32.56597288000009,-6.6214037307280025,-9.58481188871826,-0.0654541287464809,0.5883065581838446,-1.0,12.011888888888889,0.05,179.6390037083843,2.59840891337982,78.27231650038681,1525.0,1090.0,1000.0,1528.0,1475.0,1021.47,241.0,293.54999999999995,1637231335.165805,1637231336.2290256,cee2ffe1-846a-4679-b148-fc648114077d
-0.1830780116184813,0.0193023480477062,0.1612808727594672,2.2369123029393254,0.2203267345295786,-2.10530945752274,-0.7840968536062803,-0.8119967568386707,-15.901332321738588,32.31621585965926,-6.473293256903856,-9.563614961363738,-0.022325477204324,0.5848859634396703,-1.0,11.979222222222225,0.1322222222222222,179.64104062257678,2.568590204738314,78.15901504570492,1525.0,1090.0,1000.0,1528.0,1475.0,1021.47,241.0,293.54999999999995,1637231336.3371446,1637231337.571186,cee2ffe1-846a-4679-b148-fc648114077d
-0.1915561822086983,0.015754939301702,0.1551722077974324,2.2786320437346768,0.2197788722267733,-2.1405233776447026,-0.8031624720639448,-0.8210227931508814,-16.218990797259902,32.541962199114586,-6.609897744742146,-9.73584420326169,-0.0376914074136207,0.6205334332613484,-1.0,11.985222222222225,0.1211111111111111,179.62667597584232,2.5631150966405105,78.1686630673625,1525.0,1090.0,1000.0,1528.0,1475.0,1021.47,241.0,293.54999999999995,1637231337.6783774,1637231338.6859992,cee2ffe1-846a-4679-b148-fc648114077d
-0.1050213184559356,-0.0212805557899784,0.0127827860493505,0.3037798613916635,-0.0879143158892782,-0.2093617101586577,-0.3502993173618576,-0.3783909644587135,-14.151168193479998,24.24301178534991,5.520632998105154,-1.0006136232251055,-0.0647660609154903,0.5890986733724279,-1.0,12.000222222222222,0.0933333333333333,179.63985520530082,3.154832574560567,78.11715129846208,1525.0,1435.0,1000.0,1528.0,1475.0,1021.47,241.0,293.54999999999995,1637231339.7099476,1637231340.73544,52f69acc-e557-4149-9d72-91582e8ad43c
-0.1067333883531643,-0.0240609572453748,0.0137689383172671,0.3176544743859638,-0.0842847276434873,-0.2209626965471602,-0.3532714709926207,-0.3718850976936371,-14.317803069726232,24.28785468832707,5.293273088145626,-1.0577540656609197,-0.0736447555368289,0.5863721401574514,-1.0,12.049,0.04,179.6498136211107,3.155540756084198,78.1940288721201,1525.0,1435.0,1000.0,1528.0,1475.0,1021.47,241.0,293.54999999999995,1637231340.8436038,1637231341.9710586,52f69acc-e557-4149-9d72-91582e8ad43c
-0.119936871622232,-0.0375246747096263,0.0054277339924649,0.3224756626707666,-0.0904481793612188,-0.2118544841083339,-0.3584624676186718,-0.3767062872689988,-14.24560970862664,24.37823443842308,5.290261520021184,-1.0479424535016977,-0.1257470038746989,0.6119501439163156,-1.0,12.04988888888889,0.04,179.6528963131561,3.160939048269773,78.26467275979566,1525.0,1435.0,1000.0,1528.0,1475.0,1021.47,241.0,293.54999999999995,1637231342.0839937,1637231343.1003408,52f69acc-e557-4149-9d72-91582e8ad43c
-0.0244307643566999,0.026397165464088,0.2582388068528183,0.2673881074476879,0.1323400453204161,-0.2336868009184017,-0.0968307759944089,-0.1219776592430949,-12.6324689593646,23.932695319141587,5.856141914268373,-0.96220156689687,0.1203677386370257,-0.3992519488348584,-1.0,12.049,0.04,179.62442656687568,3.1390482208320787,78.34502234628177,1525.0,1435.0,1000.0,1439.0,1475.0,1021.47,241.0,293.54999999999995,1637231344.648012,1637231345.7625,042a7c3a-96b3-49c7-aa7d-de71ef9fb0b2
-0.036497432828831,0.0123855858823081,0.2384609773151762,0.274017241429183,0.1161644100025806,-0.2249483954252107,-0.1142117097847822,-0.1428101262364776,-12.664439110470914,23.99556547943964,5.870828041375908,-0.958100686984772,0.0658429793561753,-0.3271787685134518,-1.0,12.05,0.0399999999999999,179.63524422048314,3.1609285610834856,78.38099080546996,1525.0,1435.0,1000.0,1439.0,1475.0,1021.47,241.0,293.54999999999995,1637231345.8715336,1637231346.9913032,042a7c3a-96b3-49c7-aa7d-de71ef9fb0b2
-0.0325391272421052,0.0150016286046894,0.2465967326799389,0.2690453909065791,0.1219306610241935,-0.2241266019924572,-0.1061170432449004,-0.1221420179688056,-12.591268357290495,24.06875490277777,5.762484764360065,-0.944128881165502,0.0772262352017054,-0.3575063504596564,-1.0,12.04922222222222,0.04,179.64591585982433,3.153725467300725,78.43564909073903,1525.0,1435.0,1000.0,1439.0,1475.0,1021.47,241.0,293.54999999999995,1637231347.099435,1637231348.2209525,042a7c3a-96b3-49c7-aa7d-de71ef9fb0b2
0.0681409889853989,0.0650115992775245,0.5595997788729428,0.2623998210711998,0.4037351473598659,-0.2840074155963037,0.2062811882960369,0.1806806776687379,-10.49845636609018,24.242376718505906,5.740518506459852,-1.0459118986652387,0.2708401891099961,-1.605426115508421,-1.0,12.051222222222224,0.04,179.61052030172553,3.1379869090419845,78.48501314460044,1525.0,1435.0,1000.0,1351.0,1475.0,1021.47,241.0,293.54999999999995,1637231350.154868,1637231351.2894697,511c9eed-5766-45a0-8a69-97671c9801fd
0.0646039897157664,0.0640122983560192,0.551644818402182,0.2656475488318051,0.3965033650121599,-0.285558962017381,0.1984708630583711,0.1772225706779391,-10.425348023422098,24.207669460130617,5.745230702526834,-1.0573131392716015,0.2656282406432994,-1.5736328628396246,-1.0,12.045444444444446,0.0344444444444444,179.62541770321525,3.150787632183973,78.50843234544462,1525.0,1435.0,1000.0,1351.0,1475.0,1021.47,241.0,293.54999999999995,1637231351.399112,1637231352.517955,511c9eed-5766-45a0-8a69-97671c9801fd
0.0722959769487154,0.0704814568457231,0.552026130553515,0.2532220316058896,0.3958327815577905,-0.2817852856546456,0.1996016508895811,0.1683734983637403,-10.557021863665032,24.092574517238017,5.564237184588059,-1.02164338617595,0.2939796825980872,-1.5744755755314126,-1.0,12.047000000000002,0.0311111111111111,179.6347644376394,3.1568319464285457,78.53287455684443,1525.0,1435.0,1000.0,1351.0,1475.0,1021.47,241.0,293.54999999999995,1637231352.6259203,1637231353.637854,511c9eed-5766-45a0-8a69-97671c9801fd
0.1677423610926469,0.1168306105706211,0.8609678682477702,0.2473051185999998,0.6722840948089653,-0.3363523833189046,0.5083461656841878,0.4803131477328546,-8.352121956870809,24.4485204710105,5.850444791607445,-1.1120174761573156,0.4699945928355136,-2.804364362305948,-1.0,12.047111111111112,0.0377777777777777,179.5932308162065,3.144078702587662,78.46014822038197,1525.0,1435.0,1000.0,1262.0,1475.0,1021.47,241.0,293.54999999999995,1637231354.6747348,1637231355.7941144,3ead1076-b691-4483-9bfe-081482d3330c
0.1646365295799988,0.1124663392516371,0.8604079529828411,0.2551707778821939,0.6733129801898462,-0.3403693106088326,0.506310857264132,0.4829308337742332,-8.419131359113669,24.50987771557625,5.690883741919088,-1.1384673496049609,0.4545114974911301,-2.802860870403828,-1.0,12.042666666666667,0.03,179.58786228751887,3.149488378421855,78.44192148112683,1525.0,1435.0,1000.0,1262.0,1475.0,1021.47,241.0,293.54999999999995,1637231355.901986,1637231357.0266306,3ead1076-b691-4483-9bfe-081482d3330c
0.1577230548852842,0.1024853832144123,0.8488316226851278,0.253721682065869,0.6634087257079184,-0.3281344467761719,0.497656276603118,0.4826010207084646,-8.473274850576162,24.58239716104981,5.771702157940765,-1.107815227144353,0.4161895337032704,-2.762442868904459,-1.0,12.044000000000002,0.04,179.58492075271636,3.153480197104904,78.45055559914763,1525.0,1435.0,1000.0,1262.0,1475.0,1021.47,241.0,293.54999999999995,1637231357.1342828,1637231358.149834,3ead1076-b691-4483-9bfe-081482d3330c
0.2468295741669047,0.1601166653938588,1.1107673303583534,0.2556775504988165,0.8942521463762287,-0.3996617236601185,0.748739921052224,0.7255653461525515,-6.700021544289129,25.04131977210173,5.847171130508021,-1.2559689851058191,0.6354946517113294,-3.783248055267528,-1.0,12.04,0.0366666666666666,179.56301405931836,3.13395659939705,78.40368456433329,1525.0,1435.0,1000.0,1173.0,1475.0,1021.47,241.0,293.54999999999995,1637231360.1906931,1637231361.327005,b1772ed3-062d-4d29-88f7-cf1f1642b1be
0.2248329021755861,0.1280119329287476,1.1007551464757015,0.280468320169264,0.8932386011224533,-0.3912931246813083,0.7427545255160002,0.7263049602572664,-6.7967396089313175,25.139880632285813,5.747994606472356,-1.29299519119565,0.5129606092599004,-3.763613209706039,-1.0,12.034666666666666,0.03,179.56758573260285,3.135765579741914,78.37434738402827,1525.0,1435.0,1000.0,1173.0,1475.0,1021.47,241.0,293.54999999999995,1637231361.4349034,1637231362.4478712,b1772ed3-062d-4d29-88f7-cf1f1642b1be
0.2401182607909261,0.1492689912870204,1.1132053176717969,0.2682509905742513,0.8994705347643844,-0.4014422767275483,0.7506711356232652,0.7208811235660734,-6.753840993701459,25.155277633636,5.744802308078189,-1.287499299489946,0.5947059200545222,-3.797859686479278,-1.0,12.035777777777778,0.03,179.55970521212043,3.1589779776362032,78.33217096590344,1525.0,1435.0,1000.0,1173.0,1475.0,1021.47,241.0,293.54999999999995,1637231362.556676,1637231363.5808628,b1772ed3-062d-4d29-88f7-cf1f1642b1be
-0.2228391251678076,-0.083052037305761,-0.3390818338627459,0.364263860006621,-0.4038391748065118,-0.1882964009530049,-0.7198325727495377,-0.7431989121791652,-16.494325011759887,24.78063922870182,5.05758683414654,-1.104923952320373,-0.3055025165882187,2.0157101891674625,-1.0,12.035,0.03,179.64370136071344,3.1555318151768468,78.49243831913816,1525.0,1435.0,1000.0,1617.0,1475.0,1021.47,241.0,293.54999999999995,1637231365.642108,1637231366.5832756,b40e7abd-e7fe-4981-b839-a3cb7668bdd1
-0.2287560391093737,-0.0812030018138535,-0.338260040190447,0.3579908366065818,-0.4028804154925631,-0.1814892107549161,-0.718312254097997,-0.7439385264580111,-16.680805717444,24.752913926714623,5.471763118420228,-1.075647605224502,-0.3000945080731489,2.011753377963958,-1.0,12.04288888888889,0.04,179.654444489368,3.163472716428764,78.4626101241228,1525.0,1435.0,1000.0,1617.0,1475.0,1021.47,241.0,293.54999999999995,1637231366.6906738,1637231367.6764746,b40e7abd-e7fe-4981-b839-a3cb7668bdd1
-0.2265371964099989,-0.0766557441342053,-0.3256865973808803,0.3561691944569751,-0.3931695535395271,-0.185420123409415,-0.7053005182884841,-0.7342139657802355,-16.405167547014614,24.751276328176942,5.404972457628223,-1.0796283923516194,-0.2833771177392656,1.9634953834711333,-1.0,12.051,0.04,179.66162377709554,3.1666007533411524,78.45520923470212,1525.0,1435.0,1000.0,1617.0,1475.0,1021.47,241.0,293.54999999999995,1637231367.7848065,1637231368.905042,b40e7abd-e7fe-4981-b839-a3cb7668bdd1
-0.3291468964557695,-0.1340859654762613,-0.6609674806154748,0.4400123973181498,-0.6933132855304259,-0.1894288325348928,-1.0681433695306983,-1.0928234899297808,-18.812974062226825,25.596263425963425,5.12612467657783,-1.2901159273863771,-0.5108256641834248,3.3372998123526885,-1.0,12.045666666666667,0.0366666666666666,179.6752841554356,3.1381644939604048,78.47338436808353,1525.0,1435.0,1000.0,1706.0,1475.0,1021.47,241.0,293.54999999999995,1637231369.8337042,1637231370.8410046,0fcba231-6fae-4062-84f3-832b27e3ff19
-0.3397529653622631,-0.1342086866482441,-0.6618687145131444,0.4377869806595787,-0.6943980534097657,-0.1883511871793641,-1.0674651153946682,-1.0885030444456631,-18.70578278380985,25.526662290411394,4.9704097067719895,-1.283151453906572,-0.5104488362510178,3.338889639919691,-1.0,12.040333333333333,0.03,179.69245980446846,3.1340420479094786,78.42739670440184,1525.0,1435.0,1000.0,1706.0,1475.0,1021.47,241.0,293.54999999999995,1637231370.9486494,1637231371.97695,0fcba231-6fae-4062-84f3-832b27e3ff19
-0.336470721476762,-0.1346513594395551,-0.659744651472695,0.4386054869294271,-0.6925506609358862,-0.1893499403923017,-1.0663419969073724,-1.0882345916859355,-18.74888170232825,25.596236879914407,4.885861379831942,-1.286710325213027,-0.5110196765535331,3.3316546819441752,-1.0,12.041111111111112,0.03,179.6897626386562,3.147214138871652,78.36726523676887,1525.0,1435.0,1000.0,1706.0,1475.0,1021.47,241.0,293.54999999999995,1637231372.0854504,1637231373.2066162,0fcba231-6fae-4062-84f3-832b27e3ff19
-0.4488597725557908,-0.1803113065665339,-0.97525982299981,0.5592617478321801,-0.9754926646316626,-0.2393708732987578,-1.4265754965580095,-1.4576941115827171,-21.13712304743108,26.910176050126697,4.604897566200477,-1.6795322586982078,-0.6977137430907844,4.652936949549864,-1.0,12.036777777777775,0.03,179.69515393464104,3.1149995516512865,78.27377360740974,1525.0,1435.0,1000.0,1795.0,1475.0,1021.47,241.0,293.54999999999995,1637231375.2423685,1637231376.3769372,351da6a1-be2f-485a-a89e-6cf26db1b1f5
-0.4511197052402728,-0.1945009425829142,-0.981436974833401,0.5648362466471145,-0.9778073845809256,-0.2332896006758737,-1.4302735714279884,-1.4489556978015503,-21.234410797748623,26.92582989806997,4.185216861074664,-1.6787612120750983,-0.747602980226023,4.667440637745744,-1.0,12.031,0.03,179.7005148742296,3.129785630543896,78.16407469806006,1525.0,1435.0,1000.0,1795.0,1475.0,1021.47,241.0,293.54999999999995,1637231376.4903076,1637231377.5071409,351da6a1-be2f-485a-a89e-6cf26db1b1f5
-0.4427237129537635,-0.1801743409504844,-0.9659598541210108,0.5585769199612632,-0.9671514554559512,-0.2389325834427826,-1.4163304600575075,-1.4469696951641209,-21.029137899481213,26.91475694121255,4.671213380844222,-1.676444187238272,-0.6978781233854446,4.614490028136236,-1.0,12.031777777777778,0.03,179.70619455597944,3.137989612658531,78.06563952956168,1525.0,1435.0,1000.0,1795.0,1475.0,1021.47,241.0,293.54999999999995,1637231377.6150303,1637231378.7357037,351da6a1-be2f-485a-a89e-6cf26db1b1f5
-0.5033309993351381,-0.21033416585573092,-1.1447548519958979,0.6414958776871988,-1.1263055736267127,-0.28032358874062363,-1.6239705294475684,-1.6477614827490765,-22.32267858755371,27.77433680342733,3.9498592851894325,-1.9604708180326098,-0.8169762676960426,5.365419071540342,-1.0,12.005,0.08000000000000002,179.69955409428636,3.107766476183982,77.90050225144871,1525.0,1435.0,1000.0,1883.0,1475.0,1021.4699999999999,241.0,293.54999999999995,1637231379.8514817,1637231380.9848049,ab5489c8-a458-42c6-a0ac-e63ff8dc2ab6
-0.5162528840852703,-0.22256355036090156,-1.1699275031950356,0.6495762986060832,-1.147916568592465,-0.2740407025007189,-1.6490664933653327,-1.6742725777287384,-22.466330960781388,27.906038722312637,4.0029665455581265,-1.9650239910052665,-0.8648862981654086,5.463409911536846,-1.0,11.98977777777778,0.1,179.70376149081508,3.115645217971265,77.57341967029498,1525.0,1435.0,1000.0,1883.0,1475.0,1021.4699999999999,241.0,293.54999999999995,1637231381.093505,1637231382.2177134,ab5489c8-a458-42c6-a0ac-e63ff8dc2ab6
-0.5224924899957474,-0.23090639907083613,-1.1682033785732326,0.6579591395066279,-1.1436865196246186,-0.27311919792433614,-1.6469122950053772,-1.6757435896368307,-22.530339424487497,27.95070065290327,4.083932014831695,-1.9815002770818513,-0.8973636613740584,5.451346258703588,-1.0,11.990666666666666,0.08666666666666667,179.709061717611,3.1031460429379454,77.34750281548781,1525.0,1435.0,1000.0,1883.0,1475.0,1021.4699999999999,241.0,293.54999999999995,1637231382.3260849,1637231383.3343277,ab5489c8-a458-42c6-a0ac-e63ff8dc2ab6
