raw_voltage_G-,raw_voltage_G0,raw_voltage_G1,raw_voltage_G2,raw_voltage_G3,raw_voltage_G4,raw_voltage_G5,raw_voltage_G6,load_x,load_y,load_z,load_l,load_m,load_n,rpm,voltage,current,roll,pitch,yaw,aileron1_pwm,elevator_pwm,throttle_pwm,rudder_pwm,aileron2_pwm,pbaro,pdiff,Tt,sample_start_time,sample_end_time,uid
0.0662267579063472,0.2125333930160834,-0.0595350454495291,-0.0733411778254716,-0.1134583993788812,0.4216798287193652,-0.1624372965936731,-0.1794210306189515,-12.557955605394364,9.074356658185032,79.00374357199024,1.1764734646549584,0.191212939167149,0.5909583114554011,-1.0,12.045222222222224,0.03,178.20164807470812,-10.793713035515392,102.24210572372886,1525.0,1435.0,1000.0,1528.0,1475.0,1021.47,244.0,294.13,1637232439.6936834,1637232440.628825,2f7fd237-0daf-4176-995d-23219d25a7e6
0.0747323207764183,0.2181352852714604,-0.0602746594295927,-0.0653012974346547,-0.1126092124623478,0.4068875467475729,-0.1659573120195554,-0.1883785804744151,-12.570162683819198,8.892982731067406,78.7196691248929,1.123806626230046,0.2137877394776733,0.5962351799157132,-1.0,12.0455,0.035,178.36612813684087,-10.840714460538273,103.03191123330868,1525.0,1435.0,1000.0,1528.0,1475.0,1021.47,244.0,294.13,1637232440.7464316,1637232441.9681644,2f7fd237-0daf-4176-995d-23219d25a7e6
0.0725545679535045,0.2188338097411236,-0.0560150296381655,-0.0650273658261987,-0.1081578307184172,0.405106994409582,-0.1622318479477942,-0.1851187994089202,-12.625993485933378,8.879489440136366,78.63096350327685,1.1192679732648496,0.2178250654504182,0.5789899317312991,-1.0,12.0478,0.031,178.542916655204,-10.84953445456824,103.67904365339182,1525.0,1435.0,1000.0,1528.0,1475.0,1021.47,244.0,294.13,1637232442.077047,1637232443.0832136,2f7fd237-0daf-4176-995d-23219d25a7e6
0.2190222743632545,0.4766315131379084,-0.0165234669990321,-0.2052993110635712,-0.1359925266736492,0.2803083439070661,-0.1737555853622721,-0.1964765346222245,-11.751403877792548,8.391620914518994,78.54514397801309,1.154406726601845,1.1990594383118418,0.6101322357307023,-1.0,12.044111111111112,0.03,178.78810177722374,-10.941087647781805,104.76446270999844,1576.0,1435.0,1000.0,1528.0,1515.0,1021.47,244.0,294.13,1637232444.6198208,1637232445.75243,6606ac84-2ff6-4396-9d30-0720bfffe5e5
0.2312428912217562,0.496517818741441,-0.0228556602085135,-0.2021984105158607,-0.1455083484569172,0.2646761885045512,-0.1866391176160919,-0.2107861526804444,-11.709090147187055,8.372667620244647,79.42428375850388,1.1120048092572172,1.2647703592720465,0.653778763130716,-1.0,12.037666666666668,0.03,178.93081630320142,-11.003605223028575,105.1869949080734,1576.0,1435.0,1000.0,1528.0,1515.0,1021.47,244.0,294.13,1637232445.8679173,1637232447.054984,6606ac84-2ff6-4396-9d30-0720bfffe5e5
0.2294097439604476,0.5095689943021292,-0.0186667045971909,-0.2161601355145222,-0.1457225626543502,0.264174894376224,-0.1845112199921624,-0.2019726901909324,-11.756821415833112,8.41275496321513,79.36738939382376,1.142813795239205,1.3165475106647293,0.646657549370086,-1.0,12.039222222222223,0.03,179.02907388678145,-11.074072094968122,105.4742870838524,1576.0,1435.0,1000.0,1528.0,1515.0,1021.47,244.0,294.13,1637232447.1637185,1637232448.1062107,6606ac84-2ff6-4396-9d30-0720bfffe5e5
0.40675058147033,0.8044712127248873,0.0363819563281783,-0.3694745044313877,-0.1775309054747564,0.0936198740611323,-0.2066634883730614,-0.2274548664903706,-10.966761007477688,9.111362647092148,76.24489026634727,1.112665708165663,2.467070826275009,0.6766850890219018,-1.0,12.036555555555555,0.03,179.20128572305464,-11.147596899517325,106.05157087795232,1627.0,1435.0,1000.0,1528.0,1556.0,1021.47,244.0,294.13,1637232450.1403737,1637232451.1833572,5d83fbe9-73ba-4ab5-8c05-e3e15e6188ab
0.4623586046560895,0.8994020520882046,0.0446409811623493,-0.4275753174286327,-0.1927477834700502,0.0484897132354004,-0.2145527075433877,-0.2390832462558949,-10.630341352308202,8.69716032197539,75.45161044386815,1.1400217489907816,2.835438921991134,0.707649253530518,-1.0,12.03433333333333,0.03,179.25226321938004,-11.161716418351554,106.20285501460866,1627.0,1435.0,1000.0,1528.0,1556.0,1021.47,244.0,294.13,1637232451.291185,1637232452.3006487,5d83fbe9-73ba-4ab5-8c05-e3e15e6188ab
0.4654814197309296,0.8976625892818584,0.0389706060357887,-0.4298763395279021,-0.1975004896694103,0.0605563816000301,-0.2174563777019351,-0.2422608478445706,-10.681310710448145,8.660986006203338,76.59048768805424,1.1719614422837834,2.8191050072204766,0.7273410019714136,-1.0,12.035444444444444,0.03,179.32826956446394,-11.18470370459445,106.33748107878924,1627.0,1435.0,1000.0,1528.0,1556.0,1021.47,244.0,294.13,1637232452.4088326,1637232453.640995,5d83fbe9-73ba-4ab5-8c05-e3e15e6188ab
0.5950919416767251,1.1258472408628897,0.0817723515727648,-0.5422840242310499,-0.2227021599538994,-0.0545084089965101,-0.23139947578269,-0.2600389831622218,-9.895442082085262,9.312158199857423,77.40083171911141,1.1739323908597925,3.678756179935096,0.7512251058787855,-1.0,12.033222222222223,0.03,179.40095643761117,-11.282937951694771,106.54957742526582,1678.0,1435.0,1000.0,1528.0,1596.0,1021.47,244.0,294.13,1637232455.667636,1637232456.713536,67fa2f4a-aee7-4097-907b-4144290bb2ab
0.6269090442053099,1.171415689662365,0.0794439365297573,-0.5674720023738827,-0.2368507067036719,-0.0736972881025789,-0.24156232362265,-0.2573133675964774,-9.64672915517472,9.187433781205996,77.67489620362473,1.1868564554204444,3.848427667640288,0.7940441543386495,-1.0,12.027333333333337,0.03,179.43345903114155,-11.319153132493998,106.57743321343088,1678.0,1435.0,1000.0,1528.0,1596.0,1021.47,244.0,294.13,1637232456.8223546,1637232457.9424226,67fa2f4a-aee7-4097-907b-4144290bb2ab
0.6208414693390087,1.1824140259862383,0.0878399270941245,-0.579839998841635,-0.2306598612083834,-0.0751217303773942,-0.2344538086685992,-0.2598883209489204,-9.812074741860217,9.10136962226037,77.44707876971465,1.2112827016843273,3.894921097900859,0.7648670608251372,-1.0,12.027666666666669,0.03,179.44742752690414,-11.333760250943977,106.58527199386832,1678.0,1435.0,1000.0,1528.0,1596.0,1021.47,244.0,294.13,1637232458.05137,1637232459.1711657,67fa2f4a-aee7-4097-907b-4144290bb2ab
0.7984995137392384,1.469521293220023,0.1165753066238255,-0.7331456339515877,-0.2843914672712399,-0.2205654969391849,-0.27483126814743,-0.3005671054004767,-8.984828967496457,9.55934632235113,76.63955042452976,1.23502559366686,4.993754612754061,0.8890182783141055,-1.0,12.019333333333334,0.03,179.39412169498175,-11.316088654286384,106.5500927250932,1729.0,1435.0,1000.0,1528.0,1636.0,1021.47,244.0,294.13,1637232460.2859876,1637232461.4202092,2bed07c2-13e1-4521-8b5f-92024c94ec66
0.7839691100324798,1.4628362765547624,0.1136091798217418,-0.7227400804383055,-0.2863215867703444,-0.2203151242881293,-0.2791686954062767,-0.3031387717045115,-8.998707862887438,9.749851315462834,77.07552263918267,1.2132935326067522,4.96345000433358,0.9016752573074244,-1.0,12.012999999999998,0.03,179.4165565896755,-11.337506135385034,106.3908104369188,1729.0,1435.0,1000.0,1528.0,1636.0,1021.47,244.0,294.13,1637232461.5284426,1637232462.6536973,2bed07c2-13e1-4521-8b5f-92024c94ec66
0.8076488140549998,1.497585544285286,0.1226017919735322,-0.7669487557219066,-0.2902946854770518,-0.2189082131717206,-0.2706675145914965,-0.2993892015762712,-8.715662220406182,9.657956713607955,76.39598107270058,1.3160517367344264,5.103811877337881,0.8858192326231346,-1.0,12.014777777777775,0.03,179.41485359584243,-11.331981935302572,106.30072100067623,1729.0,1435.0,1000.0,1528.0,1636.0,1021.47,244.0,294.13,1637232462.7627604,1637232463.882064,2bed07c2-13e1-4521-8b5f-92024c94ec66
-0.1188334768503412,-0.0999387992496436,-0.130956575617715,0.1173565581135764,-0.0978613051756004,0.5426905570679288,-0.1750573063141478,-0.2051546747688297,-13.39967682335008,9.261184295584751,77.32507149013743,1.015224254346543,-0.9879157878359858,0.6458680733078908,-1.0,12.0158,0.03,179.81555165230665,-11.355086188535,106.12815961049948,1474.0,1435.0,1000.0,1528.0,1435.0,1021.47,244.0,294.13,1637232465.7031145,1637232466.7478874,4ee6be83-acab-4211-be11-4d84e38c5bfd
-0.1074730026294639,-0.0849558591969557,-0.1166907872002189,0.1117815109390297,-0.0906947175393673,0.5268009069073879,-0.1669708576031942,-0.1975141861101456,-13.203949025164926,9.49370696501765,76.50611395455313,0.9943137690584222,-0.9242528403683306,0.6057981348596457,-1.0,12.033,0.03,179.80579541009618,-11.355974113127104,106.05955309236236,1474.0,1435.0,1000.0,1528.0,1435.0,1021.47,244.0,294.13,1637232466.856025,1637232467.978492,4ee6be83-acab-4211-be11-4d84e38c5bfd
-0.0981111304091336,-0.0706172052555232,-0.1208978225231726,0.1023407469237586,-0.096454394793543,0.5209952100906858,-0.1734400168034876,-0.1965028320016948,-13.329496978912005,9.319226558586656,76.4039050240506,1.0011180194366776,-0.867787000093308,0.6300802357534814,-1.0,12.033111111111111,0.03,179.783141949349,-11.373617630118108,106.02669381117532,1474.0,1435.0,1000.0,1528.0,1435.0,1021.47,244.0,294.13,1637232468.0871632,1637232469.2072709,4ee6be83-acab-4211-be11-4d84e38c5bfd
-0.2622304323295277,-0.3529016638918369,-0.1610539436713875,0.2455420974583004,-0.0677255876744633,0.6686150610562906,-0.1574517485763329,-0.1837491434234307,-14.185932961112345,10.187050330633872,76.71647654268277,1.0131844923441318,-1.9433961351901727,0.5895087994858502,-1.0,12.023333333333332,0.03,179.82598544928274,-11.363882049229902,105.93482776683864,1423.0,1435.0,1000.0,1528.0,1394.0,1021.47,244.0,294.13,1637232470.209653,1637232471.3487575,bba25c54-4d21-4937-bd09-12c5500f9a1c
-0.2577105674687326,-0.3422594361641823,-0.1569586724068074,0.2431588965418263,-0.0668627045897187,0.6553704901844856,-0.1567669206769455,-0.1877348423148149,-14.03854218556306,10.182696432572923,76.02212727082072,0.9889366546562508,-1.897817538825043,0.5821685239228581,-1.0,12.019666666666666,0.03,179.84432678393398,-11.333897518773547,105.75674576242872,1423.0,1435.0,1000.0,1528.0,1394.0,1021.47,244.0,294.13,1637232471.4577296,1637232472.4827845,bba25c54-4d21-4937-bd09-12c5500f9a1c
-0.2557108696395511,-0.3446700307781707,-0.1570682449006457,0.240268922831226,-0.0673557807372167,0.6591370434290229,-0.1575339279643428,-0.178160946860804,-14.173758281913152,10.31515796527737,75.83935281661324,1.004695123240362,-1.9039306648209773,0.5833577922331173,-1.0,12.021333333333336,0.03,179.8278948666107,-11.321597960761908,105.61798515707056,1423.0,1435.0,1000.0,1528.0,1394.0,1021.47,244.0,294.13,1637232472.5921638,1637232473.6002896,bba25c54-4d21-4937-bd09-12c5500f9a1c
-0.4493254556925989,-0.6814411040275327,-0.1988701452739933,0.406613615836322,-0.0249786267687938,0.8274403394218335,-0.1321268097045578,-0.1579174316411108,-15.350906896680437,11.118313833611657,74.56575059993055,1.0101094243585034,-3.17052446050078,0.5042048945065454,-1.0,12.0074,0.03,179.8551339645847,-11.315382981908636,105.31282353682104,1372.0,1435.0,1000.0,1528.0,1354.0,1021.47,244.0,294.13,1637232475.7384417,1637232476.7837486,716620e8-4453-47f2-942e-e0b2f35235f5
-0.439845791514084,-0.6673577493154775,-0.1838800822704846,0.395819632636778,-0.0160764113474759,0.8202858057787934,-0.1161379941000048,-0.1402001098679337,-14.84768057523192,11.007942215038,74.21548767974846,1.018593029174888,-3.115883269895781,0.4503946292897873,-1.0,12.0104,0.03,179.87611903779063,-11.316995248062216,105.00486669959916,1372.0,1435.0,1000.0,1528.0,1354.0,1021.47,244.0,294.13,1637232476.8922474,1637232478.0125434,716620e8-4453-47f2-942e-e0b2f35235f5
-0.4469696470908098,-0.6854541972268716,-0.1869541380984566,0.4160231508007743,-0.0142542211125307,0.8207427228788114,-0.1233199219563955,-0.1437962785207154,-15.291748398705408,11.392585785423185,74.36269214544107,0.9762423098736008,-3.184593459653436,0.4600552328098359,-1.0,12.011777777777777,0.03,179.87634215730353,-11.28841244317828,104.7793236838126,1372.0,1435.0,1000.0,1528.0,1354.0,1021.47,244.0,294.13,1637232478.121178,1637232479.240372,716620e8-4453-47f2-942e-e0b2f35235f5
-0.5733708369879833,-0.9044682970716068,-0.2122549716352378,0.5147232827591083,0.0104313607299956,0.9213072303295304,-0.1108522179198698,-0.1361634598927143,-16.168814064597342,12.347338069785394,71.01838807839553,0.9836756314032368,-3.983921200561908,0.4118116811735092,-1.0,11.985111111111111,0.11,179.9040165660006,-11.26711012665813,104.36855155366857,1321.0,1435.0,1000.0,1528.0,1314.0,1021.47,244.0,294.13,1637232481.1759255,1637232482.1970727,605b5644-7e78-44f5-9733-8796c533a32c
-0.5665598102637097,-0.8986171241169858,-0.2047339164933095,0.5109496072692337,0.016992560297677,0.9267244928186736,-0.100846059401483,-0.1301545052893362,-16.059702639296543,12.206598171975804,72.17740599225391,1.0040426255074504,-3.972081326713917,0.3808200901060157,-1.0,11.985888888888889,0.1055555555555555,179.90831503171827,-11.290082424430343,104.01391143594353,1321.0,1435.0,1000.0,1528.0,1314.0,1021.47,244.0,294.13,1637232482.305362,1637232483.426343,605b5644-7e78-44f5-9733-8796c533a32c
-0.5725556174927139,-0.907387309228299,-0.2142667223047824,0.5042569214491411,0.009695033759664,0.94417281145797,-0.1041595310694659,-0.1280112676366415,-16.065795976293327,12.087475296626566,72.51192399809145,1.0571342935751045,-4.0076788870415285,0.4078680881461732,-1.0,11.988,0.09,179.88651458570743,-11.293348108627256,103.74957628487488,1321.0,1435.0,1000.0,1528.0,1314.0,1021.47,244.0,294.13,1637232483.5353124,1637232484.7714417,605b5644-7e78-44f5-9733-8796c533a32c
0.0686406393948408,0.2192195047743291,-0.0824773297782116,-0.0315392791505329,-0.1251185541527174,0.3860633007200442,-0.1900336728499516,-0.2219587109023089,-12.5899359942706,8.340858427039985,80.15767146615765,0.9963065524358856,0.1996754723079917,0.6804858158325711,-1.0,12.047,0.04,179.54804683811713,-11.28199121158482,103.49554561253404,1525.0,1435.0,1000.0,1528.0,1475.0,1021.47,244.0,294.13,1637232485.6905794,1637232486.832909,d92349f9-3803-4c0e-b409-17e7d306c347
0.0670211583399198,0.2125881793231386,-0.087818440068174,-0.023293950455023,-0.1268262412479438,0.3882191389676909,-0.1919533826452525,-0.2110189940851868,-12.47909500347374,8.14345072407358,80.59338287874323,0.9811022257132804,0.1688006432500821,0.6928684971921436,-1.0,12.049,0.03,179.43536966272538,-11.234486562888462,103.81441527066582,1525.0,1435.0,1000.0,1528.0,1475.0,1021.47,244.0,294.13,1637232486.941222,1637232487.9363687,d92349f9-3803-4c0e-b409-17e7d306c347
0.0480788178058347,0.1827022896673202,-0.0919137112563414,-0.0096521774913451,-0.1265112203002748,0.392355499393188,-0.1960760470968703,-0.2122105948901772,-12.666788269081934,8.57114066965273,78.76968341247836,0.961870785240712,0.0722702764690189,0.6975159874494542,-1.0,12.049666666666669,0.04,179.35182005672212,-11.21286021081044,104.08492567165406,1525.0,1435.0,1000.0,1528.0,1475.0,1021.47,244.0,294.13,1637232488.0447848,1637232489.1639287,d92349f9-3803-4c0e-b409-17e7d306c347
0.0600676894551048,0.1690177844506351,-0.1287212971202253,-0.5458243108245864,-0.2166071904171335,0.9162318341551272,-0.0885125817165084,-0.1038439624402413,-12.854019967145607,7.764493147045001,81.43076212925392,3.3417136361875306,0.062352349132414,0.714851601667992,-1.0,12.037555555555556,0.03,179.2403164596118,-11.045130116997578,104.47856768735969,1525.0,1521.0,1000.0,1528.0,1475.0,1021.47,244.0,294.13,1637232490.1938922,1637232491.3236449,9d674bf9-02dd-490a-9506-07b5eb4d5d50
0.0743077274272192,0.1920433421863622,-0.1313324094018295,-0.5536384733429419,-0.2236198293458574,0.9006484387950241,-0.0955980859005289,-0.1196218511384379,-12.72993888196227,7.595252311725083,81.36385848487026,3.323122362771405,0.1492206298083894,0.7408300014232122,-1.0,12.042777777777776,0.03,179.26545459139706,-11.026140483557649,104.55671036383396,1525.0,1521.0,1000.0,1528.0,1475.0,1021.47,244.0,294.13,1637232491.431502,1637232492.4409246,9d674bf9-02dd-490a-9506-07b5eb4d5d50
0.0684729935332119,0.1857018359159515,-0.1353318046740796,-0.5504334791249604,-0.2246333747227145,0.9141532447953332,-0.0957350514264914,-0.1177728155221826,-12.80819082502345,7.515245750754619,82.80450052028357,3.345700523610896,0.1125720991136584,0.7491279026471241,-1.0,12.040555555555557,0.03,179.2364095914065,-11.000619766315111,104.6434704623111,1525.0,1521.0,1000.0,1528.0,1475.0,1021.47,244.0,294.13,1637232492.5486724,1637232493.577381,9d674bf9-02dd-490a-9506-07b5eb4d5d50
0.0914273297940744,0.1841124872144396,-0.1678386714865164,-1.1181610483623543,-0.3218493691850018,1.474328239154336,0.0172949800978128,-0.0063200786240148,-13.015296214482852,7.332678781378837,88.20824306599616,5.883071086671716,0.128019239509058,0.7673007558306979,-1.0,12.0288,0.03,179.21704949609511,-10.835939731421613,104.8235811846865,1525.0,1607.0,1000.0,1528.0,1475.0,1021.47,244.0,294.13,1637232495.71696,1637232496.7523737,a4abe9e2-1316-459d-8cba-0df9d9a18707
0.1024064910301448,0.1908183220884278,-0.1648276197844774,-1.1064324013915212,-0.3196272390262883,1.448885509322711,0.0122458808692511,-0.0174570247247666,-13.050734916155475,7.436189960714181,87.05254311756491,5.800074975731526,0.1624125559255754,0.76657554643957,-1.0,12.029,0.03,179.2397730801178,-10.837127330563543,104.78307042202728,1525.0,1607.0,1000.0,1528.0,1475.0,1021.47,244.0,294.13,1637232496.8603156,1637232497.97297,a4abe9e2-1316-459d-8cba-0df9d9a18707
0.1086313028772451,0.2058357762082282,-0.161382661156804,-1.1071166820930305,-0.3201257939674102,1.4298971471771549,0.0088107837874951,-0.0133228552696313,-13.023424067664608,7.514315236125874,86.35477501247885,5.759541117380588,0.2250321076109581,0.7682635931320535,-1.0,12.032111111111112,0.03,179.236849759153,-10.823084651357478,104.7372292279578,1525.0,1607.0,1000.0,1528.0,1475.0,1021.47,244.0,294.13,1637232498.081935,1637232499.2054403,a4abe9e2-1316-459d-8cba-0df9d9a18707
0.1135209742203585,0.1787713775410705,-0.1920218653412176,-1.5915781276595684,-0.4047294514450179,1.9293148537153204,0.1050838941695241,0.0798959231018774,-13.386688190660331,7.876142931188046,90.41067294546856,7.975962362156071,0.1478592782388647,0.7859843931637908,-1.0,12.014,0.03,179.28773011501016,-10.669356540206875,104.63536758122576,1525.0,1693.0,1000.0,1528.0,1475.0,1021.47,244.0,294.13,1637232500.2231505,1637232501.361062,53a88250-5859-4b48-921e-312dfa58fd2c
0.1082204060823527,0.1639790946876191,-0.1921999206477305,-1.5732521099494212,-0.4001411035235094,1.9225076622729969,0.1048647491880442,0.0759239211012924,-13.38076954531772,7.896112916210373,89.78010285905877,7.919352668274814,0.0956587858471478,0.7777670181356707,-1.0,12.013666666666666,0.03,179.31846596627523,-10.67268682660969,104.43038222058506,1525.0,1693.0,1000.0,1528.0,1475.0,1021.47,244.0,294.13,1637232501.4694357,1637232502.4763658,53a88250-5859-4b48-921e-312dfa58fd2c
0.1106994831915048,0.1860990360798594,-0.1946105152851146,-1.5958651560469683,-0.4094684617888882,1.922384392706619,0.0984821529421391,0.0710890360710901,-13.499552565313806,7.969976471080922,89.84935781499718,7.970406023072301,0.1814815107827005,0.8053071173279002,-1.0,12.013222222222222,0.03,179.3530373482142,-10.666857639608038,104.25623592295686,1525.0,1693.0,1000.0,1528.0,1475.0,1021.47,244.0,294.13,1637232502.5847676,1637232503.529418,53a88250-5859-4b48-921e-312dfa58fd2c
0.1209330037067879,0.157723054793171,-0.2018280544879833,-1.9881455932544208,-0.4640131010360368,2.3415770854644915,0.1969982090268576,0.1726862705737857,-13.5104176303878,8.604184510646432,94.4781854950724,9.80185378146607,0.0819573662486505,0.7485589316824637,-1.0,11.991,0.08,179.382870096689,-10.559752494595685,103.92653965608072,1525.0,1780.0,1000.0,1528.0,1475.0,1021.47,244.0,294.13,1637232505.1425006,1637232506.162937,cbed904e-846c-4549-995d-d10e070e4a2d
0.126217683786726,0.1595551064514888,-0.1998289046637626,-1.9782462506960947,-0.4615290925772237,2.34026659719873,0.1992477316825226,0.1734982025546791,-13.345027067946091,8.559745444511272,95.85812382409574,9.776686623816644,0.0743348823350005,0.7416363785009631,-1.0,11.994222222222222,0.0822222222222222,179.4301258988266,-10.524424574342392,103.63791028104424,1525.0,1780.0,1000.0,1528.0,1475.0,1021.47,244.0,294.13,1637232506.2721767,1637232507.2989435,cbed904e-846c-4549-995d-d10e070e4a2d
0.1216978195555213,0.1585689542226871,-0.2078550886397089,-2.0270334789035145,-0.4711714719472026,2.390135799992247,0.2061781901197196,0.1876467469960886,-13.52175725855816,8.230850026837908,96.42392522578014,9.996222707736344,0.0723647381125597,0.7561050345259558,-1.0,11.994333333333332,0.0866666666666666,179.45925893236642,-10.487196248816284,103.3543792627682,1525.0,1780.0,1000.0,1528.0,1475.0,1021.47,244.0,294.13,1637232507.4064534,1637232508.7330627,cbed904e-846c-4549-995d-d10e070e4a2d
0.028342076789123,0.2016583259638578,-0.0399078760753709,0.5627269767930886,-0.0221571356048766,-0.1687788036860766,-0.3028818238830936,-0.3353015835463955,-12.496443986512704,9.832744671240784,76.34193919575135,-1.5795684367866007,0.0965244820832295,0.6400505195491517,-1.0,12.048333333333334,0.04,179.4059606895431,-11.3069663674674,103.07502224898498,1525.0,1349.0,1000.0,1528.0,1475.0,1021.47,244.0,294.13,1637232509.7364357,1637232510.8720372,5b6e8ea2-abbb-4aa0-8277-c580c57f2788
0.0251781716976587,0.1957551094590756,-0.0464548314966628,0.5541529319174078,-0.0260880482652968,-0.1570682451277578,-0.3036899214794519,-0.333206009780876,-12.540140484362444,9.58970019061744,76.03707008796445,-1.5359200630004206,0.0780316358495528,0.6543290775241967,-1.0,12.047999999999998,0.04,179.32607479701062,-11.282083703729828,103.47821286915024,1525.0,1349.0,1000.0,1528.0,1475.0,1021.47,244.0,294.13,1637232510.97974,1637232512.0100918,5b6e8ea2-abbb-4aa0-8277-c580c57f2788
0.0078109352004968,0.163225783983607,-0.0592748106579554,0.5545227389853108,-0.0341279281956073,-0.1392216279331294,-0.3130446721916787,-0.3351783144526627,-12.87028194273015,9.958363476462347,74.0046859912468,-1.4953351198751774,-0.0244754804871413,0.6888924092650924,-1.0,12.050777777777776,0.0388888888888888,179.23749483257464,-11.266957490902929,103.840286509422,1525.0,1349.0,1000.0,1528.0,1475.0,1021.47,244.0,294.13,1637232512.1186905,1637232513.2489436,5b6e8ea2-abbb-4aa0-8277-c580c57f2788
0.004159432619294,0.1982867811887327,-0.0037823801779663,0.9613450076235366,0.0458933947827621,-0.5696497564805875,-0.3914848768880782,-0.4199518099877609,-13.02784470550742,11.907212136856058,70.84548642966435,-3.36515656442661,0.0896021189581792,0.6183839577543796,-1.0,12.04411111111111,0.03,179.10492541424412,-11.40019987259415,104.57571878029414,1525.0,1262.0,1000.0,1528.0,1475.0,1021.47,244.0,294.13,1637232515.1736667,1637232516.3111827,9cab5c98-cbdd-41a7-a1a6-9b55734f483f
-0.0246225162136232,0.1309703893860938,-0.0133776415105908,0.9686518473160404,0.0419153662231788,-0.5117406902753397,-0.3903343656957458,-0.4199737247248772,-13.300855997398202,12.99517524745916,70.61371178933142,-3.2449495148744423,-0.1603782243487259,0.6261979264739973,-1.0,12.044555555555554,0.03,179.10615333047494,-11.43094625373418,104.769864630722,1525.0,1262.0,1000.0,1528.0,1475.0,1021.47,244.0,294.13,1637232516.4198165,1637232517.5418108,9cab5c98-cbdd-41a7-a1a6-9b55734f483f
-0.0342347613442231,0.1318464212320793,-0.0173912811512447,0.9724162091363636,0.0418172987776806,-0.5125581008302255,-0.3932862488300809,-0.4200832970074579,-13.47999029950033,12.71281642021557,71.08955544706316,-3.257363786179412,-0.1607647995668313,0.6368061372577061,-1.0,12.04388888888889,0.03,179.11812589318004,-11.399527668143335,104.99098896946154,1525.0,1262.0,1000.0,1528.0,1475.0,1021.47,244.0,294.13,1637232517.6499798,1637232518.86028,9cab5c98-cbdd-41a7-a1a6-9b55734f483f
-0.0397846071859998,0.1482554457785408,0.019795423765059,1.4165293063989044,0.1054537009920427,-0.9561942058260158,-0.4979345550052792,-0.5183698252742961,-13.511938805648107,15.335358549920892,68.1559543754986,-5.23733060523433,-0.1252723376129514,0.6490816258061067,-1.0,12.035333333333334,0.03,179.11703002727324,-11.541737139577402,105.19269583930064,1525.0,1176.0,1000.0,1528.0,1475.0,1021.47,244.0,294.13,1637232519.6788142,1637232520.7264123,0494cbaa-80db-426a-aa6a-526431898d19
-0.0474135904232977,0.1467488244346461,0.018480554339451,1.4474561370356769,0.1096174549240502,-0.9679732524262482,-0.5042349729963128,-0.532764912201233,-13.720885105793291,15.329384601277718,70.29066234768133,-5.333433015706298,-0.1522552878550464,0.6571292229892473,-1.0,12.035666666666666,0.03,179.15394947646686,-11.537948851045243,105.2836322190003,1525.0,1176.0,1000.0,1528.0,1475.0,1021.47,244.0,294.13,1637232520.835666,1637232522.0480506,0494cbaa-80db-426a-aa6a-526431898d19
-0.0493858949152295,0.1517069785028944,0.0216855486139306,1.4477437647204978,0.1107542688176479,-0.9683019694835464,-0.5022352757275109,-0.5301762621971394,-13.643450518716866,15.413033386704983,70.99040179077208,-5.333955878077788,-0.1402398465170257,0.6499741392919492,-1.0,12.036,0.03,179.20561302734882,-11.583831785159669,105.3412903992438,1525.0,1176.0,1000.0,1528.0,1475.0,1021.47,244.0,294.13,1637232522.1564305,1637232523.1611693,0494cbaa-80db-426a-aa6a-526431898d19
0.0043829603087234,0.2596780410233446,0.0841561006040023,1.7480315398921047,0.174908400095452,-1.367631479708043,-0.5666650012145437,-0.5921077359964724,-13.560584530188896,16.763057221447617,68.5481817289093,-6.896965760607152,0.2527874564179024,0.5809306554375282,-1.0,12.02422222222222,0.03,179.14662296021717,-11.698472620965054,105.46554444171475,1525.0,1090.0,1000.0,1528.0,1475.0,1021.47,244.0,294.13,1637232524.1844766,1637232525.2099717,b9e55c14-db1a-4d20-a378-76174e89daae
-0.073642501292062,0.1271627460389572,0.0503798393164009,1.724140353739543,0.1571171186613362,-1.229070935771427,-0.5668145668730283,-0.5893591090951326,-14.476627687567126,18.078517109112525,66.51980428412243,-6.525454992562331,-0.2189418911427489,0.6311315434560961,-1.0,12.026666666666667,0.03,179.19293164278986,-11.693467135804555,105.50523542989164,1525.0,1090.0,1000.0,1528.0,1475.0,1021.47,244.0,294.13,1637232525.3179674,1637232526.5509803,b9e55c14-db1a-4d20-a378-76174e89daae
-0.0781212761249767,0.1192461351914448,0.0419564559017728,1.7260715701835838,0.1547065246800519,-1.2233183801721106,-0.5710194113900376,-0.5925914977988561,-14.681182411890807,17.744445505139353,66.44421503591202,-6.519633629468198,-0.2472936987346665,0.6508301306063174,-1.0,12.023,0.03,179.23262718442615,-11.70717930974579,105.52935434567074,1525.0,1090.0,1000.0,1528.0,1475.0,1021.47,244.0,294.13,1637232526.6583035,1637232527.7938335,b9e55c14-db1a-4d20-a378-76174e89daae
0.0309992091700371,0.1392842002097653,-0.0843395145450511,-0.028608215642854,-0.1197725137619006,0.4520040070738354,-0.1782842163215068,-0.1994317047298563,-12.99752022502697,9.501499350143014,78.80825881018923,1.1450533958380402,-0.0857451742826474,0.6467028659113059,-1.0,12.047,0.04,179.26428435231924,-11.14313650139809,105.56456017629262,1525.0,1435.0,1000.0,1528.0,1475.0,1021.47,244.0,294.13,1637232528.690087,1637232529.8280938,8c75aa42-d9cb-48c8-9893-a55cb43b92a6
0.0329715136065829,0.1461735690417092,-0.0824493889894285,-0.0421404159370941,-0.1226213977548816,0.452401207195423,-0.1776815673194473,-0.1946105153184788,-12.929303670893644,9.6460253610537,78.06085891107438,1.1774386806340045,-0.0519761075663234,0.6467978663410668,-1.0,12.048111111111112,0.04,179.2870880772282,-11.140064149500184,105.58940157430396,1525.0,1435.0,1000.0,1528.0,1475.0,1021.47,244.0,294.13,1637232529.936549,1637232531.056184,8c75aa42-d9cb-48c8-9893-a55cb43b92a6
0.024315288545993,0.1404484077410206,-0.0923930912479201,-0.0282658016455026,-0.1289081187293173,0.4478950399448936,-0.1860912553536632,-0.2084440410671853,-12.752767252181345,9.477005865658404,78.36931011346418,1.134537442807195,-0.0797737260619613,0.6809453491425094,-1.0,12.047444444444444,0.04,179.2958489332036,-11.13499093163042,105.64356725115188,1525.0,1435.0,1000.0,1528.0,1475.0,1021.47,244.0,294.13,1637232531.1645622,1637232532.1771328,8c75aa42-d9cb-48c8-9893-a55cb43b92a6
0.1070561986262644,0.1790316120198016,0.1694577178827532,-0.0478929707873585,0.1082751921845052,0.4152835364406784,0.0827311107486644,0.0598304649088533,-11.0104736104052,9.346737284001442,78.57358335832438,1.118613569499569,0.0698090140393826,-0.3757276611121418,-1.0,12.049,0.04,179.26803488508347,-11.131347594890649,105.71486987262738,1525.0,1435.0,1000.0,1439.0,1475.0,1021.47,244.0,294.13,1637232533.858617,1637232535.0416892,017e2d98-e0d9-4302-8ef2-c9080b206333
0.1091912181594646,0.1747111696202053,0.1699513417302302,-0.0564823567518205,0.1091912179565416,0.4241682194744715,0.0866017580419289,0.0637887702745895,-11.04899987593567,9.28973243223939,78.12838878816717,1.1575105162957804,0.058911019527437,-0.3843887026828229,-1.0,12.048555555555556,0.0377777777777777,179.293352119607,-11.127514625537671,105.73788761013031,1525.0,1435.0,1000.0,1439.0,1475.0,1021.47,244.0,294.13,1637232535.1507552,1637232536.266124,017e2d98-e0d9-4302-8ef2-c9080b206333
0.1333809837362224,0.2295719111294714,0.1712245738735888,-0.0755874132038653,0.1035361830361797,0.3932183822960755,0.0808546822160802,0.0583649331352722,-10.921208140853794,8.568841272407846,78.85955949546822,1.1265238300643172,0.259708060881052,-0.3623521575998015,-1.0,12.047999999999998,0.04,179.30015650584016,-11.162667806784697,105.76780611542468,1525.0,1435.0,1000.0,1439.0,1475.0,1021.47,244.0,294.13,1637232536.374602,1637232537.4981835,017e2d98-e0d9-4302-8ef2-c9080b206333
0.2224935300276376,0.2778363895587449,0.4463763657056745,-0.0788877358623029,0.3537175105706738,0.3372158978392211,0.3566891157003338,0.3300367102838442,-9.111149256397775,8.412948391353163,79.30239639058782,1.0217725070585095,0.4418400484150129,-1.463134359772715,-1.0,12.04625,0.03,179.3159035069716,-11.138555958354084,105.69725936821736,1525.0,1435.0,1000.0,1351.0,1475.0,1021.47,244.0,294.13,1637232538.1574855,1637232539.2494605,4912e6c4-81d8-4d0a-9add-9b9730932ae2
0.2276543930229896,0.2778248844180815,0.4542502426086301,-0.0839697074636436,0.3588400231015976,0.341226249891272,0.3642090736766559,0.3392539457267751,-9.080475638718264,8.609908570564023,79.262400677787,1.0439547905293949,0.4430624794139033,-1.4917129328977812,-1.0,12.045555555555556,0.03,179.30097461072074,-11.09076336975234,105.70303239588584,1525.0,1435.0,1000.0,1351.0,1475.0,1021.47,244.0,294.13,1637232539.358062,1637232540.47771,4912e6c4-81d8-4d0a-9add-9b9730932ae2
0.2187653269748913,0.2655390721242621,0.4561129744412429,-0.0729439768087183,0.3621271969679103,0.3405688152508721,0.3654280673166168,0.3397333252254306,-9.057855363759954,8.838754863462603,78.91017418721613,1.0191711409368935,0.3987093522654499,-1.5024296764698717,-1.0,12.047666666666666,0.0311111111111111,179.29549224554694,-11.143575910234697,105.6937699004614,1525.0,1435.0,1000.0,1351.0,1475.0,1021.47,244.0,294.13,1637232540.586422,1637232541.7069447,4912e6c4-81d8-4d0a-9add-9b9730932ae2
0.314074194227583,0.3095510429432861,0.7348850316049242,-0.0804261334899187,0.6123654918051223,0.2893546464885628,0.6448427683944408,0.6199654375128145,-7.0782138170286935,8.999129666013962,78.91722828597575,0.9369057346683134,0.5683036607785436,-2.614498891193364,-1.0,12.038888888888888,0.03,179.32809046172568,-11.123112663481336,105.58624754472724,1525.0,1435.0,1000.0,1262.0,1475.0,1021.47,244.0,294.13,1637232543.7328098,1637232544.8432891,cb3496ee-a7eb-4d3e-92c9-778a5b25a2fd
0.3136271385935752,0.3031081822288445,0.7299937170877366,-0.0930883286879487,0.606777296455276,0.3091565817591943,0.6444220101752113,0.6206886157487285,-7.136471161053518,9.093142285543502,79.15584598666088,1.010354515314661,0.5436869827558307,-2.600254483127076,-1.0,12.04311111111111,0.03,179.31806374402413,-11.102429048263506,105.5745671623366,1525.0,1435.0,1000.0,1262.0,1475.0,1021.47,244.0,294.13,1637232544.951586,1637232546.0027468,cb3496ee-a7eb-4d3e-92c9-778a5b25a2fd
0.3058069520037405,0.3046427445491082,0.7190183917784219,-0.1023367934875397,0.5928183131449786,0.3148329832517754,0.6344421506704704,0.6131303075832668,-6.9652798786811365,9.196945597585142,78.8831934402473,1.0441567558047604,0.5510920545965066,-2.552274919412247,-1.0,12.041666666666666,0.0322222222222222,179.32014771063086,-11.118515376987483,105.56614174454045,1525.0,1435.0,1000.0,1262.0,1475.0,1021.47,244.0,294.13,1637232546.1114757,1637232547.2314622,cb3496ee-a7eb-4d3e-92c9-778a5b25a2fd
0.3786589419921896,0.3275707820859883,0.967419156793942,-0.0642329652657263,0.8242353450299714,0.2460899598973239,0.8765972839352316,0.8567235791067692,-5.405831038913344,9.475724319757456,79.16928901227622,0.8187764522890283,0.6345736971432537,-3.546360132217436,-1.0,12.034333333333333,0.03,179.3483609453625,-11.120787648115115,105.4490313210314,1525.0,1435.0,1000.0,1173.0,1475.0,1021.47,244.0,294.13,1637232548.2385476,1637232549.3759823,cb52df5d-cae7-4ef7-8f49-68fa8fe474c3
0.3548680214141035,0.300054397601805,0.9550648622822558,-0.046961605478918,0.8156613003671783,0.25312999015701,0.8625720094161998,0.8361102603992561,-5.623094598009627,10.029391679048477,78.4915736663324,0.7984741538559662,0.5360145569558081,-3.5023857867736545,-1.0,12.034222222222224,0.03,179.34977403561075,-11.128523596260065,105.34593720460914,1525.0,1435.0,1000.0,1173.0,1475.0,1021.47,244.0,294.13,1637232549.4842618,1637232550.6014135,cb52df5d-cae7-4ef7-8f49-68fa8fe474c3
0.3739402039920212,0.3271965921642513,0.9627650664795716,-0.0351683190262505,0.8227972064946532,0.2164845758781157,0.8604287718156267,0.8374054067044234,-5.703954745189822,9.70309628584241,78.63223968439978,0.6877263373441578,0.6361704899003218,-3.515886480912025,-1.0,12.035666666666666,0.03,179.3497497504937,-11.116794643635336,105.29926424528072,1525.0,1435.0,1000.0,1173.0,1475.0,1021.47,244.0,294.13,1637232550.7095888,1637232551.7410638,cb52df5d-cae7-4ef7-8f49-68fa8fe474c3
-0.0778884345439704,0.1028376585355507,-0.3982509783308905,0.0505578945131048,-0.4005656972361153,0.4244191404004644,-0.5182876460924704,-0.5477763449678946,-14.90690190462953,9.69468476721407,77.66434983314042,0.8889936430414517,-0.2284333735715519,1.9343978051233155,-1.0,12.04588888888889,0.0377777777777777,179.3603532397252,-11.140824766955255,105.5212233849188,1525.0,1435.0,1000.0,1617.0,1475.0,1021.47,244.0,294.13,1637232552.7445352,1637232553.7892,5ab9fb0f-320f-4c89-b081-08ec61b7cf86
-0.0602198731547537,0.1311347481269772,-0.3925669052440396,0.0308622430709507,-0.4024558225499541,0.416995606159551,-0.5172741005470495,-0.5317102770558254,-14.900768515862213,9.656249869754117,77.99829621143341,0.9168250942753446,-0.1225206077096525,1.93152345692419,-1.0,12.046666666666669,0.04,179.34493977949816,-11.118825391684815,105.48017774255656,1525.0,1435.0,1000.0,1617.0,1475.0,1021.47,244.0,294.13,1637232553.8968906,1637232555.0182302,5ab9fb0f-320f-4c89-b081-08ec61b7cf86
-0.0474957698829193,0.1524191994278943,-0.3921560081789955,0.0231236873062368,-0.4021408013617963,0.4032442624381259,-0.5174521553843249,-0.5386544341748919,-14.884133115945655,9.098013963762078,78.00265379473485,0.8997091897967016,-0.0418779736972812,1.93354225921794,-1.0,12.047999999999998,0.034,179.33247149684132,-11.109671856750378,105.49714985195216,1525.0,1435.0,1000.0,1617.0,1475.0,1021.47,244.0,294.13,1637232555.1258602,1637232556.3390906,5ab9fb0f-320f-4c89-b081-08ec61b7cf86
-0.1474258666649201,0.0966742073529209,-0.6966168968670056,0.102686996009354,-0.6728122689192247,0.4014637100393754,-0.8466353701948975,-0.8664953904868766,-17.1889084422549,9.850047923104771,77.96371085070167,0.7048915509513402,-0.2633821922593876,3.1778841559394304,-1.0,12.040444444444445,0.03,179.3194100502005,-11.143084705796884,105.57903031150424,1525.0,1435.0,1000.0,1706.0,1475.0,1021.47,244.0,294.13,1637232557.3612854,1637232558.2915585,fbdbeab4-4fbf-494a-adda-1c4d7f26b80f
-0.1379204543271008,0.1176847278358619,-0.6905356229751588,0.0895382998527761,-0.673469704573446,0.3925335544705521,-0.8412937103597885,-0.8715631198297608,-16.75443381389209,9.704352159813112,77.94297148679208,0.7140369056043293,-0.1854693229490533,3.1656461458081515,-1.0,12.042333333333334,0.03,179.3245402811771,-11.14732834027371,105.52483579607984,1525.0,1435.0,1000.0,1706.0,1475.0,1021.47,244.0,294.13,1637232558.3996422,1637232559.5237982,fbdbeab4-4fbf-494a-adda-1c4d7f26b80f
-0.1334022333117037,0.1274021619672629,-0.6910254122552141,0.0819602679454056,-0.6754179038636344,0.3844986059033267,-0.8473108858453859,-0.8699266543892784,-17.127446534119358,9.768976826023072,77.13892703336477,0.7131635687304789,-0.1383536548737223,3.177222428074152,-1.0,12.039444444444444,0.03,179.35699278665354,-11.18665675924212,105.4431087881111,1525.0,1435.0,1000.0,1706.0,1475.0,1021.47,244.0,294.13,1637232559.6316452,1637232560.7528102,fbdbeab4-4fbf-494a-adda-1c4d7f26b80f
-0.2372637945508335,0.0755305560228675,-0.9536970446122466,0.1887802741744342,-0.9106350396242489,0.3516137192974283,-1.141460553877733,-1.1586722112209054,-18.64006754212829,10.928525332338303,77.07247127965142,0.3921425598576252,-0.3513929043094412,4.267486166887858,-1.0,12.032333333333334,0.03,179.33327836985526,-11.183006687176915,105.4577314642142,1525.0,1435.0,1000.0,1795.0,1475.0,1021.47,244.0,294.13,1637232562.6871102,1637232563.8250167,c3d2c5cb-d0e9-4ada-8981-115e7ce91589
-0.2301119986061364,0.0735681132558601,-0.9460039565245244,0.1959605576416265,-0.9002026387046467,0.3490880740352809,-1.1363999450494946,-1.169093655729097,-19.008847062500266,10.960202085946468,77.4304908915699,0.3707346270324156,-0.3597120544421358,4.235644664709481,-1.0,12.031444444444444,0.03,179.3433870498269,-11.193353285404624,105.31235164664037,1525.0,1435.0,1000.0,1795.0,1475.0,1021.47,244.0,294.13,1637232563.9332297,1637232565.0521672,c3d2c5cb-d0e9-4ada-8981-115e7ce91589
-0.2199080615330171,0.0861552502681069,-0.9379777693927682,0.1863318771281317,-0.8942309364781545,0.3411303738513984,-1.1280724324895122,-1.1521783934716427,-18.884226801057533,10.686897728212214,76.8579951982035,0.3731319108559854,-0.3066209753539037,4.205544294451971,-1.0,12.028,0.03,179.33490850833718,-11.200862224623409,105.2511182418213,1525.0,1435.0,1000.0,1795.0,1475.0,1021.47,244.0,294.13,1637232565.1603029,1637232566.1689174,c3d2c5cb-d0e9-4ada-8981-115e7ce91589
-0.2935407697610198,0.05546126241423871,-1.1528769183369323,0.27829056727096746,-1.088694797022758,0.3209553444882553,-1.3738163003071744,-1.4035926484809735,-20.433991505131157,11.898333362355254,79.97071175029079,0.11740593433392255,-0.4632861642713091,5.11313075995494,-1.0,11.998555555555557,0.060000000000000005,179.3576439313544,-11.218167552386758,105.0667456331858,1525.0,1435.0,1000.0,1883.0,1475.0,1021.4699999999999,244.0,294.13,1637232568.1366928,1637232569.2412674,cbcaf99b-1165-4ad0-8e9e-8078c0c66a75
-0.2907395490736647,0.06464343542030852,-1.1611047230367775,0.24922482774078517,-1.1028822520902453,0.3350595115257537,-1.3765988983554502,-1.3990568926035132,-20.10090138998812,11.79521893443027,79.40728194769143,0.2136496754875963,-0.42315603165002114,5.1479685995718025,-1.0,11.997555555555554,0.060000000000000005,179.40891133126453,-11.24655192130256,104.75885208905022,1525.0,1435.0,1000.0,1883.0,1475.0,1021.4699999999999,244.0,294.13,1637232569.349713,1637232570.4712574,cbcaf99b-1165-4ad0-8e9e-8078c0c66a75
-0.25597439150797624,0.11136075278437786,-1.1054068032245588,0.2193246936383125,-1.0663025526208307,0.29574491197424485,-1.3298420879886899,-1.3543907257839043,-19.307926912021045,11.869750647379538,76.80248600247138,0.19600330578781325,-0.22325036370463902,4.957892350353462,-1.0,12.000874999999999,0.05,179.39898763558296,-11.207825815925645,104.50719708931197,1525.0,1435.0,1000.0,1883.0,1475.0,1021.4699999999999,244.0,294.13,1637232570.5787838,1637232571.607625,cbcaf99b-1165-4ad0-8e9e-8078c0c66a75
