raw_voltage_G-,raw_voltage_G0,raw_voltage_G1,raw_voltage_G2,raw_voltage_G3,raw_voltage_G4,raw_voltage_G5,raw_voltage_G6,load_x,load_y,load_z,load_l,load_m,load_n,rpm,voltage,current,roll,pitch,yaw,aileron1_pwm,elevator_pwm,throttle_pwm,rudder_pwm,aileron2_pwm,pbaro,pdiff,Tt,sample_start_time,sample_end_time,uid
-0.1392008087093611,-0.0441225811678976,-0.0085159107883638,0.4147669026037859,-0.0835949689428279,-0.4860634696941032,-0.4273545272796065,-0.4542173198529113,-14.83058589340181,23.487452325778523,-22.81649803918418,-1.8836873276869028,0.0904945670484827,0.6800354304557058,-1.0,12.049,0.04,178.9957865804064,7.806985717137414,68.35554435387778,1525.0,1435.0,1000.0,1528.0,1475.0,1021.47,244.0,293.9,1637231926.8683064,1637231927.9132245,5c2da4a0-b4af-4d04-994f-2547cc759d3a
-0.1380437233401552,-0.0437703056547429,-0.0024751804567703,0.4153657161118362,-0.0779706138752255,-0.4885387123012988,-0.4211927181826243,-0.4485310552180341,-14.759688917601402,23.4727877969782,-22.99403116865291,-1.890389341856766,0.0931964693168436,0.655220651456625,-1.0,12.04922222222222,0.04,179.08748262892374,7.8246688871711,67.66779970488075,1525.0,1435.0,1000.0,1528.0,1475.0,1021.47,244.0,293.9,1637231928.0216064,1637231929.2409866,5c2da4a0-b4af-4d04-994f-2547cc759d3a
-0.1503246065049289,-0.0483827588917668,-0.006451565388126,0.4204208415206227,-0.0805313225378099,-0.4894821315557379,-0.4254874119607459,-0.4465910743521777,-14.789504424895163,23.508881581073027,-23.14090520860823,-1.903909603603284,0.0765358694597941,0.6694868078041134,-1.0,12.051222222222224,0.04,179.16346013543114,7.847574021416477,67.16819185766184,1525.0,1435.0,1000.0,1528.0,1475.0,1021.47,244.0,293.9,1637231929.3750122,1637231930.3668306,5c2da4a0-b4af-4d04-994f-2547cc759d3a
-0.0336299212135291,0.1603527940581005,-0.0044661122183313,0.318452709783275,-0.1246846470319876,-0.5889914929584709,-0.4670635988942117,-0.4960038867351868,-14.747386480941934,22.83487824132487,-21.705705316498342,-1.9016245095123103,0.8590717583151544,0.8128077299792639,-1.0,12.049,0.0388888888888888,179.36281059000655,7.878425321851255,66.28952065406573,1576.0,1435.0,1000.0,1528.0,1515.0,1021.47,244.0,293.9,1637231932.1462338,1637231933.1331627,4f057d81-7c01-4f11-9e9a-15b2b666641e
-0.0253484338066917,0.1740734581282265,0.0091805911372568,0.3311866733641221,-0.1156498485492402,-0.6162728550503429,-0.4633644314753211,-0.4916341359264831,-14.60193045657134,23.104239259589352,-21.942971175324715,-1.9891535360387824,0.9109078429457216,0.778061604668316,-1.0,12.040333333333333,0.03,179.41311872779326,7.894676144297746,66.02661453035343,1576.0,1435.0,1000.0,1528.0,1515.0,1021.47,244.0,293.9,1637231933.268793,1637231934.271635,4f057d81-7c01-4f11-9e9a-15b2b666641e
-0.034497735190324,0.160815189844436,-0.005762354575757,0.3353778200116784,-0.1243882535216269,-0.6104929053789374,-0.4768829380898601,-0.501290212019367,-14.995241320869305,23.01744259746932,-22.52549166405101,-1.9872297016754583,0.8676631029754823,0.8269514549756077,-1.0,12.035111111111108,0.03,179.4424156858732,7.912783070651189,65.74838905124267,1576.0,1435.0,1000.0,1528.0,1515.0,1021.47,244.0,293.9,1637231934.3800828,1637231935.3904974,4f057d81-7c01-4f11-9e9a-15b2b666641e
0.1847978630406589,0.5485373434706476,0.0090299289077351,0.1448586994598182,-0.1989797176834039,-0.8060250542200832,-0.5497075596420544,-0.5707728733044735,-15.06837706511252,22.19874119785075,-21.46981847369482,-2.0014113372742552,2.3373989929955448,1.0590886889489877,-1.0,12.04,0.03,179.49095859921437,7.931116721339581,65.2590591209048,1627.0,1435.0,1000.0,1528.0,1556.0,1021.47,244.0,293.9,1637231937.221362,1637231938.3595505,3d41574f-0fda-4dcf-8a86-d1fe41afc323
0.1716217742104132,0.5369089663302274,0.0007846005601124,0.1434205608624436,-0.2051020799574809,-0.7940268630354829,-0.5537069558330515,-0.5864965272939093,-15.057613166591594,22.204903436361104,-21.61934108116233,-1.9715938399042257,2.2946889998952464,1.0827356111999489,-1.0,12.032333333333334,0.03,179.5304021827613,7.956285873567339,65.08321741854265,1627.0,1435.0,1000.0,1528.0,1556.0,1021.47,244.0,293.9,1637231938.4678848,1637231939.5860453,3d41574f-0fda-4dcf-8a86-d1fe41afc323
0.1655070827859829,0.5312248950359978,-0.0006792876570668,0.1407086423104045,-0.2046944703333343,-0.7869977858809527,-0.5524512549979462,-0.5770656220004103,-15.144773145985573,22.132998786220373,-21.7662214095769,-1.950297985331352,2.275528843264857,1.0814378671156704,-1.0,12.031777777777778,0.03,179.56988219398374,7.95719115822358,64.97389872305676,1627.0,1435.0,1000.0,1528.0,1556.0,1021.47,244.0,293.9,1637231939.694671,1637231940.7150524,3d41574f-0fda-4dcf-8a86-d1fe41afc323
0.3792752870983731,0.9139751891420272,0.0058386307412989,-0.0497830952776255,-0.2877745175422103,-0.9786839651218844,-0.6328867862631533,-0.6578145320382011,-15.15019381482739,21.426582554602003,-20.915508206570987,-1.955565224931184,3.7274285039878152,1.3463628797032132,-1.0,12.028624999999998,0.03,179.60438849939814,8.058815550745692,64.84278166856228,1678.0,1435.0,1000.0,1528.0,1596.0,1021.47,244.0,293.9,1637231942.7504897,1637231943.8093357,1700e248-5d1a-4e54-b548-ecf44dfb86bc
0.3911255486733767,0.9296566517616428,0.0176368464631374,-0.0552989735247476,-0.2796814938942913,-0.9889618690084672,-0.6259130442128066,-0.6593370426379487,-15.241143570856512,21.452258514682804,-20.841971611561465,-1.965494955580372,3.78766299217543,1.3112071699226715,-1.0,12.015888888888888,0.03,179.63557647124077,8.10935999410491,64.74441195604342,1678.0,1435.0,1000.0,1528.0,1596.0,1021.47,244.0,293.9,1637231943.9166822,1637231944.918176,1700e248-5d1a-4e54-b548-ecf44dfb86bc
0.3872740766825178,0.9265897185812552,0.0183024992467457,-0.0544399252532333,-0.2802414092742373,-0.9883400446458472,-0.6255865180615613,-0.6518428305772944,-15.147773439772156,21.60664843736696,-21.066714935322995,-1.9649676463668773,3.7774302216025153,1.309918917059077,-1.0,12.018,0.03,179.67557102338074,8.14952985443357,64.66731581633195,1678.0,1435.0,1000.0,1528.0,1596.0,1021.47,244.0,293.9,1637231945.0331097,1637231946.0894425,1700e248-5d1a-4e54-b548-ecf44dfb86bc
0.5575485824515948,1.2418724292537957,0.019609150923307,-0.1963450475479772,-0.3505135315098341,-1.1583697896420722,-0.6995457700681226,-0.7220169011036626,-15.19633512514208,21.02085324487781,-20.17108306655997,-2.030643917561614,4.969882279854436,1.5475278678293152,-1.0,12.017444444444443,0.0322222222222222,179.61602695201634,8.19734857799526,64.53970132078933,1729.0,1435.0,1000.0,1528.0,1636.0,1021.47,244.0,293.9,1637231947.163061,1637231948.214655,6310d94a-7bf8-4811-82eb-3661870acf3f
0.5636667713831589,1.2547571400446889,0.0289952972617189,-0.2116132139247198,-0.3461092232404068,-1.156726706952742,-0.690832732478258,-0.716118697081607,-15.15026898430708,21.042619217179325,-20.072354520892045,-1.991859865640028,5.019481944573503,1.51791688961074,-1.0,12.004333333333332,0.0366666666666666,179.61996873007735,8.22119305297899,64.46968656942734,1729.0,1435.0,1000.0,1528.0,1636.0,1021.47,244.0,293.9,1637231948.323745,1637231949.3017795,6310d94a-7bf8-4811-82eb-3661870acf3f
0.5647409186161121,1.2486440077672192,0.021449968437419,-0.2123470123748037,-0.3494353382232099,-1.150809283343933,-0.6943783303895645,-0.723949760070589,-15.259879738950582,20.77529391466505,-20.217512743795275,-1.979133508213777,4.998223792442991,1.5368626734716997,-1.0,12.005222222222224,0.03,179.61608311134952,8.230294754366724,64.36489097699184,1729.0,1435.0,1000.0,1528.0,1636.0,1021.47,244.0,293.9,1637231949.4102294,1637231950.557646,6310d94a-7bf8-4811-82eb-3661870acf3f
-0.3457931486928787,-0.4189788059193792,-0.0115664083440549,0.589986412986281,-0.0051629931376251,-0.2928696382025159,-0.3445440223688164,-0.3625708883003141,-14.473295415012378,24.500601419804205,-24.33520309748361,-1.838305125167325,-1.3262622310572554,0.4133326398681985,-1.0,12.011,0.0311111111111111,-179.90416075888308,8.280400452935508,64.28351079085095,1474.0,1435.0,1000.0,1528.0,1435.0,1021.47,244.0,293.9,1637231952.689392,1637231953.7152908,86ae06f6-c2ad-462c-9105-bde951a6f215
-0.3315213322651768,-0.4116736079104391,-0.0012150970018509,0.5889010977954416,0.001688573473971,-0.2987865522385233,-0.336342521696775,-0.3576269775948644,-14.31542762235854,24.59987390546616,-24.231541303221032,-1.8478835094648265,-1.3001078712269023,0.3793036690760781,-1.0,12.04811111111111,0.04,-179.8956640035556,8.2845628840522,64.39235516764445,1474.0,1435.0,1000.0,1528.0,1435.0,1021.47,244.0,293.9,1637231953.8237257,1637231954.8383987,86ae06f6-c2ad-462c-9105-bde951a6f215
-0.3311789183139512,-0.4017436009453262,-0.0033517602385706,0.5812173291527089,-0.0018588353159859,-0.3031831482610108,-0.3400679863277645,-0.3627494918649001,-14.390704621048428,24.48933687058204,-24.499919619448747,-1.841350376749345,-1.259144176685541,0.3931005024671437,-1.0,12.048666666666666,0.04,-179.88070437145345,8.292951874172791,64.49777686075389,1474.0,1435.0,1000.0,1528.0,1435.0,1021.47,244.0,293.9,1637231954.9471655,1637231955.9765394,86ae06f6-c2ad-462c-9105-bde951a6f215
-0.4824475773922349,-0.6751023343600362,-0.0166812513509871,0.7023420115179781,0.0434082913234633,-0.1525861826946536,-0.2909236307848495,-0.3218099229924668,-14.2888684126266,25.361437797804104,-25.18443179043572,-1.7711068054866763,-2.294802854601888,0.2463769558460811,-1.0,12.044444444444444,0.0377777777777777,-179.81952864378738,8.301821728583697,64.62610928506926,1423.0,1435.0,1000.0,1528.0,1394.0,1021.47,244.0,293.9,1637231957.630886,1637231958.8457458,e1c5514e-7a26-4051-9903-f9a761c2d27c
-0.4673227379506712,-0.6653339450924126,-0.0057897476995706,0.7074995871108044,0.0503661430851676,-0.1673680576277361,-0.2838025150205587,-0.3094835662346484,-13.978312830054476,25.44933050142416,-25.183368582032504,-1.8146764083226987,-2.2603159690674266,0.2133246442677574,-1.0,12.032777777777776,0.03,-179.8426617355963,8.299334685952168,64.64029558797537,1423.0,1435.0,1000.0,1528.0,1394.0,1021.47,244.0,293.9,1637231958.953865,1637231960.069627,e1c5514e-7a26-4051-9903-f9a761c2d27c
-0.4668663683723387,-0.6573515878019947,-0.0024806590575307,0.6974769943683837,0.0525203378614107,-0.1626712333440442,-0.2786427467268295,-0.3076619236459633,-13.9897938171673,25.27531949793399,-24.68136214441362,-1.7824280293006804,-2.233304463630673,0.2001829016496422,-1.0,12.033333333333331,0.03,-179.84811070873414,8.288079767428586,64.6662677617493,1423.0,1435.0,1000.0,1528.0,1394.0,1021.47,244.0,293.9,1637231960.1776304,1637231961.1831958,e1c5514e-7a26-4051-9903-f9a761c2d27c
-0.6499664008124083,-1.0107202353347635,-0.0008726830822818,0.8627363677915006,0.130039023502164,0.0267943655367141,-0.1974867926986184,-0.2247429473529031,-13.839125628287483,26.44212506054927,-25.03077669421508,-1.7216230830798551,-3.576846518992884,-0.0653159495981245,-1.0,12.03,0.03,-179.8016870513104,8.282783643489346,64.79041973083767,1372.0,1435.0,1000.0,1528.0,1354.0,1021.47,244.0,293.9,1637231963.2316768,1637231964.245123,4d6204b7-b338-461e-913b-c695ef0485a4
-0.6553765433362561,-1.013706086980792,0.0034280364306596,0.8802816578168503,0.134997177634956,0.0137415451520185,-0.1961308331719282,-0.2203189585323523,-13.64796016945546,26.54654615335795,-24.98600094109636,-1.789522656505693,-3.5916809336850144,-0.0799155534389552,-1.0,12.023222222222223,0.03,-179.80485436181056,8.291616382462577,64.77470991629168,1372.0,1435.0,1000.0,1528.0,1354.0,1021.47,244.0,293.9,1637231964.353533,1637231965.490546,4d6204b7-b338-461e-913b-c695ef0485a4
-0.6711686811841521,-1.0274300475982787,-0.0107889916811983,0.8720637233874812,0.1216704263939513,0.0331221756964031,-0.2036776377045131,-0.2338648562822003,-13.511702438216751,26.584565458334964,-25.303054908186045,-1.7278719753426823,-3.641197322878211,-0.0337397690116747,-1.0,12.024,0.03,-179.81009387581386,8.266165864386508,64.80148577565797,1372.0,1435.0,1000.0,1528.0,1354.0,1021.47,244.0,293.9,1637231965.5994444,1637231966.8292382,4d6204b7-b338-461e-913b-c695ef0485a4
-0.8653448784186698,-1.3950870756332836,-0.012761296198843,1.053871828954853,0.1969467100689229,0.2309415669245159,-0.1272371379394671,-0.1512882968573679,-13.3942132759047,28.177735830407272,-24.3265253336196,-1.6827820161024751,-5.05210371167304,-0.2845021274913362,-1.0,12.021888888888888,0.03,-179.7324406962301,8.296292595586834,64.81073157506442,1321.0,1435.0,1000.0,1528.0,1314.0,1021.47,244.0,293.9,1637231967.7366793,1637231968.8739707,f8ac0bae-a151-413e-a229-39a89061d298
-0.8646408749466095,-1.3957828615478116,-0.0041636922062377,1.0465354046901374,0.2051241030999612,0.2386269795503924,-0.1154674104059821,-0.1349537796211273,-13.375408664636218,28.10414094026937,-24.212139221303623,-1.6489947586213074,-5.054413162548131,-0.324060927125555,-1.0,12.015888888888888,0.03,-179.74112566121468,8.27405122291955,64.7599984477294,1321.0,1435.0,1000.0,1528.0,1314.0,1021.47,244.0,293.9,1637231968.98167,1637231970.106654,f8ac0bae-a151-413e-a229-39a89061d298
-0.8547267528365917,-1.3914437874748349,-0.0087262899126283,1.0420911455997308,0.198576052635967,0.2379826934041048,-0.1201089004829862,-0.1478000566862289,-13.241962724921953,28.10730456761164,-24.317238955273343,-1.640573191015074,-5.0378940051987176,-0.3018845795051413,-1.0,12.01388888888889,0.03,-179.75353232038708,8.266947731318997,64.75827572223872,1321.0,1435.0,1000.0,1528.0,1314.0,1021.47,244.0,293.9,1637231970.2147057,1637231971.278514,f8ac0bae-a151-413e-a229-39a89061d298
-0.1490557573072858,-0.0665613800245029,-0.0170757122920726,0.4164614406874808,-0.0884073920834941,-0.4611729817878043,-0.4269589706962307,-0.448311910460679,-14.694552284435916,23.52065078521366,-22.214716799926947,-1.831619281787362,-0.0007116723784189,0.6959249147200129,-1.0,12.02022222222222,0.0311111111111111,179.8617255524797,8.236278094943394,64.76425517340212,1525.0,1435.0,1000.0,1528.0,1475.0,1021.47,244.0,293.9,1637231973.168412,1637231974.2037382,a1e0f42e-9e09-4c50-a602-235b0d3cc4e6
-0.1341911550372785,-0.0482381232102779,-0.0017969268374438,0.4218277518998934,-0.0777437988267761,-0.4831839045745429,-0.420490906325065,-0.4430803716240353,-14.684305533383686,23.6722847247968,-22.0072990900501,-1.8913816448246688,0.0664112765750017,0.6538665483870411,-1.0,12.046666666666669,0.04,179.84084338745726,8.237234321427195,64.9164606266865,1525.0,1435.0,1000.0,1528.0,1475.0,1021.47,244.0,293.9,1637231974.3115203,1637231975.3276894,a1e0f42e-9e09-4c50-a602-235b0d3cc4e6
-0.1375506472067807,-0.0441538093404016,0.0049894441187386,0.4147630675577874,-0.0701909682266529,-0.4816356452843457,-0.4106874555165795,-0.4343551143555373,-14.682052949481252,23.38079713579333,-22.07568873637037,-1.8735704607449568,0.0836152194512554,0.6208277325537338,-1.0,12.047333333333333,0.04,179.85771395470718,8.237201403709946,65.05208693412554,1525.0,1435.0,1000.0,1528.0,1475.0,1021.47,244.0,293.9,1637231975.4413884,1637231976.4494946,a1e0f42e-9e09-4c50-a602-235b0d3cc4e6
-0.118991809039147,-0.0482764735958915,-0.0248964473864308,-0.0791348216482177,-0.1543152361886353,0.0011544074444235,-0.3063881434500888,-0.3330142577637045,-14.284790762560329,22.70214168739985,-18.380784503419584,0.3202378372331974,0.091496440658151,0.6285840883480611,-1.0,12.04911111111111,0.04,179.86883046703633,8.397700034739062,65.23407125328127,1525.0,1521.0,1000.0,1528.0,1475.0,1021.47,244.0,293.9,1637231977.1576698,1637231978.2976344,ea922742-1334-4846-b291-506412563f6c
-0.1237993014330422,-0.053864669685868,-0.0298272085598599,-0.0666298628524813,-0.1541508774223077,-0.0063923963089764,-0.3131953339712375,-0.3366301498650424,-14.557430476822288,22.59313331174272,-18.63731299784572,0.2739247575290247,0.0728865294146715,0.6436991219551463,-1.0,12.049,0.04,179.85001405478286,8.370480971986652,65.25842315440208,1525.0,1521.0,1000.0,1528.0,1475.0,1021.47,244.0,293.9,1637231978.405079,1637231979.3368833,ea922742-1334-4846-b291-506412563f6c
-0.1343883855152585,-0.0729050783530844,-0.0473703092372476,-0.0693286329378054,-0.1676151434767173,0.0143891184240054,-0.3231642387211636,-0.3515917249065918,-14.54528748927408,22.54741294021353,-18.79382044363156,0.3255159091576552,0.0019939588409949,0.6976236745769809,-1.0,12.048555555555556,0.04,179.83579056529126,8.382639657346658,65.29526064132568,1525.0,1521.0,1000.0,1528.0,1475.0,1021.47,244.0,293.9,1637231979.4459307,1637231980.5479171,ea922742-1334-4846-b291-506412563f6c
-0.1018163235832634,-0.0623154467154339,-0.0718482518830899,-0.641940214756033,-0.2572585809439653,0.5569196365361329,-0.199212559211465,-0.2185657985355961,-14.296168839143837,21.78073132641877,-14.76292682963083,2.830792545728508,0.0731585753757271,0.6790413562701558,-1.0,12.046333333333331,0.0377777777777777,179.82152609466462,8.60316350862166,65.30753904472365,1525.0,1607.0,1000.0,1528.0,1475.0,1021.47,244.0,293.9,1637231981.1360414,1637231982.1864388,af870aac-f170-44df-abf0-5cf6ba5a781b
-0.1028572621163576,-0.074614956910422,-0.0717934656392582,-0.6374340456597573,-0.2534098474841013,0.5629324251668764,-0.1950488049678738,-0.2110600837835161,-14.29358944588892,21.673967813848066,-15.013816170672492,2.8333955561131208,0.0286801603441876,0.6660392963942207,-1.0,12.041888888888886,0.0344444444444444,179.8043990158659,8.576715118880601,65.23534090955698,1525.0,1607.0,1000.0,1528.0,1475.0,1021.47,244.0,293.9,1637231982.2947056,1637231983.4224436,af870aac-f170-44df-abf0-5cf6ba5a781b
-0.1238951773351205,-0.1000083777349307,-0.0814495398862794,-0.6300105080716122,-0.2582447332915006,0.5763550513236283,-0.1982674965172171,-0.2236746156446938,-14.18122063647779,21.728908725067225,-15.721359374828674,2.846639486309463,-0.0626101962864802,0.6864201985743364,-1.0,12.041999999999998,0.03,179.77459510596756,8.576763309659745,65.13285467997085,1525.0,1607.0,1000.0,1528.0,1475.0,1021.47,244.0,293.9,1637231983.536391,1637231984.643595,af870aac-f170-44df-abf0-5cf6ba5a781b
-0.0879603363430243,-0.0914578897037037,-0.1040674901751487,-1.1605919212753193,-0.3427426507712094,1.0791441696183497,-0.0840288760044185,-0.1173476743717644,-13.867145340679802,21.161735431394565,-12.15480558622306,5.169175987215397,-0.0004914393178752,0.6715538694269968,-1.0,12.04,0.03,179.76258307994723,8.754089724392738,64.96892103297165,1525.0,1693.0,1000.0,1528.0,1475.0,1021.47,244.0,293.9,1637231985.646868,1637231986.692731,5e46b58b-232f-432e-a0b7-c1821cc17d79
-0.1006247229291208,-0.0926396288395723,-0.1062677053543362,-1.1334003962442247,-0.3391503166615972,1.0586793207008591,-0.0913384556768839,-0.116416855992956,-14.034475749759784,21.020005056417343,-11.703436487449231,5.060789937849732,-0.0112295733044702,0.6807405941532849,-1.0,12.031666666666668,0.03,179.7411362859534,8.744594148762868,64.77675821413278,1525.0,1693.0,1000.0,1528.0,1475.0,1021.47,244.0,293.9,1637231986.800916,1637231987.8079758,5e46b58b-232f-432e-a0b7-c1821cc17d79
-0.0933644506997167,-0.0861458161617457,-0.1116937343659803,-1.097688511394114,-0.3408755355132538,1.0256815737934923,-0.1070259469257944,-0.1293655834857598,-14.09213985104024,21.01511262184133,-10.89635767679953,4.905879345687643,0.0016402239603999,0.715021197080807,-1.0,12.033111111111111,0.03,179.73547937150082,8.732804957664209,64.59683281755686,1525.0,1693.0,1000.0,1528.0,1475.0,1021.47,244.0,293.9,1637231987.9168098,1637231989.150494,5e46b58b-232f-432e-a0b7-c1821cc17d79
-0.0783404209510542,-0.1027202964983452,-0.1296203392885963,-1.6175057465399192,-0.4267672187919644,1.5393463555400329,0.0001819518981222,-0.0293478292140933,-14.23238362406244,22.05695243533249,-7.899917367357147,7.239153933985388,-0.0232070728633552,0.7009407344972581,-1.0,12.031666666666666,0.03,179.70504556637903,8.914026951817574,64.23192996114892,1525.0,1780.0,1000.0,1528.0,1475.0,1021.47,244.0,293.9,1637231991.1759522,1637231992.3132503,f5f89b1f-8cc6-44eb-98db-5d363885ccec
-0.0826274439863202,-0.1001042536454757,-0.1361672946872117,-1.613615918115778,-0.4319308223923212,1.5339910003368358,-0.0096110876432939,-0.0373055299415232,-14.466990864838856,22.05788680384511,-7.849337693513153,7.217915402628496,-0.0130770629727644,0.7310987078599883,-1.0,12.024111111111113,0.03,179.68148293156233,8.921666233813019,63.97236228212094,1525.0,1780.0,1000.0,1528.0,1475.0,1021.47,244.0,293.9,1637231992.421765,1637231993.5478582,f5f89b1f-8cc6-44eb-98db-5d363885ccec
-0.0860011804460847,-0.1120618978978771,-0.1314693748117072,-1.6154583825389586,-0.4258292782166523,1.5431748181681073,0.0011483811076908,-0.0191532063840637,-14.25134659621434,21.981931551455062,-8.390950383399108,7.242461438009055,-0.0541280948976836,0.6990202618766813,-1.0,12.023111111111112,0.03,179.66343301831571,8.938454459337954,63.77749167273112,1525.0,1780.0,1000.0,1528.0,1475.0,1021.47,244.0,293.9,1637231993.6553414,1637231994.679389,f5f89b1f-8cc6-44eb-98db-5d363885ccec
-0.1868308690676836,-0.0780390966589013,0.0337385208159304,1.082566117615433,0.0297254291516041,-1.0913108408267305,-0.5563777857318339,-0.5787305762351344,-14.988898358003317,25.28594589557972,-26.51596080937124,-4.736793388364745,-0.0823154152017087,0.6474779498743229,-1.0,12.022,0.03,179.66704694729654,8.037200563343541,63.3044881712393,1525.0,1349.0,1000.0,1528.0,1475.0,1021.47,244.0,293.9,1637231996.6284237,1637231997.638607,9e8769ec-a43e-4806-989e-b51e57d1381e
-0.1688746790966379,-0.0613566875313582,0.048777342307813,1.0557893469686075,0.0392034478283994,-1.0840653560710491,-0.5373395636409019,-0.5653627310338726,-14.803566193160291,25.034398127601744,-26.534223625638862,-4.660938309798076,-0.0166502021760402,0.5889534859687486,-1.0,12.044555555555554,0.03,179.73314344680466,8.020272698395573,63.65570788200997,1525.0,1349.0,1000.0,1528.0,1475.0,1021.47,244.0,293.9,1637231997.7463226,1637231998.8674784,9e8769ec-a43e-4806-989e-b51e57d1381e
-0.1954186120318761,-0.0845860519219143,0.0173163470463956,1.04487319044517,0.0134402209150434,-1.0469613534439093,-0.5581309455322817,-0.5804015567821498,-15.012453717008569,24.962983691863155,-26.12364079031892,-4.555016148870442,-0.1065866307069404,0.6940870810527736,-1.0,12.04088888888889,0.03,179.77743950030194,8.027802223045605,63.97057732601783,1525.0,1349.0,1000.0,1528.0,1475.0,1021.47,244.0,293.9,1637231998.9750977,1637232000.1013186,9e8769ec-a43e-4806-989e-b51e57d1381e
-0.2170317837109891,-0.0703553269037259,0.0624328112561537,1.6417007510322197,0.1083162820725235,-1.6351058460198626,-0.6948637364762594,-0.7178328749762269,-15.734504942058775,27.47698536482084,-30.00005316027012,-7.205021372332998,-0.0843251816808879,0.6979929895461536,-1.0,12.036888888888887,0.03,179.86244196343264,7.806518038906745,64.64176331973701,1525.0,1262.0,1000.0,1528.0,1475.0,1021.47,244.0,293.9,1637232002.1428287,1637232003.2807796,772c64ac-e809-4506-b46b-277b033c6b27
-0.2017601193457986,-0.0551932359493048,0.0761430662682329,1.631400937380156,0.1143290711286956,-1.6371466357048428,-0.6829340294772389,-0.7001369139919355,-15.399811276318305,27.64516620894257,-29.431972620777696,-7.184316841223764,-0.0327217482909748,0.656839972995591,-1.0,12.028555555555556,0.03,179.8702420394648,7.816846707887881,64.877869298966,1525.0,1262.0,1000.0,1528.0,1475.0,1021.47,244.0,293.9,1637232003.389736,1637232004.3974278,772c64ac-e809-4506-b46b-277b033c6b27
-0.2122379876825191,-0.0670270630099945,0.0700070080694828,1.6277028661549178,0.1125348219802325,-1.622915893378832,-0.6840708443231875,-0.7128747186146107,-15.625366158450968,27.5094715103574,-29.566471164532143,-7.145336570158441,-0.0742532984098089,0.6675104480821495,-1.0,12.029333333333334,0.03,179.87673375481594,7.8084732754204,65.11394719852842,1525.0,1262.0,1000.0,1528.0,1475.0,1021.47,244.0,293.9,1637232004.505317,1637232005.6257732,772c64ac-e809-4506-b46b-277b033c6b27
-0.2184562259800989,-0.0454686790248942,0.1263409527520518,2.0586378079453294,0.1989190144479122,-2.0572755331778807,-0.7662365330599252,-0.7908629566018378,-16.210797588949564,29.714352212290464,-32.0212057143648,-9.076748841696173,-0.0169451109607023,0.5916596485040794,-1.0,12.029,0.03,179.86390665955466,7.63872647339135,65.61198334332835,1525.0,1176.0,1000.0,1528.0,1475.0,1021.47,244.0,293.9,1637232007.6720903,1637232008.809583,729a732e-b694-44a7-b702-7814980583e3
-0.2175275991826303,-0.047107335291709,0.1239835011794429,2.069149099400064,0.1965248561103067,-2.065341725660894,-0.7716532503626867,-0.793703624268833,-16.14145136808586,29.86255694901104,-32.052215605617675,-9.11769050574021,-0.0247481452410169,0.605684115184279,-1.0,12.023444444444443,0.03,179.84582790773155,7.622179486353348,65.79666862284586,1525.0,1176.0,1000.0,1528.0,1475.0,1021.47,244.0,293.9,1637232008.9173896,1637232010.039595,729a732e-b694-44a7-b702-7814980583e3
-0.2270341076018201,-0.0604927086203606,0.1196181341220446,2.06889927392946,0.1958805700297795,-2.05164075842863,-0.7722580906049344,-0.7977928705245729,-16.354965396183612,29.86611338764108,-32.01972427451175,-9.086635146223642,-0.0739741253235679,0.611646524561455,-1.0,12.021555555555556,0.03,179.82897707213922,7.632689914257398,65.9470663527299,1525.0,1176.0,1000.0,1528.0,1475.0,1021.47,244.0,293.9,1637232010.1481807,1637232011.377164,729a732e-b694-44a7-b702-7814980583e3
-0.2380149137945143,-0.0547138563754456,0.120958205273234,2.225872869956022,0.203589540629276,-2.2073764151058626,-0.8275149649101802,-0.8487035516920022,-16.618767310876635,31.311545803371025,-33.0282151294007,-9.781332812550664,-0.060711904362201,0.6778694768229195,-1.0,12.001444444444443,0.0811111111111111,179.809426035095,7.562817648230598,66.29814187061811,1525.0,1090.0,1000.0,1528.0,1475.0,1021.47,244.0,293.9,1637232013.1376936,1637232014.2274573,60a782f6-cfdc-45f8-be61-c475f5e51bd8
-0.2415212331945624,-0.0581927823812775,0.1226976681767883,2.220709265275497,0.2027403540277295,-2.196336966789625,-0.8228718291825531,-0.8433344980303339,-16.390983224306655,31.47085516104344,-32.59820955569606,-9.74355197040203,-0.0784345956600594,0.6702783552578069,-1.0,11.951444444444444,0.24,179.77340513523217,7.547635181206783,66.15088375102255,1525.0,1090.0,1000.0,1528.0,1475.0,1021.47,244.0,293.9,1637232014.3362446,1637232015.3634615,60a782f6-cfdc-45f8-be61-c475f5e51bd8
-0.2262221755312263,-0.0420445392966658,0.1375447373926656,2.2184904212425742,0.21235533779261,-2.214580820746356,-0.8134075026295561,-0.8392940115590272,-16.207109859769997,31.523991341843075,-33.140579387801715,-9.778445546315956,-0.0131479530119617,0.6247453239101484,-1.0,11.955,0.2311111111111111,179.74740943525111,7.49275906982144,66.04168496330209,1525.0,1090.0,1000.0,1528.0,1475.0,1021.47,244.0,293.9,1637232015.4711568,1637232016.560323,60a782f6-cfdc-45f8-be61-c475f5e51bd8
-0.1488503088748478,-0.0717660725269671,-0.0047898989182305,0.3872877732136031,-0.0814358433639485,-0.428013605897847,-0.4077289983148115,-0.432026698829705,-14.704062063027614,23.800745438403283,-21.926937430220843,-1.6887874709232722,-0.0183401989317809,0.6417018292364093,-1.0,11.976,0.176,179.7179400528401,8.092179317293912,65.86184486819981,1525.0,1435.0,1000.0,1528.0,1475.0,1021.47,244.0,293.9,1637232018.7321618,1637232019.694255,45b5d3f6-d936-4b09-8a3d-bbcb49ce2110
-0.1626016548040312,-0.0836546859461589,-0.001913621542107,0.4029429384682296,-0.0745601706033672,-0.4302050557408225,-0.4059621418870686,-0.4316294982482045,-14.868163066470649,23.90853037846176,-21.827702099279065,-1.7282352153841292,-0.0643910984581814,0.6245803130840367,-1.0,12.049,0.04,179.71317197367156,8.076576129589972,65.87713432254787,1525.0,1435.0,1000.0,1528.0,1475.0,1021.47,244.0,293.9,1637232019.8024995,1637232020.8954232,45b5d3f6-d936-4b09-8a3d-bbcb49ce2110
-0.1697017405904158,-0.0841214225429282,0.000358953629616,0.403657266598917,-0.0731726037904218,-0.43089304453366,-0.4025095548362497,-0.4208545186131504,-14.66257930815207,23.89882482550627,-21.87591728037646,-1.7312479476776224,-0.0671134303731767,0.614706416360083,-1.0,12.049,0.04,179.7306678826855,8.083916211354273,65.91264675277249,1525.0,1435.0,1000.0,1528.0,1475.0,1021.47,244.0,293.9,1637232021.0041416,1637232022.1219685,45b5d3f6-d936-4b09-8a3d-bbcb49ce2110
-0.0746560464985989,-0.0350455975306744,0.2414057372430914,0.3612232242057572,0.1392020210152684,-0.4502842150679118,-0.1524662005945078,-0.1831054048819496,-12.890931284439928,23.730011465552,-21.46849575333416,-1.6672615095654784,0.1213032520169188,-0.3516882722914338,-1.0,12.04977777777778,0.04,179.68329217278247,8.098845297332629,65.87671540427877,1525.0,1435.0,1000.0,1439.0,1475.0,1021.47,244.0,293.9,1637232024.149018,1637232025.0968192,70aec318-31e1-42f0-b985-fd19a52e34b1
-0.0587132516338783,-0.012857172062903,0.2559651782378097,0.3453626104781224,0.1482417494134349,-0.4524756649972006,-0.1387559444747966,-0.1652587874950666,-12.795204881884958,23.57033884812309,-20.655871121285244,-1.6365641342816155,0.1995166024241612,-0.3995429671239516,-1.0,12.047,0.04,179.6811763319596,8.107210097199909,65.88495337132773,1525.0,1435.0,1000.0,1439.0,1475.0,1021.47,244.0,293.9,1637232025.2071426,1637232026.2180436,70aec318-31e1-42f0-b985-fd19a52e34b1
-0.0593706864418188,-0.0187056027058578,0.2549516329889216,0.3431300716256182,0.1486389496408566,-0.4426278370702012,-0.1363727430376178,-0.1677241682271306,-12.817582042333294,23.526078930004545,-20.35705690842468,-1.6097061928606522,0.1753012982426252,-0.4023988340157089,-1.0,12.046444444444443,0.04,179.67459658305916,8.116038685884583,65.87606881303734,1525.0,1435.0,1000.0,1439.0,1475.0,1021.47,244.0,293.9,1637232026.3262482,1637232027.4472835,70aec318-31e1-42f0-b985-fd19a52e34b1
0.0252740476312527,0.0170835055360089,0.5216783945970676,0.3265298436978692,0.3884108909766154,-0.4754174062122311,0.1352163225586029,0.1067274811329989,-11.00987743984048,23.699683821245145,-20.145631244518324,-1.63056697101175,0.3138197066297011,-1.473563732416766,-1.0,12.044666666666666,0.0333333333333333,179.66250259476877,8.113034446150898,65.84686444196619,1525.0,1435.0,1000.0,1351.0,1475.0,1021.47,244.0,293.9,1637232029.177162,1637232030.3144305,5c703599-30f1-4472-90d1-541bc5b369f5
0.0279191270861637,0.0234485703267795,0.5306463524558229,0.3306546990242774,0.3956224024144397,-0.4852876964910734,0.140866426716641,0.1216561819426864,-10.955741340136829,23.759744501517687,-20.06699636567352,-1.6611670146688586,0.3366741498882108,-1.5027244730257192,-1.0,12.042555555555555,0.04,179.6648582511225,8.126310910941328,65.85583172143652,1525.0,1435.0,1000.0,1351.0,1475.0,1021.47,244.0,293.9,1637232030.4216166,1637232031.4315913,5c703599-30f1-4472-90d1-541bc5b369f5
0.026038863506292,0.0122458809677657,0.5226124997974272,0.3433300413640106,0.3893241774116271,-0.4882330051368344,0.1303080239167388,0.1044445388778246,-11.012877945602767,24.02922184521273,-20.46113719330356,-1.695083207097777,0.2964895734681583,-1.4701129658668302,-1.0,12.04188888888889,0.0322222222222222,179.67456774448266,8.135772335625349,65.83381802174156,1525.0,1435.0,1000.0,1351.0,1475.0,1021.47,244.0,293.9,1637232031.5404434,1637232032.5683916,5c703599-30f1-4472-90d1-541bc5b369f5
0.1302170787888118,0.0774031496716469,0.8415614900406405,0.3364735445731697,0.6759153260708018,-0.5648285649860444,0.443731286556319,0.4153657160285123,-9.02774696340318,24.05028810744428,-20.747572044151344,-1.8347622942452104,0.550421546177836,-2.732671466895182,-1.0,12.0412,0.03,179.6089520902921,8.106639510785747,65.74229196904358,1525.0,1435.0,1000.0,1262.0,1475.0,1021.47,244.0,293.9,1637232034.1294734,1637232035.2292545,ba8705fb-1209-4f8b-a0c8-ae7ce81cd94e
0.1276010361765774,0.0692126077174587,0.8390413234800677,0.3403222772836919,0.6742580426408131,-0.5627740803630602,0.4425259895066308,0.4182282966067527,-8.931836036503702,24.12681544765728,-21.108112668233847,-1.8384547626559389,0.5215863338911099,-2.7266929928932435,-1.0,12.0394,0.03,179.62615323869787,8.121114730693753,65.76178259685912,1525.0,1435.0,1000.0,1262.0,1475.0,1021.47,244.0,293.9,1637232035.3371089,1637232036.4582412,ba8705fb-1209-4f8b-a0c8-ae7ce81cd94e
0.1204651292673437,0.068281241711416,0.8358363290572726,0.3481841013733106,0.6711763172591102,-0.5694716996054895,0.4354722624372392,0.4048056702474958,-9.017428161932353,24.298937611819927,-21.2018669952797,-1.8703161549434928,0.5183616680639239,-2.708390300081969,-1.0,12.040888888888889,0.03,179.61984578667233,8.116910768232358,65.75811068716132,1525.0,1435.0,1000.0,1262.0,1475.0,1021.47,244.0,293.9,1637232036.567109,1637232037.687547,ba8705fb-1209-4f8b-a0c8-ae7ce81cd94e
0.2018911675587462,0.1057961152950764,1.0790597987756054,0.3567581463582632,0.8907869173672599,-0.6278464512013223,0.6745867600161342,0.6516176334963352,-7.329236647013469,24.54179135606965,-21.307288359546494,-2.006279161318635,0.6624185364225971,-3.673949619486968,-1.0,12.038333333333334,0.03,179.5928619859913,8.106527268010385,65.7233495777454,1525.0,1435.0,1000.0,1173.0,1475.0,1021.47,244.0,293.9,1637232038.6911943,1637232039.8282115,2acee0a4-6563-4cf9-a7e6-a0acac506826
0.20899968114878,0.120602094867219,1.0856615396749776,0.3565116083474267,0.8934851391806377,-0.6427209189068015,0.676148167543034,0.6530557720094747,-7.2173621819473555,24.574640355532093,-21.36129145886128,-2.0385537580156905,0.7180861962971653,-3.6870687548674703,-1.0,12.032444444444444,0.03,179.5905670424302,8.088563206447084,65.69376423390054,1525.0,1435.0,1000.0,1173.0,1475.0,1021.47,244.0,293.9,1637232039.936889,1637232040.963896,2acee0a4-6563-4cf9-a7e6-a0acac506826
0.2053563967225813,0.116397251412478,1.084935622115624,0.367879751172329,0.8952656916452658,-0.6473092676026759,0.6724637936411154,0.6413178224334125,-7.433321706189577,24.67074854840025,-21.12823400055391,-2.0739787260272244,0.7003343517934285,-3.683529535587786,-1.0,12.036888888888887,0.03,179.61303988261935,8.100099206227757,65.69519250234697,1525.0,1435.0,1000.0,1173.0,1475.0,1021.47,244.0,293.9,1637232041.072302,1637232042.1924736,2acee0a4-6563-4cf9-a7e6-a0acac506826
-0.2665585454056027,-0.1364686190126369,-0.3552026861337765,0.4644815710464757,-0.3956623277352857,-0.4158921489960437,-0.7820560651632141,-0.8058059089925895,-17.185166396311047,24.684152399336103,-21.898886518276868,-1.8485156932369176,-0.2754055840021135,2.071092574509942,-1.0,12.036,0.03,179.72785080910782,8.123256393426255,65.96274011905527,1525.0,1435.0,1000.0,1617.0,1475.0,1021.47,244.0,293.9,1637232043.1962252,1637232044.2427356,6265efe6-d6c5-4e5c-b03d-a7c037d37ee0
-0.2626687222545915,-0.1211421688632656,-0.3310419526847998,0.4672893653201864,-0.3760762451692139,-0.4336428926634538,-0.7614975216064149,-0.7859732834489229,-16.869256227330215,24.652737872336672,-21.7491457181695,-1.8935599971335773,-0.2202997316633649,1.984535031145027,-1.0,12.047666666666666,0.04,179.72590496410427,8.101193744042252,65.9031247101596,1525.0,1435.0,1000.0,1617.0,1475.0,1021.47,244.0,293.9,1637232044.3511565,1637232045.4694755,6265efe6-d6c5-4e5c-b03d-a7c037d37ee0
-0.2767624829088286,-0.1438510646389433,-0.3542165337167542,0.4715352980832892,-0.39184098712552,-0.4155223418152582,-0.7785497446106898,-0.8111338729567669,-17.10364550063839,24.56842757739245,-21.93297492018678,-1.8642786155122049,-0.3041770143917264,2.058776280298766,-1.0,12.048,0.04,179.73150116576426,8.123808974702856,65.83968894878814,1525.0,1435.0,1000.0,1617.0,1475.0,1021.47,244.0,293.9,1637232045.5779378,1637232046.699706,6265efe6-d6c5-4e5c-b03d-a7c037d37ee0
-0.3885921627696362,-0.1994349912951144,-0.6774296544040677,0.5537880556726433,-0.6801119894763511,-0.4228050773792962,-1.1287589028494127,-1.1520847080419432,-19.48264110447709,25.317378581881176,-22.531979458397306,-2.0786079432552493,-0.5211079875714857,3.381789713482783,-1.0,12.044555555555556,0.03,179.74914278548047,8.101734751942761,65.85316187638094,1525.0,1435.0,1000.0,1706.0,1475.0,1021.47,244.0,293.9,1637232047.7044344,1637232048.7475045,798e4fac-9111-4e15-8a82-935fcef7c245
-0.3799534676836643,-0.1895077246978726,-0.6681335227608326,0.5509873836324253,-0.6736428285402098,-0.4273545275192315,-1.1208959766568725,-1.1422889219077326,-19.3770600972865,25.30021275318404,-22.09712780090568,-2.082041979619148,-0.4875422010590157,3.350982544343828,-1.0,12.039111111111112,0.03,179.74591286491298,8.071398182152933,65.7985059437326,1525.0,1435.0,1000.0,1706.0,1475.0,1021.47,244.0,293.9,1637232048.8559375,1637232050.0681438,798e4fac-9111-4e15-8a82-935fcef7c245
-0.3731292931410751,-0.1863257399015849,-0.6594290827033764,0.545149363028488,-0.6668712474838947,-0.4272098918065019,-1.111981154053213,-1.1364377472947218,-19.3314697256476,25.313661147280914,-22.33000155655225,-2.068039418061478,-0.472595718210897,3.3172332355617,-1.0,12.037333333333336,0.03,179.75314375851428,8.087626427029667,65.75033565515612,1525.0,1435.0,1000.0,1706.0,1475.0,1021.47,244.0,293.9,1637232050.1768303,1637232051.2979908,798e4fac-9111-4e15-8a82-935fcef7c245
-0.4901822997918586,-0.2495885071638815,-0.9776293292685112,0.6609449889891684,-0.9507703616967204,-0.4554204256828991,-1.4655696410977808,-1.4882100783043182,-21.46023246568505,26.59733505164068,-22.584412162476525,-2.401085554445944,-0.7269552133902829,4.632076863513023,-1.0,12.036,0.03,179.7879139748491,8.081332976891932,65.72723140192369,1525.0,1435.0,1000.0,1795.0,1475.0,1021.47,244.0,293.9,1637232052.1277544,1637232053.1395063,f8bcb896-c3ca-4eb6-89d1-c15c75a381aa
-0.4992357273561754,-0.256833987581578,-0.9778347777262582,0.6639171419165278,-0.948729573278008,-0.4544890595992946,-1.464432825308613,-1.4955103522483182,-21.506335155361896,26.562128488855347,-23.067617443834298,-2.4060409504763864,-0.749900787508372,4.626408747812422,-1.0,12.02222222222222,0.03,179.77347040148425,8.077558917920546,65.64258259081,1525.0,1435.0,1000.0,1795.0,1475.0,1021.47,244.0,293.9,1637232053.2474272,1637232054.2759302,f8bcb896-c3ca-4eb6-89d1-c15c75a381aa
-0.4904151413543718,-0.2452330010046847,-0.9660968197441367,0.6680808953190986,-0.9380462511926524,-0.4679938694723817,-1.45622857769031,-1.4841832856261694,-21.49939553523668,26.455356970732584,-22.748641565414204,-2.445849458527968,-0.7090365605867882,4.586115237767269,-1.0,12.023,0.03,179.75308911700094,8.067572707035294,65.45825172221943,1525.0,1435.0,1000.0,1795.0,1475.0,1021.47,244.0,293.9,1637232054.3878078,1637232055.511063,f8bcb896-c3ca-4eb6-89d1-c15c75a381aa
-0.5562380806452181,-0.270161836587071,-1.1604341368418232,0.7598807007631632,-1.113480106872311,-0.5192376390605956,-1.6860801221438164,-1.7185180006215155,-22.920655298715754,27.533405991647907,-23.126985099483374,-2.7713848408243287,-0.8127264617635521,5.413043795649856,-1.0,12.013333333333332,0.049999999999999996,179.7946849690463,8.055873162169496,65.38170351546137,1525.0,1435.0,1000.0,1883.0,1475.0,1021.4699999999999,244.0,293.9,1637232056.7124891,1637232057.8502061,99e664eb-9fd3-4a7d-a0a9-b67a44de164f
-0.5592403671046474,-0.2692841609062062,-1.1577528960480123,0.7519723085846205,-1.1138279994680882,-0.5126994481957055,-1.680619570331481,-1.7097521907976636,-22.64640856546555,27.577050892116286,-23.081194971391508,-2.738285074528612,-0.81063712314194,5.402363464234888,-1.0,11.997,0.07777777777777778,179.76980334880986,8.033692407431094,65.22801818785682,1525.0,1435.0,1000.0,1883.0,1475.0,1021.4699999999999,244.0,293.9,1637232057.9584477,1637232059.0106468,99e664eb-9fd3-4a7d-a0a9-b67a44de164f
-0.5505567464326031,-0.26933894714347956,-1.1514798678467084,0.7593410563915004,-1.1072536468860592,-0.5174247620296001,-1.675894251707702,-1.703753089730034,-22.63533935348801,27.623860800144346,-22.75443731434648,-2.764845252867086,-0.8143257750451033,5.378637656417813,-1.0,11.996666666666666,0.06777777777777778,179.762033629174,8.040637191997181,65.06922691439273,1525.0,1435.0,1000.0,1883.0,1475.0,1021.4699999999999,244.0,293.9,1637232059.1223404,1637232060.178314,99e664eb-9fd3-4a7d-a0a9-b67a44de164f
