raw_voltage_G-,raw_voltage_G0,raw_voltage_G1,raw_voltage_G2,raw_voltage_G3,raw_voltage_G4,raw_voltage_G5,raw_voltage_G6,load_x,load_y,load_z,load_l,load_m,load_n,rpm,voltage,current,roll,pitch,yaw,aileron1_pwm,elevator_pwm,throttle_pwm,rudder_pwm,aileron2_pwm,pbaro,pdiff,Tt,sample_start_time,sample_end_time,uid
-0.0186535557677715,0.0740316048285456,-0.0081345985387862,0.1399197206091215,-0.0971118293472282,0.1317938265568584,-0.2555010383106389,-0.2742773789805569,-13.567137572527828,18.8895000945156,46.16578259747446,0.1058791873603496,-0.0529002219910753,0.5651942137852852,-1.0,12.050777777777776,0.04,179.33299150191013,-4.051941755241448,93.54659189138562,1525.0,1435.0,1000.0,1528.0,1475.0,1021.47,241.0,293.75,1637231415.691522,1637231416.717008,56b9c641-bc1c-471d-b561-c5ea96f131db
-0.023554184567389,0.0755267211840591,0.0010174420973847,0.131710003615306,-0.0887361093901597,0.1379830272888711,-0.2426443511291246,-0.2689554437049352,-13.462158356425125,18.744693398018256,46.2650484129584,0.1378706947910901,-0.0473269075074609,0.5233875356579658,-1.0,12.050666666666665,0.04,179.3777201340548,-4.060744256398042,93.88487750059802,1525.0,1435.0,1000.0,1528.0,1475.0,1021.47,241.0,293.75,1637231416.8252208,1637231417.8528984,56b9c641-bc1c-471d-b561-c5ea96f131db
-0.023554184586601,0.079800047413667,-0.000146765415191,0.12877894013876,-0.0919000145940111,0.1341342944229491,-0.2451645182018381,-0.2722837079210569,-13.379615807255965,18.788318892801232,45.9145222076676,0.1360507420656732,-0.0284890349818556,0.5329088188940806,-1.0,12.04977777777778,0.04,179.3977583912598,-4.081029728505502,94.17138344571256,1525.0,1435.0,1000.0,1528.0,1475.0,1021.47,241.0,293.75,1637231417.9607818,1637231419.0819485,56b9c641-bc1c-471d-b561-c5ea96f131db
0.1430781469787777,0.3809188739948808,0.0220690529111982,-0.017623574579816,-0.1415363460249223,-0.0293204359425188,-0.2889524217234447,-0.3152087287079159,-12.84917517849883,18.051613708656,45.3794808838912,0.0953985558718586,1.1212985263298467,0.6676477523917743,-1.0,12.048,0.0377777777777777,179.3977280348635,-4.105718253602291,94.75861806652328,1576.0,1435.0,1000.0,1528.0,1515.0,1021.47,241.0,293.75,1637231421.221625,1637231422.252264,c7ae56f5-9c01-4798-b79d-796eca7b4422
0.1262313803460908,0.355114559546712,0.0133169518957254,-0.0034202430009486,-0.1436319196093348,-0.0178016298735732,-0.2946638874425489,-0.3143184522187027,-13.070702543455118,18.20314836082413,45.22573793313999,0.0896763414883264,1.025146193650648,0.687132245188279,-1.0,12.040333333333333,0.03,179.44298031484453,-4.107497517881078,94.8540107652014,1576.0,1435.0,1000.0,1528.0,1515.0,1021.47,241.0,293.75,1637231422.3648212,1637231423.587101,c7ae56f5-9c01-4798-b79d-796eca7b4422
0.1270471473683477,0.3602655609126419,0.0086431381376369,-0.003164391287764,-0.1483654506728691,-0.0234528300698815,-0.3010744257176507,-0.3293967219691482,-13.103752942795518,18.136097563556028,45.131714238969735,0.0756913640982258,1.0452038999569166,0.7095749576913059,-1.0,12.041,0.03,179.4488952586658,-4.128349753394043,94.96015418163311,1576.0,1435.0,1000.0,1528.0,1515.0,1021.47,241.0,293.75,1637231423.6953485,1637231424.8131266,c7ae56f5-9c01-4798-b79d-796eca7b4422
0.3387735127479635,0.7626419266933309,0.0448748767151286,-0.2110442798270381,-0.2118660733829641,-0.2256216340632643,-0.3495860424866618,-0.3724319062866447,-12.256003133803125,17.309064650577515,45.1844516622,0.0870739050909521,2.575769676039585,0.8636189937069498,-1.0,12.039666666666667,0.03,179.36712119828275,-4.132357793776371,95.06667857083856,1627.0,1435.0,1000.0,1528.0,1556.0,1021.47,241.0,293.75,1637231426.751414,1637231427.772689,9fb34985-1570-449e-af05-6fa05d2dd5c4
0.3562787669332345,0.7692436673092966,0.0481746937516747,-0.2070469914660913,-0.2109916007275033,-0.2357686779574863,-0.3491077164373697,-0.3680226674387161,-12.059485622664036,17.369479431977876,45.19755129376807,0.0559210552142671,2.598741276480485,0.8582138519488581,-1.0,12.033666666666669,0.03,179.3768185490844,-4.131170194634436,95.04835924457468,1627.0,1435.0,1000.0,1528.0,1556.0,1021.47,241.0,293.75,1637231427.8807318,1637231429.0048606,9fb34985-1570-449e-af05-6fa05d2dd5c4
0.3569088085871658,0.7650799138931945,0.0502702672184894,-0.2057047286626375,-0.2075948538337697,-0.2304270195277838,-0.3443687063924316,-0.3715837735249301,-12.017176878807073,17.304123606277617,45.57929413635051,0.0646499019711868,2.579408320069047,0.8440863019048003,-1.0,12.033,0.03,179.3912894432059,-4.146060718503102,95.0263227775825,1627.0,1435.0,1000.0,1528.0,1556.0,1021.47,241.0,293.75,1637231429.1124964,1637231430.2339563,9fb34985-1570-449e-af05-6fa05d2dd5c4
0.5624135995992255,1.134132014762898,0.0783838232845243,-0.3771922409916897,-0.2734621596862576,-0.4248825718394692,-0.4035553820670296,-0.4289718173047069,-11.33520572682114,17.173929986817587,46.77018757608941,0.0155860453107252,3.971090222277684,1.0251090238143803,-1.0,12.032111111111112,0.03,179.30958823817403,-4.131358973473996,94.96159914609753,1678.0,1435.0,1000.0,1528.0,1596.0,1021.47,241.0,293.75,1637231431.1572182,1637231432.1156857,84f9fe47-338a-4686-8b08-2d440d17a012
0.5801900873632848,1.159992760050512,0.0876892650863463,-0.3865404179199163,-0.2705579410573737,-0.4378203439107276,-0.3998808686520252,-0.4321225746490396,-11.263751375094763,17.151018568652084,47.35891533373127,0.0080416220477677,4.064100612204864,1.0071742161700703,-1.0,12.024666666666668,0.03,179.32357494777438,-4.13568210376366,94.85965401927564,1678.0,1435.0,1000.0,1528.0,1596.0,1021.47,241.0,293.75,1637231432.2499049,1637231433.4188075,84f9fe47-338a-4686-8b08-2d440d17a012
0.5856867897366695,1.1665829960111025,0.0918349394021267,-0.3894468282331151,-0.2699120112338934,-0.4418049475953519,-0.3965339768594989,-0.429011263573032,-11.014751405180204,17.20414194602166,47.35684258799383,0.0063274331530808,4.087695569906039,0.9967995061587808,-1.0,12.02422222222222,0.03,179.30388578912698,-4.137671965541857,94.79289878596758,1678.0,1435.0,1000.0,1528.0,1596.0,1021.47,241.0,293.75,1637231433.5267632,1637231434.6477592,84f9fe47-338a-4686-8b08-2d440d17a012
0.8006635697817958,1.5598638021624556,0.1246288829791505,-0.5868115480723509,-0.3449439619694345,-0.648925462043432,-0.4625700310582224,-0.488894823255875,-10.35581321260896,17.73331093597411,46.7196162604742,-0.0085226049046598,5.590109380936895,1.193516636098659,-1.0,12.022333333333332,0.03,179.1892327158993,-4.123496382238187,94.58886889290078,1729.0,1435.0,1000.0,1528.0,1636.0,1021.47,241.0,293.75,1637231436.6736696,1637231437.719032,8c8807ce-a53a-4061-ad71-1b0d68e5316d
0.7798858923452482,1.5250882362012357,0.1135757604743538,-0.5702113138786019,-0.3445467616255569,-0.6333661660273462,-0.4657202400885008,-0.4896344380031707,-10.599911120263416,17.587114091294932,46.20934249847769,-0.0127285920184954,5.463183041107221,1.2076347915182817,-1.0,12.0112,0.03,179.19261381132046,-4.135571881585928,94.42761799242558,1729.0,1435.0,1000.0,1528.0,1636.0,1021.47,241.0,293.75,1637231437.827544,1637231438.94778,8c8807ce-a53a-4061-ad71-1b0d68e5316d
0.7738046208983301,1.502256070867691,0.1158082994409962,-0.5602265197547416,-0.3377669640437017,-0.6246414552857332,-0.458789779928513,-0.4909356110786285,-10.560331237090068,17.66202947135423,45.61092173073371,-0.0151139308793781,5.381485650460227,1.1819675331963535,-1.0,12.012999999999998,0.03,179.1999712910944,-4.133682992770962,94.2893339824895,1729.0,1435.0,1000.0,1528.0,1636.0,1021.47,241.0,293.75,1637231439.0559022,1637231440.0930698,8c8807ce-a53a-4061-ad71-1b0d68e5316d
-0.2438249945895898,-0.3086480758350696,-0.0326832150594005,0.3037393196540401,-0.0355627796239889,0.3239488644528619,-0.1942807018711835,-0.2235760002431322,-13.727985692397006,19.73007433547484,41.75806506832298,0.1717066635355958,-1.469689453898534,0.3761178703874859,-1.0,12.024333333333333,0.0333333333333333,179.67990591677395,-4.146598311309024,94.01568700685236,1474.0,1435.0,1000.0,1528.0,1435.0,1021.47,241.0,293.75,1637231442.2033126,1637231443.3419037,bb03fb09-8da4-4ce3-bf02-658e2b4aa26a
-0.237083547691231,-0.2888976354409066,-0.0324980375923408,0.3075190217179999,-0.0375246747476697,0.3047112273877414,-0.2020340505130749,-0.2328924004554595,-13.87335705609344,19.69341419106469,42.24088967977871,0.1197210274432133,-1.399317898520003,0.3925940536004095,-1.0,12.04175,0.0325,179.67531489128686,-4.132855686107744,94.0622489756068,1474.0,1435.0,1000.0,1528.0,1435.0,1021.47,241.0,293.75,1637231443.450801,1637231444.5660725,bb03fb09-8da4-4ce3-bf02-658e2b4aa26a
-0.2312077233777874,-0.2932805348967532,-0.0243759780975059,0.3051221241192041,-0.0303339812424407,0.3098200434213189,-0.1916657546230356,-0.2244827125659227,-13.747865160895964,19.75841514085036,42.11270399284972,0.1374860923220375,-1.4146974235020924,0.3562955035954405,-1.0,12.04577777777778,0.03,179.64861757909603,-4.134282152143153,94.09325898307604,1474.0,1435.0,1000.0,1528.0,1435.0,1021.47,241.0,293.75,1637231444.6743748,1637231445.7987185,bb03fb09-8da4-4ce3-bf02-658e2b4aa26a
-0.378363570852365,-0.5523646926984761,-0.0404009521329523,0.439485353791798,0.0137963314263075,0.4382252705038085,-0.1542330567793434,-0.1834204258666398,-14.001840444039445,20.557279510407493,41.9417571734328,0.1272819926606122,-2.40065320430487,0.2338183544603844,-1.0,12.041333333333332,0.03,179.71198048511633,-4.114893284659863,94.08992736858087,1423.0,1435.0,1000.0,1528.0,1394.0,1021.47,241.0,293.75,1637231446.709336,1637231447.6436975,a3a7f42f-3c1d-4dcc-8b81-0b654306ddd0
-0.385417299860206,-0.5759090838615665,-0.0495639501219137,0.4603589072765736,0.0137141520904315,0.4451420319956948,-0.1606293501556141,-0.1816535696683803,-14.283759391856355,20.52370928642037,42.319756483977926,0.0949788039235356,-2.4934652671321373,0.253211326820404,-1.0,12.029,0.03,179.72500489695364,-4.10874194040236,93.9633290534048,1423.0,1435.0,1000.0,1528.0,1394.0,1021.47,241.0,293.75,1637231447.7532418,1637231448.8762045,a3a7f42f-3c1d-4dcc-8b81-0b654306ddd0
-0.3947589025476185,-0.5764081866462638,-0.0492637215566172,0.4609319712601119,0.0137579810756768,0.4491507404341807,-0.1602518729762149,-0.1877457993695483,-14.31030994695404,20.592740289131683,42.89669504996352,0.1032453817967904,-2.500313032510421,0.2529163936250691,-1.0,12.029,0.03,179.73263497716647,-4.11473268035063,93.8466542441828,1423.0,1435.0,1000.0,1528.0,1394.0,1021.47,241.0,293.75,1637231448.9852087,1637231450.0979185,a3a7f42f-3c1d-4dcc-8b81-0b654306ddd0
-0.592577800931799,-0.9451547692314822,-0.0678488565975184,0.6467553556713224,0.0803205166273386,0.6265392371587789,-0.1082400099257191,-0.1280589315348837,-15.154892606488318,21.962411372337456,41.19409579157838,0.0901467448695855,-3.8863028762501455,0.0669923888157756,-1.0,12.026333333333334,0.03,179.83607895105624,-4.10797871419448,93.66616953100484,1372.0,1435.0,1000.0,1528.0,1354.0,1021.47,241.0,293.75,1637231451.214988,1637231452.1521213,a1262298-8a09-45d2-a4b9-96a41fe4c311
-0.5985900442205917,-0.9425469429159442,-0.0721950487466571,0.6398462643315225,0.0756488944731729,0.6260664320042566,-0.1108259203375253,-0.1278140373149948,-15.061834688099106,21.79942921814898,40.56085100997908,0.1033185662446857,-3.870995783020639,0.0824552311302638,-1.0,12.014444444444443,0.03,179.84749902734848,-4.099409482970792,93.45986670276426,1372.0,1435.0,1000.0,1528.0,1354.0,1021.47,241.0,293.75,1637231452.2609932,1637231453.2842407,a1262298-8a09-45d2-a4b9-96a41fe4c311
-0.5872821618642547,-0.929398239141492,-0.0650947524477071,0.6432386276321279,0.0795277598521685,0.6094333328666708,-0.1096556862767628,-0.1367025562563662,-15.000903708126543,21.86925413916466,40.502595250248845,0.0591272411108875,-3.8215614521136696,0.067379954383435,-1.0,12.015333333333333,0.03,179.82950830907464,-4.110105938665985,93.28659846389937,1372.0,1435.0,1000.0,1528.0,1354.0,1021.47,241.0,293.75,1637231453.3930686,1637231454.4029255,a1262298-8a09-45d2-a4b9-96a41fe4c311
-0.705834684244946,-1.142412738489072,-0.0793265732615208,0.7298934582422948,0.1092202548484545,0.7130056031303589,-0.0852023971545011,-0.1132940404681041,-15.547466020556593,22.980442215356977,36.93001805763519,0.1022088296230614,-4.596515682122505,-0.0193710924897975,-1.0,12.00888888888889,0.0477777777777777,179.8757228868188,-4.105088500674441,92.93143545724789,1321.0,1435.0,1000.0,1528.0,1314.0,1021.47,241.0,293.75,1637231456.243009,1637231457.2670867,552f875b-4728-4f1f-9729-4baf5346ef0a
-0.6918537797907724,-1.1157942787451522,-0.0774545274844182,0.7159114647308783,0.1062196128771988,0.6945448353901453,-0.0889596372543835,-0.1135739981531046,-15.575505757079224,22.77119718212384,36.1789112470125,0.0908372308599587,-4.487988163388001,-0.0103812645742607,-1.0,11.98488888888889,0.11,179.88222826254827,-4.1162944220771,92.54675844428284,1321.0,1435.0,1000.0,1528.0,1314.0,1021.47,241.0,293.75,1637231457.3749516,1637231458.4191332,552f875b-4728-4f1f-9729-4baf5346ef0a
-0.6911245747081486,-1.1049800159252647,-0.0837231687391945,0.7062942900727748,0.0975370905790405,0.6913650426569221,-0.0973101555426695,-0.1193342232496418,-15.633240071805671,22.72991332197186,35.918939216393646,0.1047294866143289,-4.443929366491681,0.0227129551846645,-1.0,11.986222222222224,0.1,179.88702457316543,-4.094125240714794,92.24564348344356,1321.0,1435.0,1000.0,1528.0,1314.0,1021.47,241.0,293.75,1637231458.5294504,1637231459.5329225,552f875b-4728-4f1f-9729-4baf5346ef0a
-0.0378769502234967,0.0581742772589454,-0.0024938077405146,0.1352782309597373,-0.0863167491620246,0.1417605380778009,-0.241563418595744,-0.2600504878519382,-13.57551886820656,18.55771972146525,44.846482741433,0.1366127209893663,-0.0996991634604974,0.5192678209659334,-1.0,11.996555555555554,0.0844444444444444,179.57717531819753,-4.0837727609353,91.70811063140322,1525.0,1435.0,1000.0,1528.0,1475.0,1021.47,241.0,293.75,1637231461.668009,1637231462.7157166,8a37755a-86b8-44bb-ae2f-7df14ed0b45c
-0.0460713275601713,0.0437780984278117,-0.0086797215727322,0.1457489758116941,-0.0880786745415449,0.1471871144222258,-0.2440961865033862,-0.2706401208148301,-13.519853465013147,18.49809820092101,44.9501307178564,0.1245288147242331,-0.1566885402204008,0.5322652839533998,-1.0,12.051333333333334,0.04,179.51920977944135,-4.06715922698476,92.05696633781116,1525.0,1435.0,1000.0,1528.0,1475.0,1021.47,241.0,293.75,1637231462.8233836,1637231463.8209784,8a37755a-86b8-44bb-ae2f-7df14ed0b45c
-0.0458658792263363,0.0451751473707526,-0.0187056027212111,0.1531451172316601,-0.0956665684322131,0.1446121615118505,-0.2566011460450477,-0.2786389118512652,-13.749460473638472,18.47029413447986,45.66125126182242,0.1013729086878988,-0.1576729810201451,0.5751587548399151,-1.0,12.05277777777778,0.04,179.4754813905551,-4.052212259191704,92.37086589495684,1525.0,1435.0,1000.0,1528.0,1475.0,1021.47,241.0,293.75,1637231463.9289932,1637231465.049949,8a37755a-86b8-44bb-ae2f-7df14ed0b45c
-0.0293889186751253,0.0414770765961057,-0.0524128344147248,-0.3351098312475338,-0.179379940446386,0.6239368912838014,-0.155150726266204,-0.1873650351331478,-13.49138562706,17.482568187027727,49.63997249938297,2.272401107333609,-0.150671866291232,0.5921512421741769,-1.0,12.049555555555555,0.0377777777777777,179.45729183788546,-3.896956462396744,92.8410887505466,1525.0,1521.0,1000.0,1528.0,1475.0,1021.47,241.0,293.75,1637231466.6413944,1637231467.8247802,42898e16-2f48-4822-ab70-32e3583ae068
-0.0197602377330838,0.0548997040406422,-0.0414008009175157,-0.3404377934724629,-0.1706004456183479,0.6141027631672177,-0.1451248446133434,-0.16805288576044,-13.37336274145924,17.270448107246118,49.497162119629046,2.261499886828874,-0.0985479716877199,0.5524535158198494,-1.0,12.042,0.03,179.46831576320585,-3.899336214140062,92.96189354748668,1525.0,1521.0,1000.0,1528.0,1475.0,1021.47,241.0,293.75,1637231467.933897,1637231469.2579792,42898e16-2f48-4822-ab70-32e3583ae068
-0.0188562648532037,0.0540642139443082,-0.0369357226856379,-0.3319322292260194,-0.1684637823119307,0.6035838071872958,-0.1441386923308333,-0.1709154666953304,-13.15362545477288,17.51633985833899,49.01599834434611,2.220562206240979,-0.0997322563171421,0.5414004324373979,-1.0,12.047111111111112,0.0344444444444444,179.44451331285825,-3.8957903024597016,93.0550004095226,1525.0,1521.0,1000.0,1528.0,1475.0,1021.47,241.0,293.75,1637231469.366356,1637231470.3093522,42898e16-2f48-4822-ab70-32e3583ae068
-0.0124473710140418,0.0277087479552741,-0.0763237395165211,-0.8958033015996152,-0.2619044541607496,1.1744853622354254,-0.0258195954055875,-0.0532872228020265,-13.327786540133784,16.70291051585319,53.00191111476309,4.768603346162179,-0.1657618401214104,0.5515997663527735,-1.0,12.04322222222222,0.0377777777777777,179.45216008908903,-3.693064074318854,93.2224963796289,1525.0,1607.0,1000.0,1528.0,1475.0,1021.47,241.0,293.75,1637231472.217221,1637231473.2376032,7e50b479-3011-491f-8c07-7111be5ec97d
0.0002016750585505,0.0396872102954078,-0.0751140594191097,-0.9023250584798076,-0.2658885096430078,1.1650840446804214,-0.0261614615220158,-0.0523668140730693,-12.94894459919076,16.707732353359724,52.48176380410784,4.762388799445114,-0.1180268842317713,0.5567855555152301,-1.0,12.037777777777778,0.03,179.46930234608595,-3.702780587595628,93.15763538545065,1525.0,1607.0,1000.0,1528.0,1475.0,1021.47,241.0,293.75,1637231473.3461273,1637231474.5845234,7e50b479-3011-491f-8c07-7111be5ec97d
-0.0004689084640973,0.0370180249445898,-0.0709985173150034,-0.9007209168981742,-0.2601293799751869,1.1679767578245657,-0.0224535290787091,-0.0506311862653071,-13.183165387839598,16.731469057088276,52.76210214087926,4.76555962849981,-0.1288010247715753,0.5379651179112346,-1.0,12.036666666666669,0.03,179.46203198916945,-3.693650474518221,93.13257314465612,1525.0,1607.0,1000.0,1528.0,1475.0,1021.47,241.0,293.75,1637231474.6929176,1637231475.8121903,7e50b479-3011-491f-8c07-7111be5ec97d
0.001168104206262,0.0119472959994588,-0.1074593060130951,-1.4128652273887876,-0.3557779416243892,1.6885429893818438,0.0705822635563482,0.0400526343610273,-13.64137277769312,17.326677731183413,56.44135676626794,7.093099597239983,-0.1914429615413158,0.5825792940357907,-1.0,12.032666666666666,0.03,179.48688932428885,-3.5155192832598963,93.05591793160109,1525.0,1693.0,1000.0,1528.0,1475.0,1021.47,241.0,293.75,1637231476.7227328,1637231477.860033,642f36f6-04d3-442c-a60d-8a96b642b5c5
0.010878964414829,0.0189325409710484,-0.1065416365486961,-1.4118379841315367,-0.3560107831956937,1.6792841140006345,0.0688017109351389,0.0458051889304076,-13.61376152319726,17.299459723745333,56.22956561725482,7.069821859302233,-0.1636311338467788,0.5847666652986736,-1.0,12.027,0.03,179.49753075901572,-3.508858710454272,92.89980485120157,1525.0,1693.0,1000.0,1528.0,1475.0,1021.47,241.0,293.75,1637231477.9676754,1637231478.9773076,642f36f6-04d3-442c-a60d-8a96b642b5c5
0.0089888393038414,0.0180970508844272,-0.110623211217757,-1.414467726275538,-0.3598458202499039,1.6820097296344507,0.0646516537260585,0.0321634165513461,-13.714719684251298,17.324069484026406,56.12502552386482,7.081771157391009,-0.1650581915490988,0.6011102576008652,-1.0,12.029111111111112,0.03,179.49050628890933,-3.531610378886734,92.78405591206706,1525.0,1693.0,1000.0,1528.0,1475.0,1021.47,241.0,293.75,1637231479.0861328,1637231480.113056,642f36f6-04d3-442c-a60d-8a96b642b5c5
0.0340261486626267,0.0286023114232843,-0.1045693319864575,-1.797930761969399,-0.4127556362548488,2.0392708661039336,0.1529122757791853,0.1295048575680529,-13.649428019059584,18.44344959780345,58.52650892238149,8.757720918162443,-0.0997882075755893,0.5401411402610857,-1.0,12.024111111111113,0.03,179.5296736292498,-3.3772878752668007,92.47553171379816,1525.0,1780.0,1000.0,1528.0,1475.0,1021.47,241.0,293.75,1637231482.1503916,1637231483.3898609,d1fd345c-e8d2-45ef-a1cc-79e3da20de39
0.0238769986659354,0.0202063209505615,-0.115649848527233,-1.7943011685356456,-0.4209735731295641,2.044434470880828,0.1428453055091975,0.1247110622454831,-13.784179118680669,18.4627751327392,58.48530172768596,8.76063873064274,-0.1311083216379354,0.5796270753333412,-1.0,12.012999999999998,0.03,179.54384247722805,-3.3570076443808907,92.19504620098203,1525.0,1780.0,1000.0,1528.0,1475.0,1021.47,241.0,293.75,1637231483.4978974,1637231484.6192658,d1fd345c-e8d2-45ef-a1cc-79e3da20de39
0.0274654970598819,0.0231921707349934,-0.1191972574490437,-1.789260827695588,-0.4221925671331276,2.036161746140307,0.1383939240738925,0.1080971370068276,-13.844069996143276,18.251624762861365,58.35711416096391,8.729052079538178,-0.1191985951096442,0.5927301787268412,-1.0,12.012999999999998,0.03,179.5319002709192,-3.369188741299112,91.99170843375111,1525.0,1780.0,1000.0,1528.0,1475.0,1021.47,241.0,293.75,1637231484.7275426,1637231485.8480072,d1fd345c-e8d2-45ef-a1cc-79e3da20de39
-0.0751009107135231,0.0597258234213259,0.0423169495293484,0.8208249021834539,0.0235537598510125,-0.5132944266451088,-0.3833195345929334,-0.4143110180204076,-13.434484855883058,20.335059199126587,41.289437448687714,-2.868291125486636,-0.1448866864634394,0.5109196768612156,-1.0,12.009,0.03,179.54022399478777,-4.21829409554861,91.77699916046204,1525.0,1349.0,1000.0,1528.0,1475.0,1021.47,241.0,293.75,1637231486.6455784,1637231487.6904795,b0f84dbc-cd0e-459a-8d91-cf90ce09dcba
-0.0743410256398761,0.0563515392250783,0.0388199442185658,0.8148258100626152,0.0200556588058541,-0.5045089037597325,-0.3835682640948346,-0.4001411034299777,-13.374483843746674,20.299840471398287,41.26874974523657,-2.835397091939362,-0.1572672936987306,0.5203715049876422,-1.0,12.050888888888888,0.04,179.49426896423208,-4.20445883590671,92.20801673021587,1525.0,1349.0,1000.0,1528.0,1475.0,1021.47,241.0,293.75,1637231487.799134,1637231488.9202254,b0f84dbc-cd0e-459a-8d91-cf90ce09dcba
-0.0736425011293115,0.0495032599256817,0.0340398452423986,0.8244134002368623,0.019987176003755,-0.505988132626758,-0.3888825298617706,-0.4192751997722297,-13.64336142459976,20.22192473021426,41.3231067367426,-2.861229582358874,-0.1830160117641988,0.5337229978855554,-1.0,12.050777777777776,0.04,179.45165161945084,-4.20838794965863,92.56940735157062,1525.0,1349.0,1000.0,1528.0,1475.0,1021.47,241.0,293.75,1637231489.0277388,1637231490.036226,b0f84dbc-cd0e-459a-8d91-cf90ce09dcba
-0.0886835146230372,0.0744918092210703,0.0873380853058167,1.374647965789796,0.1147794139717452,-1.0545476083632035,-0.5040640394663307,-0.5356209191513668,-13.932652301035334,22.53176224310529,38.58716281162476,-5.317725999324567,-0.1273252819774674,0.4987941116273973,-1.0,12.051,0.04,179.44002511966366,-4.410703085788807,93.13339276735653,1525.0,1262.0,1000.0,1528.0,1475.0,1021.47,241.0,293.75,1637231491.6395175,1637231492.6060655,6f406760-fd4f-403a-81a4-be305e010853
-0.0859091395946347,0.0746364448650745,0.0869699218530243,1.37518706233497,0.11418772268362,-1.0564147244047513,-0.505549842460006,-0.5289019333869682,-13.969178728142644,22.581442472456388,38.405023144668405,-5.322874144526364,-0.1249988574091296,0.5019367330819998,-1.0,12.040333333333333,0.03,179.42824532007512,-4.379389656652061,93.35335445611736,1525.0,1262.0,1000.0,1528.0,1475.0,1021.47,241.0,293.75,1637231492.714667,1637231493.835111,6f406760-fd4f-403a-81a4-be305e010853
-0.0966516249660628,0.0580427902763484,0.0788966224284371,1.371413386370918,0.1100721808369213,-1.036967789559847,-0.5067463741460295,-0.5317420526542016,-14.060123553421311,22.51610106656793,38.32986459117518,-5.271554709416625,-0.1859736294931409,0.5180669428781158,-1.0,12.041111111111112,0.03,179.40871097904886,-4.395069826279771,93.53113896784345,1525.0,1262.0,1000.0,1528.0,1475.0,1021.47,241.0,293.75,1637231493.942562,1637231494.9509687,6f406760-fd4f-403a-81a4-be305e010853
-0.1208583761653164,0.0749651622860157,0.1261661847319549,1.8940346990446,0.1934086152366171,-1.5607991834240125,-0.6292133679082303,-0.6543799815852335,-14.81775160398465,25.50632869165684,34.31479189400739,-7.6064245406307,-0.1428551718907123,0.5137030173336634,-1.0,12.04,0.03,179.45455976221746,-4.590485190687768,93.79523809793078,1525.0,1176.0,1000.0,1528.0,1475.0,1021.47,241.0,293.75,1637231496.6411502,1637231497.6139266,95499ebd-9163-4f46-8c6d-c96e8ba52606
-0.1117463291091583,0.0844705738747392,0.122834633893064,1.831069409576144,0.1823050895491812,-1.5190136727235848,-0.6206146655086451,-0.6432002986989515,-14.835281698462753,25.323711471101827,33.35963089222302,-7.372030215335033,-0.0910763824182895,0.520438561324042,-1.0,12.029222222222224,0.03,179.44926257106115,-4.5686146403741725,93.86132624942992,1525.0,1176.0,1000.0,1528.0,1475.0,1021.47,241.0,293.75,1637231497.7223914,1637231498.7512825,95499ebd-9163-4f46-8c6d-c96e8ba52606
-0.1088015688872384,0.0762526387842898,0.1237933929600498,1.8023614155906744,0.184291090470366,-1.4869636892037823,-0.6065209021405383,-0.6304077088239631,-14.803707190941116,24.96650572847213,33.07535612127668,-7.237601063513771,-0.1160133011885479,0.4948818009025806,-1.0,12.030111111111111,0.03,179.44992434050073,-4.570711271290019,93.962882814379,1525.0,1176.0,1000.0,1528.0,1475.0,1021.47,241.0,293.75,1637231498.85939,1637231499.8702345,95499ebd-9163-4f46-8c6d-c96e8ba52606
-0.1278397864822594,0.0831694008212055,0.1373803786979528,2.1032064296436563,0.2131086484912253,-1.7794951676477055,-0.6952883302969158,-0.7234210735488499,-15.201564235953567,27.39474014797607,31.51956262019421,-8.55726567233485,-0.1096042820796609,0.5635022247585589,-1.0,12.029333333333334,0.03,179.46323865592282,-4.651008682719982,94.0709834594629,1525.0,1090.0,1000.0,1528.0,1475.0,1021.47,241.0,293.75,1637231500.6848133,1637231501.709606,831ca705-eebd-42b9-893a-07c9272f20e9
-0.1225677067955011,0.0826571495263037,0.1473092877503587,2.1224670869778315,0.2233087491924117,-1.7920061702035055,-0.6894870134105848,-0.7183221159638552,-15.091972558854984,27.5529971112886,32.248618675704016,-8.627112010308885,-0.1205020796055719,0.528962138305146,-1.0,12.017111111111111,0.03,179.49523277981496,-4.664145270928032,94.06342623460124,1525.0,1090.0,1000.0,1528.0,1475.0,1021.47,241.0,293.75,1637231501.8177383,1637231502.9346137,831ca705-eebd-42b9-893a-07c9272f20e9
-0.1191045422602205,0.0883287890283306,0.1461198363627501,2.103518289943854,0.2226224883020727,-1.7779653653869212,-0.6823492917740537,-0.6998598217757545,-14.96991425608232,27.053229544624685,32.58220781287733,-8.556074232740945,-0.1008013520247813,0.522636703261391,-1.0,12.015,0.04,179.48827357596065,-4.693015294752945,94.0710616271834,1525.0,1090.0,1000.0,1528.0,1475.0,1021.47,241.0,293.75,1637231503.0423076,1637231504.1671228,831ca705-eebd-42b9-893a-07c9272f20e9
-0.0457152170327863,0.0570226706153988,-0.0074744244028519,0.1594181408465551,-0.0903112137115067,0.135627219280751,-0.250739018236896,-0.274091653785534,-13.478535713659603,18.78457122218961,46.91520595586977,0.0700110221665097,-0.1263238900091572,0.5475264404079276,-1.0,12.018777777777778,0.0311111111111111,179.4990121511557,-4.078298506611144,94.06317275869203,1525.0,1435.0,1000.0,1528.0,1475.0,1021.47,241.0,293.75,1637231506.2144637,1637231507.2401285,4f739d41-1562-4372-8733-62b88e8dca67
-0.052358048185951,0.0389432132387156,-0.0093508529697894,0.1835514763135406,-0.0871199153999344,0.1317237001720421,-0.2544507860843328,-0.2709003552615895,-13.594060039606854,19.005113126610915,46.97758167054271,0.0081207577712729,-0.196954574459413,0.5489629811129217,-1.0,12.050333333333334,0.04,179.50429264629403,-4.093056553269033,94.15339803980808,1525.0,1435.0,1000.0,1528.0,1475.0,1021.47,241.0,293.75,1637231507.3482602,1637231508.4690993,4f739d41-1562-4372-8733-62b88e8dca67
-0.0539052115407096,0.0388851398313949,-0.008252936799354,0.1739090993925605,-0.0846600133465628,0.1377764831752157,-0.2495315294633783,-0.2760787506845451,-13.663378364866237,18.755024641555803,46.594488376918015,0.0417738510447085,-0.1920338771056838,0.5365342252455336,-1.0,12.050333333333334,0.04,179.49060950065677,-4.093361255597007,94.23337955498894,1525.0,1435.0,1000.0,1528.0,1475.0,1021.47,241.0,293.75,1637231508.577301,1637231509.6931314,4f739d41-1562-4372-8733-62b88e8dca67
0.0388062476469247,0.0901650549792418,0.2468843603946132,0.144271938990728,0.141773686789886,0.0986985587188289,0.0092742756000975,-0.0180618645654431,-11.884425422255983,18.66220412357468,46.272935454004845,0.0337477475595972,0.0103776452435523,-0.4813675513989958,-1.0,12.049,0.04,179.47756383934205,-4.092719786997455,94.30461766912224,1525.0,1435.0,1000.0,1439.0,1475.0,1021.47,241.0,293.75,1637231510.7091444,1637231511.8655975,df669ec1-8f85-4f89-957c-c13ceefd0511
0.0309581195080445,0.088237127400677,0.234420492710336,0.1281078088185448,0.1278749673360683,0.1026869965311805,-0.0001193723065749,-0.0236500605654603,-11.759711136105205,18.583426967653605,44.37269527902614,0.0777896453428213,0.0203044999651462,-0.4350083982842442,-1.0,12.049,0.04,179.48096982700815,-4.092696308222184,94.34250624626812,1525.0,1435.0,1000.0,1439.0,1475.0,1021.47,241.0,293.75,1637231511.978368,1637231513.0868464,df669ec1-8f85-4f89-957c-c13ceefd0511
0.0307663676707573,0.0822106417254512,0.23170857425699,0.1283406503040439,0.1262313803423804,0.1052482529363536,-0.0019821042987073,-0.0225954255599762,-11.802316448054867,18.622511283225567,43.91027245203307,0.0830487970399809,0.0019015802883295,-0.4278462028371727,-1.0,12.051777777777778,0.04,179.46473522626096,-4.082991652912719,94.37922989670555,1525.0,1435.0,1000.0,1439.0,1475.0,1021.47,241.0,293.75,1637231513.1963737,1637231514.202153,df669ec1-8f85-4f89-957c-c13ceefd0511
0.128409133124437,0.1260807182076054,0.5397852433585699,0.1146851816543608,0.4032305661798548,0.0665965649912975,0.3089160705785856,0.2885629857257718,-9.862767977780653,18.937456339506635,45.1069793133726,0.0455917364811698,0.163324049667406,-1.6596207624066015,-1.0,12.048555555555556,0.0355555555555555,179.47049231682138,-4.082778541524241,94.44982749087671,1525.0,1435.0,1000.0,1351.0,1475.0,1021.47,241.0,293.75,1637231516.2500916,1637231517.3871317,1a8c6a0a-b47e-4a99-b623-72556b8c697d
0.1289296023249228,0.1267244564539703,0.5411001128666004,0.1152193474011178,0.406723188351668,0.0648844952041508,0.3127648033193122,0.2906174693474517,-9.81271650280679,18.653014124608102,45.04625930920551,0.0387349254490029,0.1659351318352014,-1.6715012489442775,-1.0,12.0487,0.04,179.46385974779133,-4.070947747933077,94.43551232506827,1525.0,1435.0,1000.0,1351.0,1475.0,1021.47,241.0,293.75,1637231517.4958627,1637231518.6235569,1a8c6a0a-b47e-4a99-b623-72556b8c697d
0.1297513958215981,0.1368462130040534,0.5446886108796191,0.119068080333318,0.4060794501518063,0.0569952774552215,0.3120525822971418,0.2894532618912809,-9.622897760698727,18.85176167469176,45.845607301760346,0.0140441766095406,0.1952267822553955,-1.6720648564362603,-1.0,12.046444444444443,0.04,179.47230155804152,-4.093265253493673,94.42825699456792,1525.0,1435.0,1000.0,1351.0,1475.0,1021.47,241.0,293.75,1637231518.7434273,1637231519.6930034,1a8c6a0a-b47e-4a99-b623-72556b8c697d
0.2285156326811369,0.1661645175879975,0.8630322133959831,0.1168569079334534,0.6964382474652839,0.0186098500318479,0.6355597897712294,0.6101302136936313,-7.601604154712184,19.20206385219385,46.63881906177493,-0.0479076491419424,0.30431128518431,-2.956170086356062,-1.0,12.047,0.04,179.47264610313965,-4.095707567872513,94.38644561210872,1525.0,1435.0,1000.0,1262.0,1475.0,1021.47,241.0,293.75,1637231521.6666431,1637231522.7120876,3e210065-8954-46fb-a755-041a954b2f8b
0.2321578213503267,0.1774723959853114,0.8554191189420898,0.1111240764854472,0.6867871053577091,0.011693635725793,0.6244359938235882,0.6003738820186224,-7.684532456285982,19.18044205008953,46.408945917989584,-0.0511182448791124,0.3495698482850231,-2.915864828008442,-1.0,12.043333333333331,0.0344444444444444,179.4866920077128,-4.103081468559582,94.3612027507562,1525.0,1435.0,1000.0,1262.0,1475.0,1021.47,241.0,293.75,1637231522.8200257,1637231523.941035,3e210065-8954-46fb-a755-041a954b2f8b
0.2151905253717835,0.1694440214780239,0.8407260000234914,0.1127128772287,0.6743676150989071,0.0165630362881366,0.6092541818991801,0.586093303539155,-7.9118127089562975,19.29173171108445,46.07593265176888,-0.0439213548101553,0.3228934912357913,-2.8589368366223664,-1.0,12.041222222222224,0.0311111111111111,179.48025948733448,-4.089378780992196,94.33631126469092,1525.0,1435.0,1000.0,1262.0,1475.0,1021.47,241.0,293.75,1637231524.048498,1637231525.1707785,3e210065-8954-46fb-a755-041a954b2f8b
0.3081216702695294,0.2245589710096039,1.0945643022861142,0.1122061045828298,0.89849807918563,-0.0545905873697058,0.8560524477291294,0.8248106003913193,-5.930727638780489,19.508954123127904,45.486173334374,-0.187687229728387,0.5369715237388434,-3.8544793875058105,-1.0,12.043222222222225,0.03,179.4881703642132,-4.103555882115682,94.24784893129066,1525.0,1435.0,1000.0,1173.0,1475.0,1021.47,241.0,293.75,1637231527.196256,1637231528.2418892,e9da0cc7-7be7-4532-87f0-79450ef0cae2
0.2905215935887701,0.2015761467051483,1.0970296827950454,0.1245193104838529,0.904880674996658,-0.0379766612353705,0.8610790843405635,0.8419723867896289,-6.116122826038517,19.83853660006172,46.28394244884617,-0.1757876477929769,0.4436593954659023,-3.875502854098937,-1.0,12.033,0.03,179.48052814144182,-4.111334756102287,94.18070210047016,1525.0,1435.0,1000.0,1173.0,1475.0,1021.47,241.0,293.75,1637231528.3502524,1637231529.470951,e9da0cc7-7be7-4532-87f0-79450ef0cae2
0.3090804293095009,0.2131634347644039,1.1061789834365945,0.1120143526965262,0.912235726330959,-0.0340731419705225,0.8723924407278085,0.8462320161290515,-6.105672971453356,19.59666468604566,46.89716153983159,-0.1398526109544779,0.4837254067097162,-3.911836126304243,-1.0,12.0367,0.03,179.4769532204303,-4.119339211315793,94.14363648522828,1525.0,1435.0,1000.0,1173.0,1475.0,1021.47,241.0,293.75,1637231529.579332,1637231530.700452,e9da0cc7-7be7-4532-87f0-79450ef0cae2
-0.1597259250709339,-0.0003768675920195,-0.3613086129993867,0.2205869691993208,-0.409472296585731,0.14719094948446,-0.6258604492702114,-0.6450181064845075,-15.849352529826556,19.39421658443517,45.77064439286972,-0.0569386484415119,-0.3446348316778471,1.988711812645368,-1.0,12.048666666666666,0.0377777777777777,179.5586943441233,-4.108976301268256,94.39503115989544,1525.0,1435.0,1000.0,1617.0,1475.0,1021.47,241.0,293.75,1637231532.838467,1637231534.0713356,6ce282b9-cf1d-402b-a028-fb0c96a3ca80
-0.1681487614273152,-0.0099808946805807,-0.366447562677513,0.2285994555439979,-0.4099752342930554,0.1480773906532391,-0.6292435003694479,-0.6521715476230568,-15.9663629571238,19.270373503275994,45.57720855064196,-0.0741874938925639,-0.3794275753028341,1.999822871056668,-1.0,12.049,0.04,179.5324421325934,-4.094137335841449,94.39936605328867,1525.0,1435.0,1000.0,1617.0,1475.0,1021.47,241.0,293.75,1637231534.1797645,1637231535.3026285,6ce282b9-cf1d-402b-a028-fb0c96a3ca80
-0.1649437664924752,-0.0123367028364367,-0.3518881183176306,0.2307635117316439,-0.3977852946986304,0.1472692937815385,-0.6159167443676347,-0.63458516038775,-15.871561700268908,19.515382082778217,45.52141985301572,-0.0784969939256053,-0.3877791096928968,1.94402012366399,-1.0,12.050000000000002,0.04,179.55271413405,-4.097933782655115,94.40524684616406,1525.0,1435.0,1000.0,1617.0,1475.0,1021.47,241.0,293.75,1637231535.4103615,1637231536.5288515,6ce282b9-cf1d-402b-a028-fb0c96a3ca80
-0.2648190822016161,-0.0585351963475782,-0.6711549845924099,0.2893984758277654,-0.6850433002164943,0.1500633916547689,-0.9579747555918612,-0.9843680402303834,-18.221069351404967,20.03810500733866,44.61985567562741,-0.2182429581485626,-0.5638819416148081,3.249284434327114,-1.0,12.048333333333334,0.0377777777777777,179.5446393326312,-4.125678200791183,94.4464381992286,1525.0,1435.0,1000.0,1706.0,1475.0,1021.47,241.0,293.75,1637231538.777939,1637231539.91528,5dd779bf-d60c-48ef-869e-d0121432edbf
-0.2738999017669617,-0.056891609263956,-0.6832216572998955,0.3008487980727658,-0.6959457651195909,0.145118934123189,-0.9743284564654956,-1.0018996467442205,-18.36673284202428,20.162199070798724,45.53411000088567,-0.2548887271225288,-0.5669621713011649,3.3053023246644706,-1.0,12.03977777777778,0.03,179.53131135683077,-4.133228690327417,94.37375967409032,1525.0,1435.0,1000.0,1706.0,1475.0,1021.47,241.0,293.75,1637231540.0231843,1637231541.0310717,5dd779bf-d60c-48ef-869e-d0121432edbf
-0.2787621806968206,-0.0599733350512999,-0.7012463353386719,0.305998703795646,-0.7114913652113714,0.1480636941576376,-0.9921066005018536,-1.018239651225712,-18.43823606335631,20.12275008505183,46.06031886671428,-0.2609995165971964,-0.5844556114815368,3.3767385269101786,-1.0,12.041,0.03,179.5422184100254,-4.115497614105802,94.33049953261715,1525.0,1435.0,1000.0,1706.0,1475.0,1021.47,241.0,293.75,1637231541.1387398,1637231542.1640663,5dd779bf-d60c-48ef-869e-d0121432edbf
-0.3798564960362132,-0.1075003956974721,-0.9999684300230882,0.4085448304874911,-0.9816835129259006,0.1139318709410314,-1.3266863948983787,-1.3573804128021,-20.31971954625048,21.330761277052925,45.56946490146101,-0.5769088682457263,-0.7765864051595853,4.620955926248395,-1.0,12.034333333333333,0.03,179.54982268730134,-4.141072119088054,94.26170814402651,1525.0,1435.0,1000.0,1795.0,1475.0,1021.47,241.0,293.75,1637231543.2835922,1637231544.3151965,e7f89932-2729-4fb7-9373-d6b3837c658b
-0.3709263381587731,-0.0964883619683002,-0.9981330902535458,0.3976560672473155,-0.9810260778942363,0.113616850024247,-1.3255495797102583,-1.3543123807192723,-20.487255414473385,21.17419498441888,45.64733187477295,-0.5540728102462488,-0.7333346034342161,4.617234027106735,-1.0,12.026777777777776,0.03,179.55026589068746,-4.14336815358217,94.07377473010372,1525.0,1435.0,1000.0,1795.0,1475.0,1021.47,241.0,293.75,1637231544.4285812,1637231545.6498554,e7f89932-2729-4fb7-9373-d6b3837c658b
-0.3818151042667683,-0.1059115948270107,-0.9990507602512292,0.3986696125459741,-0.9811767401953272,0.1208760260294145,-1.324166226071738,-1.3461355274344882,-20.439472370635517,21.275170619772904,45.499808909669945,-0.5394225597745671,-0.7678894122760761,4.6153730991357,-1.0,12.024555555555557,0.03,179.58973527717126,-4.147836709982912,93.89330898967344,1525.0,1435.0,1000.0,1795.0,1475.0,1021.47,241.0,293.75,1637231545.7586286,1637231546.8841565,e7f89932-2729-4fb7-9373-d6b3837c658b
-0.42931477912041255,-0.11656751806580123,-1.1719425421787992,0.47157638778224337,-1.1408102402868583,0.06761011026548415,-1.532491102508824,-1.5609799789541192,-21.753350614313785,22.289473334855312,44.51489444284175,-0.8262813024786085,-0.8097466235492993,5.361706098249694,-1.0,12.01366666666667,0.04666666666666667,179.59035758329566,-4.16316621580136,93.7216359794347,1525.0,1435.0,1000.0,1883.0,1475.0,1021.4699999999999,241.0,293.75,1637231547.7889109,1637231548.8150136,73545932-2405-466a-b1fd-d30c71e9df1b
-0.43517690747503623,-0.11845764324295643,-1.1623275503511383,0.47222012597234947,-1.1320855257967344,0.06603500605107741,-1.5228487139494973,-1.553707097195333,-21.675887756087736,22.35974116098531,44.185056669282176,-0.8303418965083987,-0.8139291883947514,5.322324787018577,-1.0,12.000888888888888,0.05777777777777778,179.58658731887382,-4.184851212642504,93.3826954309719,1525.0,1435.0,1000.0,1883.0,1475.0,1021.4699999999999,241.0,293.75,1637231548.924443,1637231550.1558878,73545932-2405-466a-b1fd-d30c71e9df1b
-0.427397260529433,-0.11321186101577374,-1.1631767373893236,0.470877863373894,-1.1313596073625922,0.06473383302379793,-1.5221775814733298,-1.5490091717490133,-21.695159396707606,22.07202610065416,44.55771607423748,-0.8321378690009005,-0.7973142387365953,5.322791226450025,-1.0,12.006999999999998,0.043333333333333335,179.59089944496978,-4.17258618503167,93.0902783365857,1525.0,1435.0,1000.0,1883.0,1475.0,1021.4699999999999,241.0,293.75,1637231550.2641828,1637231551.385128,73545932-2405-466a-b1fd-d30c71e9df1b
