raw_voltage_G-,raw_voltage_G0,raw_voltage_G1,raw_voltage_G2,raw_voltage_G3,raw_voltage_G4,raw_voltage_G5,raw_voltage_G6,load_x,load_y,load_z,load_l,load_m,load_n,rpm,voltage,current,roll,pitch,yaw,aileron1_pwm,elevator_pwm,throttle_pwm,rudder_pwm,aileron2_pwm,pbaro,pdiff,Tt,sample_start_time,sample_end_time,uid
-0.1475370826969238,-0.074206799388364,-0.0106591483140379,0.392545607706077,-0.0901298713378609,-0.3454512827503931,-0.400859898876938,-0.4226472931270619,-14.54197315282012,24.31219344771064,-9.852199516742829,-1.5100147176599854,-0.1366704888116162,0.6684482797523885,-1.0,12.049600000000002,0.0399999999999999,179.52519484653806,5.434929908438864,72.28149049173277,1525.0,1435.0,1000.0,1528.0,1475.0,1021.47,244.0,293.82,1637231582.697564,1637231583.8352373,0441f1b6-30c0-4880-9c8b-f024154dfce7
-0.147001273291012,-0.0745601705774061,-0.0036393879150287,0.390287319286716,-0.0849147693598563,-0.3414924287364787,-0.391799897389269,-0.4170974468653202,-14.328190315175933,24.347547301578704,-9.57408483420411,-1.4952886506105738,-0.1412502128072632,0.6393415955183077,-1.0,12.04922222222222,0.04,179.53502394409966,5.444475885172986,72.076678466115,1525.0,1435.0,1000.0,1528.0,1475.0,1021.47,244.0,293.82,1637231583.9438655,1637231585.0693548,0441f1b6-30c0-4880-9c8b-f024154dfce7
-0.1475080460475265,-0.0772173030935988,-0.0135967862625096,0.391670671623878,-0.09124257977064,-0.3411089250272363,-0.403031077758538,-0.4384092964972756,-14.718394572143064,24.27336010606943,-9.787064642250876,-1.4987653474585705,-0.1473694952007443,0.6766719352620111,-1.0,12.049666666666669,0.04,179.5643072418012,5.458979317556817,71.93360801139056,1525.0,1435.0,1000.0,1528.0,1475.0,1021.47,244.0,293.82,1637231585.183629,1637231586.2922127,0441f1b6-30c0-4880-9c8b-f024154dfce7
-0.0017903525157818,0.1971521584434305,0.0094134326413439,0.2703465639271278,-0.1325240098095396,-0.4873060219516485,-0.4420251882921261,-0.4542014318773786,-14.358963362019958,23.72425698020672,-8.292885231389429,-1.5556874887413443,0.8822829678562196,0.7917716602577952,-1.0,12.046444444444443,0.0377777777777777,179.5439244394981,5.459322914017563,71.72818096518353,1576.0,1435.0,1000.0,1528.0,1515.0,1021.47,244.0,293.82,1637231588.2269485,1637231589.2728202,b461c2ed-12c0-4d1a-8566-7fec004d6895
7.237947196711673e-05,0.2017678985095423,0.0123307995926869,0.2555816746008815,-0.1321268096489878,-0.4785128289782074,-0.4364643843666467,-0.4576803589338625,-14.315803291850685,23.672650751925204,-8.299694924920054,-1.5027982354917426,0.9013516214294915,0.7798073707096437,-1.0,12.039666666666667,0.03,179.55985851192185,5.470371788501183,71.64009656891733,1576.0,1435.0,1000.0,1528.0,1515.0,1021.47,244.0,293.82,1637231589.381688,1637231590.5067768,b461c2ed-12c0-4d1a-8566-7fec004d6895
-0.0035435120145362,0.1996038423605849,0.0096462741274133,0.2619368774489807,-0.133674520827623,-0.4815397692888623,-0.4392721793948969,-0.4619810792260999,-14.252255987233106,23.64962152537004,-8.220759187223786,-1.5241777191884192,0.8911326808264871,0.7895315105274255,-1.0,12.040666666666665,0.03,179.5749183201318,5.474591849338997,71.56797887820089,1576.0,1435.0,1000.0,1528.0,1515.0,1021.47,244.0,293.82,1637231590.625019,1637231591.7360754,b461c2ed-12c0-4d1a-8566-7fec004d6895
0.2153800857128798,0.6026749036513658,0.013863170645676,0.0628157669711359,-0.221327572784015,-0.690801883594633,-0.5261144088893236,-0.5513336156249319,-14.28521519181314,22.66082072190068,-8.197232591697183,-1.5516069381228228,2.427685617364515,1.0742565557054011,-1.0,12.03711111111111,0.03,179.4717263043314,5.503789485084724,71.52495627552888,1627.0,1435.0,1000.0,1528.0,1556.0,1021.47,244.0,293.82,1637231592.7331746,1637231593.7776346,2883be06-e72b-42d0-9601-7f9431750937
0.2300649872737533,0.6199101034512315,0.0271915658173236,0.0590634577780021,-0.2121968980962403,-0.705423787480588,-0.5177808726221783,-0.542174450434265,-14.248668495580986,22.651058081616203,-8.2829818454583,-1.575396343161252,2.494136193658878,1.033748180285109,-1.0,12.030111111111111,0.03,179.46812755354873,5.497150873234555,71.45028712970247,1627.0,1435.0,1000.0,1528.0,1556.0,1021.47,244.0,293.82,1637231593.8858168,1637231594.8998575,2883be06-e72b-42d0-9601-7f9431750937
0.2088901086872797,0.5880382146902987,0.0036882710414572,0.0651721228464489,-0.2279205489731083,-0.6785374326648267,-0.5329018773704389,-0.5575419936015605,-14.414143069087032,22.70858008256408,-8.249191460420514,-1.5296256619034054,2.3732278224368883,1.104836417468305,-1.0,12.029666666666666,0.03,179.49421584053854,5.523658220789075,71.37791748089666,1627.0,1435.0,1000.0,1528.0,1556.0,1021.47,244.0,293.82,1637231595.011966,1637231596.031272,2883be06-e72b-42d0-9601-7f9431750937
0.4235562574654237,0.9916894567850632,0.0249453301843297,-0.139440772474808,-0.3003890498334103,-0.8795208241529036,-0.603411782391511,-0.6368313968043648,-14.665213713868136,21.926211294508395,-7.560099798264705,-1.5238501118794758,3.909361555157031,1.3231217038541043,-1.0,12.033,0.03,179.4216109296613,5.556726439360085,71.3438257300194,1678.0,1435.0,1000.0,1528.0,1596.0,1021.47,244.0,293.82,1637231597.647972,1637231598.6940975,9ee2d2c2-d15e-4a9d-a0e3-7445f9196fb5
0.432856219987016,0.9909224495346386,0.0268080621925795,-0.1331677482227236,-0.2995398630800018,-0.8840817805946283,-0.6001520003570667,-0.6257097880263532,-14.25792049026027,21.89717932174283,-7.476297220244912,-1.5481309209923897,3.902204601545179,1.3151618728379937,-1.0,12.018333333333333,0.03,179.4391508554499,5.59471936661828,71.2920119149757,1678.0,1435.0,1000.0,1528.0,1596.0,1021.47,244.0,293.82,1637231598.802002,1637231599.809944,9ee2d2c2-d15e-4a9d-a0e3-7445f9196fb5
0.4408550095240935,1.0079609673004075,0.0439972433019658,-0.1473847772233692,-0.2887195802814196,-0.8895467105521616,-0.5868389412105565,-0.6160811034732088,-14.276582650576309,22.0121495466254,-7.624720176669371,-1.5267562096249965,3.970399030413936,1.2597059828131318,-1.0,12.021555555555556,0.03,179.44559855402642,5.616474989512717,71.2358207075839,1678.0,1435.0,1000.0,1528.0,1596.0,1021.47,244.0,293.82,1637231599.91771,1637231600.94642,9ee2d2c2-d15e-4a9d-a0e3-7445f9196fb5
0.6248956502904356,1.331733907130393,0.0402443862707261,-0.3067990402388695,-0.3691183921485073,-1.053316560784441,-0.6661283458491436,-0.6907547678060508,-14.269317817216946,21.553370614776643,-6.990291819681601,-1.538292789067753,5.198451682008605,1.5260858231875816,-1.0,12.021333333333336,0.03,179.372706775204,5.666755521951504,71.18485231817743,1729.0,1435.0,1000.0,1528.0,1636.0,1021.47,244.0,293.82,1637231601.6411085,1637231602.7898755,9936e0c4-c917-4da1-a077-aaa4836591eb
0.6244622912197854,1.333939601023298,0.0412256077420506,-0.3058474032630411,-0.3692241295756717,-1.0550998540343184,-0.6645833734294757,-0.6912883855849786,-14.073832411677444,21.52543618940453,-6.803090721501624,-1.5444548260651545,5.203626182482217,1.5233800533016175,-1.0,12.011555555555557,0.03,179.36059001961644,5.700583551635808,71.11334327320705,1729.0,1435.0,1000.0,1528.0,1636.0,1021.47,244.0,293.82,1637231602.8994522,1637231604.0138505,9936e0c4-c917-4da1-a077-aaa4836591eb
0.6190198272267526,1.3315832450193732,0.0361354186955417,-0.3014025954645614,-0.3742135128612076,-1.06093185279127,-0.6721274406736892,-0.7023968469939321,-14.095637576279197,21.645189546700067,-7.42811670312416,-1.5671567102597963,5.199614425034754,1.546663317264531,-1.0,12.0114,0.03,179.35793170999145,5.693634763819957,71.08106288849767,1729.0,1435.0,1000.0,1528.0,1636.0,1021.47,244.0,293.82,1637231604.1223726,1637231605.2527268,9936e0c4-c917-4da1-a077-aaa4836591eb
-0.3426566362310637,-0.4253290796943096,-0.006296520376696,0.5752456301767194,-0.0095973910619903,-0.1850366198482438,-0.3211119461074097,-0.34320449883202,-14.001901389614176,25.383743644532498,-11.730299703072124,-1.5543748963359905,-1.4629690042570749,0.3956744006482479,-1.0,12.019666666666666,0.0322222222222222,179.86460637448965,5.712105701310666,70.98436653437997,1474.0,1435.0,1000.0,1528.0,1435.0,1021.47,244.0,293.82,1637231606.1577947,1637231607.304619,955d188a-1b68-4e25-ad20-5aa7efbfa648
-0.3322746431410622,-0.4135911265402494,-0.0014890282108862,0.5628639423968989,-0.0067622033637591,-0.1841600399466189,-0.3178247715761532,-0.3495323099913577,-14.23164238742541,25.30928435586692,-11.55834541806785,-1.5248175040199403,-1.4170145621277277,0.38200354754474,-1.0,12.045444444444446,0.0344444444444444,179.89197266576417,5.730555370351208,71.10965041759579,1474.0,1435.0,1000.0,1528.0,1435.0,1021.47,244.0,293.82,1637231607.441099,1637231608.3947527,955d188a-1b68-4e25-ad20-5aa7efbfa648
-0.3296596957277588,-0.4150604935920892,-0.0029277147250229,0.562952696087578,-0.0076349480757649,-0.1824600229226067,-0.3169580531336627,-0.3488962417244452,-14.094652958185607,25.20251223719649,-11.511401302494146,-1.521900547463528,-1.4240151672734729,0.3839481395219759,-1.0,12.047666666666666,0.0388888888888888,179.89466527811695,5.738046807210243,71.21301698267494,1474.0,1435.0,1000.0,1528.0,1435.0,1021.47,244.0,293.82,1637231608.5042598,1637231609.7560742,955d188a-1b68-4e25-ad20-5aa7efbfa648
-0.4604366544407742,-0.6548533346142615,-0.0013104250892334,0.6731387599846705,0.0444601870178309,-0.0494609521262443,-0.2595113911860155,-0.2788662748013495,-13.838255887237462,25.995793397046867,-11.364985506598307,-1.4660949513142938,-2.339946790692275,0.2010077292416028,-1.0,12.049,0.04,179.9756622147544,5.747788601673319,71.38476588390446,1423.0,1435.0,1000.0,1528.0,1394.0,1021.47,244.0,293.82,1637231611.7811832,1637231612.920936,30ff8ac5-dbc6-4edd-a91a-e19b0d3bb748
-0.459016594938278,-0.6556159592570273,-0.0073062306466465,0.6472489795967633,0.0368865380058212,-0.0232424509274332,-0.2588145101595061,-0.2897402481493616,-13.961412359205797,25.92840089766935,-11.152201133842878,-1.349550855725785,-2.341014986992444,0.2184264106437757,-1.0,12.033555555555555,0.03,179.95304669950258,5.742428041539721,71.39604859750341,1423.0,1435.0,1000.0,1528.0,1394.0,1021.47,244.0,293.82,1637231613.0559113,1637231614.0547993,30ff8ac5-dbc6-4edd-a91a-e19b0d3bb748
-0.459489948069312,-0.6551557547395436,-0.0038086774005035,0.6472095335067719,0.041370243410161,-0.024399536486362,-0.2557114174685509,-0.2800365088159814,-14.093190930934064,25.87386796348431,-11.23093105977593,-1.3523282353490254,-2.337432804526308,0.2030082716246326,-1.0,12.034,0.03,179.9511357643548,5.7427048064967146,71.39441314665216,1423.0,1435.0,1000.0,1528.0,1394.0,1021.47,244.0,293.82,1637231614.1633446,1637231615.2828643,30ff8ac5-dbc6-4edd-a91a-e19b0d3bb748
-0.6642930062312825,-1.037209396977409,-0.0103096121121229,0.8246325451686188,0.1134661879812824,0.1801958194667281,-0.1803250031332029,-0.2013903122916005,-13.941811432195776,27.53544327860932,-11.891988350726718,-1.282136093334452,-3.787807258031798,-0.0398430224532247,-1.0,12.032,0.03,-179.93844679069673,5.758481120523367,71.3735416063684,1372.0,1435.0,1000.0,1528.0,1354.0,1021.47,244.0,293.82,1637231616.1933224,1637231617.3303902,5046aa69-c798-476b-ace1-a0370732cec7
-0.6495807055567415,-1.0238059359667362,0.0063815623630841,0.8251508228589479,0.1293876152285281,0.1645472279977786,-0.1657348797642597,-0.1895997657020596,-13.891922030397934,27.262617625768726,-12.058192904288102,-1.319448541363682,-3.7354264747251897,-0.103514907804507,-1.0,12.023666666666664,0.03,-179.92812713377077,5.763433434558449,71.31352928759095,1372.0,1435.0,1000.0,1528.0,1354.0,1021.47,244.0,293.82,1637231617.439224,1637231618.5679338,5046aa69-c798-476b-ace1-a0370732cec7
-0.6640601646651808,-1.031278783140664,-0.0054199405820775,0.8299878990584576,0.1196707289028034,0.1676086826545267,-0.1776541739296135,-0.2020477474717827,-13.993807085911874,27.348432915913133,-12.122456866790005,-1.3235605893130924,-3.7635057524241766,-0.0582817874080444,-1.0,12.021333333333333,0.03,-179.96261199998025,5.755127639936499,71.23560365935028,1372.0,1435.0,1000.0,1528.0,1354.0,1021.47,244.0,293.82,1637231618.701434,1637231619.788443,5046aa69-c798-476b-ace1-a0370732cec7
-0.8655503268215937,-1.4166728742889436,-0.0111314056459442,1.0177677026171137,0.1948511367270878,0.3757963614469191,-0.0983647905916163,-0.1222515902813205,-13.65348826989954,28.86924576011976,-11.364479041020449,-1.2692309147800664,-5.241550540630157,-0.310089422308464,-1.0,12.021666666666668,0.03,-179.83839514409476,5.75322362984162,71.1562823957892,1321.0,1435.0,1000.0,1528.0,1314.0,1021.47,244.0,293.82,1637231620.698327,1637231621.729964,1dc9ae52-5124-42a9-ab63-e46859156fd6
-0.861701591997725,-1.4070989699547276,-0.0127612961471613,1.0065091321737716,0.1909202245539134,0.3775221277127316,-0.0991865841758314,-0.1226213977490313,-13.596423408065585,28.742229598816323,-11.267673367992108,-1.2408353177604718,-5.205623765271233,-0.3000552989929235,-1.0,12.015333333333334,0.03,-179.84300628069442,5.756127029421305,71.06435791538962,1321.0,1435.0,1000.0,1528.0,1314.0,1021.47,244.0,293.82,1637231621.8605268,1637231622.8635724,1dc9ae52-5124-42a9-ab63-e46859156fd6
-0.8689536494999976,-1.4115350158519788,-0.0108037839688333,1.00994258528706,0.1938293734766465,0.3802384289963627,-0.0962440154092473,-0.1268147362798134,-13.587036356375524,28.768353660500257,-11.031611962404403,-1.242163449757841,-5.22471847269223,-0.3110534310951822,-1.0,12.016,0.03,-179.86365318364545,5.7439840914418845,70.99094172982099,1321.0,1435.0,1000.0,1528.0,1314.0,1021.47,244.0,293.82,1637231622.9792662,1637231624.0864651,1dc9ae52-5124-42a9-ab63-e46859156fd6
-0.1190876849678464,-0.0275398832353586,0.013536096843435,0.3564568221654767,-0.0800387942501468,-0.3527920914277413,-0.3796099579001613,-0.3964293353167931,-14.173431384264306,24.129258987953847,-8.945059622970456,-1.4447808516175826,0.0336844629983891,0.5984102197900883,-1.0,12.014,0.03,179.74786174555615,5.731835414206286,70.85274878907383,1525.0,1435.0,1000.0,1528.0,1475.0,1021.47,244.0,293.82,1637231625.6640625,1637231626.6347506,d3862b3f-86bf-4e8e-b378-cfde9fc99180
-0.1282917729556746,-0.0454412858693313,0.0070165348317462,0.3740158089671443,-0.080723622240586,-0.3533262573220836,-0.3857049276787768,-0.4160291149170838,-14.3102363080002,24.1920444055738,-9.264325781310344,-1.4856181414826215,-0.0322328890893085,0.6143239504671746,-1.0,12.04922222222222,0.04,179.77134393592263,5.733135237150835,71.05344099636622,1525.0,1435.0,1000.0,1528.0,1475.0,1021.47,244.0,293.82,1637231626.7443707,1637231627.8736105,d3862b3f-86bf-4e8e-b378-cfde9fc99180
-0.1252500410281511,-0.0387184668322526,0.0070521458805848,0.371652330900176,-0.0823589913994086,-0.3565356358283542,-0.3883028914414365,-0.4114971963682191,-14.385581824926062,24.25030461083904,-9.103794753101184,-1.4871229663535417,-0.0076134953233593,0.6211443389056948,-1.0,12.051666666666668,0.04,179.79254484310636,5.740500315510224,71.26711663436089,1525.0,1435.0,1000.0,1528.0,1475.0,1021.47,244.0,293.82,1637231627.9858067,1637231629.2061462,d3862b3f-86bf-4e8e-b378-cfde9fc99180
-0.1128283572893793,-0.0573983819382655,-0.0263619791634756,-0.1180467465881289,-0.1599034324890695,0.1348465154369174,-0.2798716021644835,-0.3050321841328974,-14.300855616677117,22.997939457847668,-5.654443821892144,0.7123460950613821,-0.0506927945229059,0.6168110008088431,-1.0,12.048,0.04,179.79805908249628,5.899585856291053,71.53982711517182,1525.0,1521.0,1000.0,1528.0,1475.0,1021.47,244.0,293.82,1637231631.3490198,1637231632.4847534,c18c0fa1-072e-4e17-b1c5-89c9cbaa9c6a
-0.1127587787968958,-0.0543654159269728,-0.0239261831525503,-0.1243427810618527,-0.1616324862084649,0.139235988346369,-0.2774199178684476,-0.3011007232468153,-14.103234833717968,23.19322304822924,-5.416896316674024,0.7379653266254346,-0.0418885118547419,0.6130599780934746,-1.0,12.04811111111111,0.04,179.78945000850243,5.894598395240867,71.55832478526402,1525.0,1521.0,1000.0,1528.0,1475.0,1021.47,244.0,293.82,1637231632.6035616,1637231633.6023552,c18c0fa1-072e-4e17-b1c5-89c9cbaa9c6a
-0.1161429247151495,-0.0530976624457975,-0.0243485850487003,-0.1239225708378461,-0.1607252261396061,0.1363394401644881,-0.2786389117636682,-0.3006355882063125,-14.2467402178759,23.10662052772442,-5.601470317122806,0.7298117143095869,-0.0345620785948507,0.6139675688413622,-1.0,12.04577777777778,0.04,179.7663745938465,5.893515999984896,71.62099632435834,1525.0,1521.0,1000.0,1528.0,1475.0,1021.47,244.0,293.82,1637231633.7107534,1637231634.7449772,c18c0fa1-072e-4e17-b1c5-89c9cbaa9c6a
-0.1002275226616192,-0.0784362968567637,-0.0759983093037354,-0.6849474244439581,-0.2674214287031701,0.7050068136889479,-0.1719837981775619,-0.189145587775017,-14.115899489690548,22.279890876411088,-1.5125934823978238,3.265883200512796,-0.1009772043970222,0.6760544669021767,-1.0,12.044666666666664,0.03,179.7597644885497,6.0751659718943785,71.62954848010911,1525.0,1607.0,1000.0,1528.0,1475.0,1021.47,244.0,293.82,1637231636.671628,1637231637.8183465,0c3d8cd6-faa2-4ec5-86f2-e76477cf37ae
-0.0851887005673403,-0.0543988355151362,-0.0689034916554302,-0.6995342649700561,-0.2663530970186104,0.6929949329699895,-0.1681213683485113,-0.1934737011909405,-13.95998799286234,22.129018482986016,-1.7381814990165882,3.271190884185509,-0.0076830648641805,0.6620624840029632,-1.0,12.041222222222222,0.0322222222222222,179.7419361769962,6.083040942848057,71.52358644314535,1525.0,1607.0,1000.0,1528.0,1475.0,1021.47,244.0,293.82,1637231637.9528265,1637231639.0393984,0c3d8cd6-faa2-4ec5-86f2-e76477cf37ae
-0.0995974809330744,-0.0766694407005035,-0.0663285385141885,-0.6708673570775435,-0.2596828721000894,0.6887626967811546,-0.1660942775030478,-0.1927888729374618,-13.794914741585089,22.43083820660068,-1.6760968268058456,3.199236968813462,-0.0962911304833604,0.6442170473435763,-1.0,12.043333333333331,0.03,179.7072934575259,6.066068729102353,71.38255062588365,1525.0,1607.0,1000.0,1528.0,1475.0,1021.47,244.0,293.82,1637231639.147311,1637231640.2731369,0c3d8cd6-faa2-4ec5-86f2-e76477cf37ae
-0.0827666010273874,-0.0907084139370818,-0.1127719275042885,-1.2084926602556714,-0.3597570665629323,1.2181390329986763,-0.0683950753914642,-0.0955865809452616,-14.036762712991454,21.71692222765583,1.4510667983334746,5.5948987866754205,-0.1117132361954554,0.70284811952416,-1.0,12.040666666666668,0.03,179.71157978068504,6.253241952456913,71.25707549737109,1525.0,1693.0,1000.0,1528.0,1475.0,1021.47,244.0,293.82,1637231641.1790466,1637231642.3174164,552849f5-83c0-4dcb-aea3-7fbac645852c
-0.0793402697633791,-0.0765872613523378,-0.1048295666594468,-1.2149360744836677,-0.3556409760752139,1.2085196660488975,-0.0630413643537674,-0.0900235862354114,-13.918343724892958,21.661521564885152,1.258400786496433,5.5878746644774,-0.0565849889254816,0.6802789763363478,-1.0,12.0322,0.03,179.7109923844164,6.267376289007094,71.06074717383039,1525.0,1693.0,1000.0,1528.0,1475.0,1021.47,244.0,293.82,1637231642.4261558,1637231643.5507104,552849f5-83c0-4dcb-aea3-7fbac645852c
-0.0762974421394804,-0.0849361359963606,-0.101503494135764,-1.2189195847350385,-0.3525515797186713,1.2198220659862562,-0.0571923857015037,-0.0823195454554233,-13.93742502204951,21.811876568985543,1.2143953377318897,5.623404207351264,-0.0866694124417505,0.6620273437166511,-1.0,12.032111111111112,0.03,179.68782286493192,6.274196308784342,70.92146428667371,1525.0,1693.0,1000.0,1528.0,1475.0,1021.47,244.0,293.82,1637231643.6593306,1637231644.662614,552849f5-83c0-4dcb-aea3-7fbac645852c
-0.078723924610361,-0.1072949473196526,-0.1338114864878121,-1.6912070252173903,-0.4455041150246033,1.6977881682322489,0.0243974678488661,-0.0079264110668047,-14.24742841055484,22.95078033341045,4.397786975334628,7.769115224384394,-0.1404288875717886,0.7134640345018394,-1.0,12.03133333333333,0.03,179.68424536362664,6.433913689495267,70.50824543098699,1525.0,1780.0,1000.0,1528.0,1475.0,1021.47,244.0,293.82,1637231646.7090647,1637231647.7553043,2e053f25-59c2-4d63-9ea0-d679ea6d8d45
-0.0743119889209154,-0.1037256239031775,-0.1290894605593911,-1.6783355291437112,-0.4380181222005925,1.6852202036020287,0.027117056608114,0.0070389970160404,-14.278975268535127,22.750842212035703,4.824231142090784,7.710800197334421,-0.1318868338376149,0.6941652913191926,-1.0,12.023875,0.03,179.672145683512,6.437512576644579,70.27058786045156,1525.0,1780.0,1000.0,1528.0,1475.0,1021.47,244.0,293.82,1637231647.8887205,1637231648.964244,2e053f25-59c2-4d63-9ea0-d679ea6d8d45
-0.0708407329811224,-0.091563079256641,-0.123593305257655,-1.678414421965852,-0.4372817951682027,1.668508207810698,0.0285239670514433,0.003094388201477,-13.954384311209807,22.8084516830559,4.156835225252787,7.674136650283489,-0.0822930411244502,0.6844004064952415,-1.0,12.023111111111112,0.03,179.66936921161437,6.430445376352977,70.04656486531924,1525.0,1780.0,1000.0,1528.0,1475.0,1021.47,244.0,293.82,1637231649.0733588,1637231650.3111618,2e053f25-59c2-4d63-9ea0-d679ea6d8d45
-0.1699977970033469,-0.0512486269389761,0.039080178811974,1.0022905924826608,0.0141935316360611,-0.9511401691652646,-0.5242730430990251,-0.5453794459667259,-14.44566196745827,25.78686450518104,-13.239164007106806,-4.234752777724708,-0.0931209107563321,0.6370792246414579,-1.0,12.031,0.0333333333333333,179.68240576601022,5.555921188516061,69.88585127305876,1525.0,1349.0,1000.0,1528.0,1475.0,1021.47,244.0,293.82,1637231651.2127266,1637231652.3589509,0646619d-fcf3-4c1d-a24b-2562ce22a124
-0.1609093078456818,-0.0467260230959558,0.0427377078059426,0.9970963099110328,0.0167295864346482,-0.9497261356559658,-0.5220777581725805,-0.5479675484965143,-14.614437466111738,25.83611140691106,-13.065413320868975,-4.219406902985678,-0.0756315626909191,0.6261223047116427,-1.0,12.043333333333337,0.04,179.72422473756848,5.553959074381368,70.27078935103206,1525.0,1349.0,1000.0,1528.0,1475.0,1021.47,244.0,293.82,1637231652.4771488,1637231653.5763714,0646619d-fcf3-4c1d-a24b-2562ce22a124
-0.1652483779679356,-0.0509730521401684,0.0421460165282336,0.994611206483322,0.017321277819077,-0.9408770578401447,-0.5190272596989525,-0.5488879574805275,-14.58470830558236,25.74852455172158,-12.714177154570253,-4.1944551912486885,-0.0946169428135682,0.6217961248111714,-1.0,12.047666666666666,0.0388888888888888,179.74064906579258,5.560085706634999,70.5802804005235,1525.0,1349.0,1000.0,1528.0,1475.0,1021.47,244.0,293.82,1637231653.685626,1637231654.700482,0646619d-fcf3-4c1d-a24b-2562ce22a124
-0.1832834600063213,-0.0356071564556292,0.088675417311433,1.586325556833881,0.1128909325413028,-1.5252593111550905,-0.650281421750247,-0.6682376168117425,-15.034613616409224,28.08525447023285,-16.53980028910236,-6.825431724849767,-0.0697581273475043,0.6154581757183062,-1.0,12.043222222222225,0.0377777777777777,179.74439959855684,5.347597572918518,70.94581770561433,1525.0,1262.0,1000.0,1528.0,1475.0,1021.47,244.0,293.82,1637231655.719782,1637231656.751877,cd8cf649-42d3-46df-8f2b-8a1ee17ea596
-0.1803797893676533,-0.0307037883630666,0.0794850265815196,1.5662190062253891,0.1026869965550485,-1.5085220969981954,-0.6549930395532769,-0.6787702744665077,-15.137430706780018,27.912783160797915,-16.16065479283675,-6.744057788579027,-0.0521101586817093,0.6495428056484539,-1.0,12.032222222222224,0.03,179.76824758349892,5.369080842019802,71.14636647893414,1525.0,1262.0,1000.0,1528.0,1475.0,1021.47,244.0,293.82,1637231656.884003,1637231657.8380394,cd8cf649-42d3-46df-8f2b-8a1ee17ea596
-0.1839135017409959,-0.0269235380543989,0.0837446562652362,1.554618019709521,0.1051934667394802,-1.502139493180131,-0.6481995440632606,-0.6738806010360497,-15.085962827119376,27.82689472860263,-16.20205117994451,-6.703884197136517,-0.0362323925729961,0.6310186175549046,-1.0,12.030111111111111,0.03,179.76722457294323,5.370220013223246,71.32980183383354,1525.0,1262.0,1000.0,1528.0,1475.0,1021.47,244.0,293.82,1637231657.9464962,1637231658.9980078,cd8cf649-42d3-46df-8f2b-8a1ee17ea596
-0.2051294730554836,-0.0311831679548721,0.1286419746020509,2.0558437086939945,0.1895231756531592,-1.9755343246277828,-0.7563339167109705,-0.7815218994568632,-15.856620192527714,30.631268696319893,-18.750926409565352,-8.878276059647412,-0.0829812539054771,0.607513332384156,-1.0,12.0316,0.03,179.7602134596512,5.140870457121223,71.78127202560204,1525.0,1176.0,1000.0,1528.0,1475.0,1021.47,244.0,293.82,1637231661.2494495,1637231662.2744243,ea22b46d-6bb4-40fa-99dd-3b3052360fda
-0.1928211964449468,-0.0105276613083088,0.1335031570463755,2.0394461822263974,0.1915020543444406,-1.9804798866959288,-0.7541654766660284,-0.7873002065608771,-16.091714112523086,30.41596523517035,-18.69251085729361,-8.853694842402888,-0.0020409360114028,0.5974661957882537,-1.0,12.021666666666668,0.03,179.76275611140622,5.144863518519246,71.93164926491858,1525.0,1176.0,1000.0,1528.0,1475.0,1021.47,244.0,293.82,1637231662.3831742,1637231663.4071765,ea22b46d-6bb4-40fa-99dd-3b3052360fda
-0.21018350368265,-0.0304572502664866,0.1155206716957216,2.046242417192357,0.1786070188283836,-1.9673985545553272,-0.7672226857195396,-0.7985467298242978,-16.11017305827376,30.42525397133652,-18.83865943675276,-8.840496403683606,-0.0773396507825308,0.6555577478340059,-1.0,12.023,0.03,179.75456292004185,5.136279583416094,72.11041049369597,1525.0,1176.0,1000.0,1528.0,1475.0,1021.47,244.0,293.82,1637231663.5160415,1637231664.6372976,ea22b46d-6bb4-40fa-99dd-3b3052360fda
-0.2179768463475827,-0.0322104098560083,0.1655952885915967,2.3505253251439027,0.2413098613047299,-2.2591358198232103,-0.8184752318055585,-0.8378284784465034,-16.299793274332544,33.14011232915632,-20.75856918154849,-10.16236767177048,-0.0998001011627864,0.5733708506466902,-1.0,12.011333333333337,0.0566666666666666,179.74833530533863,5.050889175026894,72.42744434876083,1525.0,1090.0,1000.0,1528.0,1475.0,1021.47,244.0,293.82,1637231666.6651452,1637231667.7121584,6336105c-b3a5-4dab-8df4-c93e8ce7e36f
-0.2175385564269079,-0.022348887433839,0.1577608573635849,2.3258030202180344,0.2295445180872535,-2.2467267107179656,-0.8233101191370634,-0.8515250439096502,-16.279721744438785,33.04303864845034,-20.90480191098291,-10.079762106179873,-0.0591138632655016,0.607782821690854,-1.0,11.991444444444443,0.09,179.72476204578314,5.038862729718318,72.3887809245991,1525.0,1090.0,1000.0,1528.0,1475.0,1021.47,244.0,293.82,1637231667.8213315,1637231669.033087,6336105c-b3a5-4dab-8df4-c93e8ce7e36f
-0.21199144963517,-0.0218695078492321,0.1593770511205248,2.313695256567304,0.228928172867548,-2.2355502968296546,-0.816790554170909,-0.8449506930255151,-16.038660258083343,32.97203353307659,-20.803347890449206,-10.027587772756116,-0.0583292780022956,0.5974294416341326,-1.0,11.996,0.09,179.71625163007732,4.989060452817039,72.37654350233616,1525.0,1090.0,1000.0,1528.0,1475.0,1021.47,244.0,293.82,1637231669.141364,1637231670.1762936,6336105c-b3a5-4dab-8df4-c93e8ce7e36f
-0.1510477848733932,-0.070406825985445,-0.0100411595226791,0.3750052482706121,-0.0953762013358721,-0.3249919079120342,-0.3998343002589138,-0.42208189896979,-14.612888464628888,24.702853879321086,-8.709240787439825,-1.4217060129581314,-0.1298409752047719,0.6749994673209749,-1.0,12.009000000000002,0.0866666666666666,179.70688516399548,5.625083541756003,72.44732019924555,1525.0,1435.0,1000.0,1528.0,1475.0,1021.47,244.0,293.82,1637231672.198145,1637231673.3312778,3db6d2d2-ae66-4c73-bc57-cea47a965d2b
-0.1366192811359234,-0.05957613488856,-0.0037626570099848,0.3741801676729188,-0.0918178352720208,-0.3362603424589797,-0.3963471558202247,-0.4233567750829723,-14.475939754495464,24.66459877695697,-8.873111550462434,-1.445064665930379,-0.0882372455722217,0.6578132306198363,-1.0,12.051,0.04,179.69063842068977,5.597150060189159,72.47569052832807,1525.0,1435.0,1000.0,1528.0,1475.0,1021.47,244.0,293.82,1637231673.4416573,1637231674.6748238,3db6d2d2-ae66-4c73-bc57-cea47a965d2b
-0.1427553398592478,-0.0660135177041519,-0.0042420365365173,0.3793437698362716,-0.0910371313754678,-0.3330690438005741,-0.3963471557738706,-0.4208092146783682,-14.502836320054968,24.750900302524656,-8.643045290022274,-1.4489698449404536,-0.1148947256456124,0.6569399406608932,-1.0,12.051111111111112,0.04,179.6910694815174,5.62113232475302,72.49528785887665,1525.0,1435.0,1000.0,1528.0,1475.0,1021.47,244.0,293.82,1637231674.7840016,1637231675.910694,3db6d2d2-ae66-4c73-bc57-cea47a965d2b
-0.0570422713885843,-0.0136515724684959,0.2599234834606714,0.3364324549192729,0.1443382303286735,-0.3564764664088122,-0.1226213973694844,-0.1498912475793287,-12.73886781357905,24.454590182198995,-8.22955788693258,-1.3926287830569652,0.0873697023665083,-0.4055657150567565,-1.0,12.049,0.04,179.66603152583994,5.610283375598231,72.47009204993839,1525.0,1435.0,1000.0,1439.0,1475.0,1021.47,244.0,293.82,1637231676.814917,1637231677.960213,d1e515c3-62a5-4e57-a14d-2a94a4e206a9
-0.0467150658178266,-0.0119805923165507,0.2608685459482878,0.3310497077612139,0.1450915410287301,-0.3514772216565866,-0.119019202219406,-0.143631919858624,-12.669515643768008,24.32658804981791,-7.972229850325982,-1.3699782078859437,0.091585816855737,-0.4123897690883629,-1.0,12.052,0.04,179.6589918775354,5.598332109802395,72.49143715000459,1525.0,1435.0,1000.0,1439.0,1475.0,1021.47,244.0,293.82,1637231678.0987065,1637231679.1830757,d1e515c3-62a5-4e57-a14d-2a94a4e206a9
-0.051317109717669,-0.0044885746222487,0.260019359365945,0.3284884514693428,0.1416674014757562,-0.3558053349826033,-0.1216626381941419,-0.1545754709860387,-12.562272259665718,24.361094481542548,-7.893705598236957,-1.373673525454927,0.1184925343196819,-0.4017490779495381,-1.0,12.049,0.04,179.65929240585885,5.597286663972558,72.4900339255851,1525.0,1435.0,1000.0,1439.0,1475.0,1021.47,244.0,293.82,1637231679.2915976,1637231680.6246665,d1e515c3-62a5-4e57-a14d-2a94a4e206a9
0.0469009137861458,0.0446135885169856,0.5539611801691748,0.2889738825087083,0.4017239448630763,-0.3820753390232035,0.1804012679347402,0.1549393662632333,-10.482513023066874,24.473728955290014,-7.679302014610461,-1.327106462931085,0.309536565246079,-1.5793996948730162,-1.0,12.04725,0.03375,179.66561602266546,5.608591214018311,72.41866954781587,1525.0,1435.0,1000.0,1351.0,1475.0,1021.47,244.0,293.82,1637231681.7302964,1637231682.8705893,453063a3-b111-4fd4-bcc4-b51602988d1d
0.0429563049025867,0.0354779838928694,0.5424971617066984,0.2843855356248542,0.3943825900403057,-0.369296447614551,0.1737995269254549,0.1499401224282855,-10.665771514804584,24.284196631221807,-7.802037570421491,-1.289979477924608,0.2774923059190028,-1.5457434298979926,-1.0,12.047,0.0311111111111111,179.63660099961626,5.615546083785596,72.44513453871116,1525.0,1435.0,1000.0,1351.0,1475.0,1021.47,244.0,293.82,1637231683.006979,1637231684.1037147,453063a3-b111-4fd4-bcc4-b51602988d1d
0.0488047354533358,0.0417920974235553,0.5460856597239505,0.2829200039741129,0.3957522457950666,-0.3745833201680941,0.1738406166236589,0.1474747420723756,-10.738169479776944,24.409804256107776,-7.8530807984044415,-1.29758713463288,0.3025489406248696,-1.5519819861733168,-1.0,12.048555555555556,0.0355555555555555,179.61872867128807,5.620970724374532,72.4293241686024,1525.0,1435.0,1000.0,1351.0,1475.0,1021.47,244.0,293.82,1637231684.2393172,1637231685.332053,453063a3-b111-4fd4-bcc4-b51602988d1d
0.1342657814229119,0.0793173806751853,0.8462939245464349,0.3056064343495882,0.6696017610365373,-0.4483135537485856,0.4690315673992482,0.4528192262842668,-8.657832505734694,24.752803786462035,-7.860636287938297,-1.4961757059226104,0.4448786534811866,-2.7484379736583526,-1.0,12.044666666666668,0.0366666666666666,179.60919524502654,5.599954564321488,72.36114142575778,1525.0,1435.0,1000.0,1262.0,1475.0,1021.47,244.0,293.82,1637231686.2339592,1637231687.3735263,151083ad-e1db-4240-9372-8efd904c2771
0.1408182148668113,0.0874016373328022,0.8542308056039625,0.3024923849373714,0.6730801387171437,-0.4531604931691396,0.4751922789407534,0.4494427509671322,-8.416507375209134,24.872953379178096,-7.779761370635767,-1.498716834738581,0.4736632985643901,-2.7715816215109523,-1.0,12.042333333333334,0.03,179.61150688460566,5.615520423144338,72.35747968545276,1525.0,1435.0,1000.0,1262.0,1475.0,1021.47,244.0,293.82,1637231687.491902,1637231688.598595,151083ad-e1db-4240-9372-8efd904c2771
0.1436539502873728,0.083143651285541,0.8468067236306815,0.305856259600787,0.669969924495199,-0.4521924200001153,0.4670461144750781,0.4407750215772923,-8.808133202096023,24.77821800729112,-7.851562050220193,-1.5053357840088848,0.4602150421639883,-2.7464491365962944,-1.0,12.040666666666668,0.03,179.6136804025815,5.6147608491903895,72.37882250878923,1525.0,1435.0,1000.0,1262.0,1475.0,1021.47,244.0,293.82,1637231688.7189724,1637231689.8271067,151083ad-e1db-4240-9372-8efd904c2771
0.2182596500747296,0.1246014899071287,1.0991170381749649,0.3199779584210978,0.8963773042446064,-0.5207628881461089,0.7105467971689745,0.6824743334100637,-7.105570137473441,25.23234860612146,-8.081626940807242,-1.6748836653213095,0.6199600265466688,-3.7396239971101335,-1.0,12.041,0.03,179.5766789911178,5.5925785292003045,72.33704451836599,1525.0,1435.0,1000.0,1173.0,1475.0,1021.47,244.0,293.82,1637231691.6508713,1637231692.7969823,dca11962-ff21-4a36-a255-ebb89bb4b39c
0.2084655153963917,0.1124115530036139,1.0924413359207124,0.3231194007591423,0.8910334554279062,-0.511001074763943,0.7068147592669209,0.6836949705971254,-7.022770491322092,25.357013482951217,-8.022663013460539,-1.6594887999390142,0.5723238519154498,-3.7192896747857,-1.0,12.035666666666666,0.03,179.56013171948862,5.596972807293822,72.29141354234093,1525.0,1435.0,1000.0,1173.0,1475.0,1021.47,244.0,293.82,1637231692.9340284,1637231694.018605,dca11962-ff21-4a36-a255-ebb89bb4b39c
0.2145911639682064,0.1257848725337919,1.0781843147688994,0.3160333498159259,0.8759310832984138,-0.5147144862794542,0.6894168443517195,0.6675900107079898,-7.233170814183727,25.240769433034338,-7.734908865362237,-1.6533894774113422,0.6213873890719177,-3.6526524205159374,-1.0,12.039,0.03,179.55798248662978,5.592188354643968,72.26389319235514,1525.0,1435.0,1000.0,1173.0,1475.0,1021.47,244.0,293.82,1637231694.128495,1637231695.1512158,dca11962-ff21-4a36-a255-ebb89bb4b39c
-0.2548342897250995,-0.1197314232461594,-0.3495186132608925,0.4055178912646315,-0.4026064842758241,-0.282761576521501,-0.7512250981266723,-0.7701948404273047,-17.0658973527292,25.019785939436392,-8.232960673314315,-1.41159945682467,-0.3269701136210072,2.0496344662574413,-1.0,12.034555555555556,0.0311111111111111,179.68220693161436,5.638242565238201,72.47210923247326,1525.0,1435.0,1000.0,1617.0,1475.0,1021.47,244.0,293.82,1637231697.1823208,1637231698.1263096,b23735ef-7e34-4c5a-ac8f-c3b6be3db18d
-0.2529441644826549,-0.1158416004251749,-0.3387668129694957,0.4115306800057805,-0.3936626297597387,-0.2917602167652852,-0.7425688694759662,-0.7703181099941944,-16.88256026860414,25.083099352335022,-8.110364365364317,-1.4443170713135494,-0.3148227182772725,2.011270628536197,-1.0,12.048,0.04,179.66329793235212,5.6114594013640735,72.45487135282798,1525.0,1435.0,1000.0,1617.0,1475.0,1021.47,244.0,293.82,1637231698.2445304,1637231699.4618638,b23735ef-7e34-4c5a-ac8f-c3b6be3db18d
-0.2491365206904944,-0.1155265795255064,-0.3393831582180702,0.4037373387636742,-0.3955390586710292,-0.2847612743205448,-0.739856949687128,-0.7678938174680171,-16.71663475164665,25.01556635067857,-8.083736798013678,-1.4114002517017712,-0.3141322690520751,2.0109564361785184,-1.0,12.050555555555556,0.03,179.6587125986893,5.606298813991176,72.40777947523044,1525.0,1435.0,1000.0,1617.0,1475.0,1021.47,244.0,293.82,1637231699.5786688,1637231700.6860764,b23735ef-7e34-4c5a-ac8f-c3b6be3db18d
-0.362044940106117,-0.1636310882091313,-0.6694746902574142,0.4763948366412339,-0.6933264342501018,-0.2902530473074958,-1.0989244891243113,-1.1246696557064255,-19.198420600605925,25.85082931043024,-8.703465204142441,-1.5998858644223417,-0.5013528871424748,3.369604334204157,-1.0,12.045,0.03,179.71221574718777,5.591151541414334,72.41001977727822,1525.0,1435.0,1000.0,1706.0,1475.0,1021.47,244.0,293.82,1637231701.8002598,1637231702.9412155,24a7797d-15a0-429f-9ff7-6addf8776997
-0.3801989100607347,-0.1779144085598737,-0.6920285478235012,0.5038591734894519,-0.7105463023109843,-0.3016354369190179,-1.1257851037972808,-1.1529864900643243,-19.269702875867125,26.03864228805307,-8.90787995181093,-1.687362891995906,-0.5574158383025486,3.460142885877405,-1.0,12.039111111111112,0.03,179.71568700110595,5.579618197818336,72.37221392131227,1525.0,1435.0,1000.0,1706.0,1475.0,1021.47,244.0,293.82,1637231703.07607,1637231704.1566565,24a7797d-15a0-429f-9ff7-6addf8776997
-0.3591883853027626,-0.1631084275190994,-0.6677856299651257,0.5029004144742731,-0.6883852618215536,-0.3202901525863198,-1.1045554223516774,-1.1266890776099516,-19.19451987951412,25.820775697288223,-9.445357408026869,-1.7274047637820862,-0.4960016644687724,3.367853487006266,-1.0,12.04,0.03,179.71826729479238,5.58720715460052,72.3454456510451,1525.0,1435.0,1000.0,1706.0,1475.0,1021.47,244.0,293.82,1637231704.2687912,1637231705.213089,24a7797d-15a0-429f-9ff7-6addf8776997
-0.4836901294000701,-0.2287697357176483,-0.9854226756947908,0.6078845261704943,-0.9721096125907266,-0.3341647685690922,-1.4559957358842668,-1.483375187417107,-21.581721179935457,27.205633238458137,-9.400754408488783,-2.003231675848174,-0.7588095831492723,4.67844728705009,-1.0,12.031666666666666,0.03,179.75311947339725,5.570825372763068,72.20877128902342,1525.0,1435.0,1000.0,1795.0,1475.0,1021.47,244.0,293.82,1637231707.329799,1637231708.4679632,c73ee503-4267-49a1-8be1-aa6e8eddbc25
-0.4719247826587365,-0.2239211534230521,-0.980341249380205,0.6059259184610949,-0.969466175217234,-0.3363151289204647,-1.4500925128542412,-1.484224375760953,-21.30484890688065,27.172526993987105,-9.246358456367128,-2.003448145678577,-0.7433897725415809,4.660509833027292,-1.0,12.02588888888889,0.03,179.74983491131636,5.575177436492965,72.07480927101216,1525.0,1435.0,1000.0,1795.0,1475.0,1021.47,244.0,293.82,1637231708.5763118,1637231709.6917534,c73ee503-4267-49a1-8be1-aa6e8eddbc25
-0.4813343206908076,-0.2358919469689521,-0.98292990071984,0.6104183892603653,-0.9660694267905836,-0.3291929170294268,-1.4483804413323995,-1.4734177781108695,-21.50187997876979,26.94092833172205,-9.312700567521055,-1.9993514468553648,-0.7870261543371447,4.65542894782356,-1.0,12.02611111111111,0.03,179.7362109606519,5.582904609742105,71.97338779202661,1525.0,1435.0,1000.0,1795.0,1475.0,1021.47,244.0,293.82,1637231709.7997615,1637231710.9314747,c73ee503-4267-49a1-8be1-aa6e8eddbc25
-0.5337647607800778,-0.2463698155661873,-1.1443850445389128,0.6902145318442677,-1.1165125268860485,-0.38333542266618076,-1.6442277658863365,-1.6679639340704295,-22.42577443130773,28.044202780273167,-9.407195012007366,-2.3022232102766664,-0.8389892298512275,5.3574635375683775,-1.0,12.020444444444443,0.03888888888888889,179.7407158498645,5.582262050209561,71.73683405595203,1525.0,1435.0,1000.0,1883.0,1475.0,1021.4699999999999,244.0,293.82,1637231712.6549006,1637231713.7922294,8cca9569-2ff9-4bed-a886-4ef5132d1126
-0.5455218900319371,-0.2604712461096382,-1.1533732812397002,0.6936244267439315,-1.1201727980228349,-0.37369468726780686,-1.6491453848214288,-1.6685791844100628,-22.60502791383034,27.923720118251964,-9.605516597159545,-2.289619171597523,-0.889843417330915,5.379670557417086,-1.0,11.995000000000001,0.07,179.734679480458,5.573062402011854,71.53706771874714,1525.0,1435.0,1000.0,1883.0,1475.0,1021.4699999999999,244.0,293.82,1637231713.9001064,1637231715.0278523,8cca9569-2ff9-4bed-a886-4ef5132d1126
-0.5326416427037522,-0.24761620259469322,-1.1493432028616906,0.6901323525089822,-1.1209913051574907,-0.3830204018591002,-1.6510623577983636,-1.6766064738212714,-22.62064172408252,28.14318439943543,-9.59222167304487,-2.301048247636419,-0.8409473536828437,5.379463917091641,-1.0,11.994,0.08,179.73137366889972,5.574112685892351,71.33405855950629,1525.0,1435.0,1000.0,1883.0,1475.0,1021.4699999999999,244.0,293.82,1637231715.1629868,1637231716.2504041,8cca9569-2ff9-4bed-a886-4ef5132d1126
