raw_voltage_G-,raw_voltage_G0,raw_voltage_G1,raw_voltage_G2,raw_voltage_G3,raw_voltage_G4,raw_voltage_G5,raw_voltage_G6,load_x,load_y,load_z,load_l,load_m,load_n,rpm,voltage,current,roll,pitch,yaw,aileron1_pwm,elevator_pwm,throttle_pwm,rudder_pwm,aileron2_pwm,pbaro,pdiff,Tt,sample_start_time,sample_end_time,uid
0.0145907318257168,0.132805728288898,-0.0415788562513908,0.0766361423588689,-0.0864213909325036,0.2974657483304327,-0.1942681011102096,-0.221113358950277,-13.102756356583887,11.952396554849791,69.7936232550771,0.5772663382827617,-0.0396075296907306,0.5520926530419848,-1.0,12.046333333333331,0.04,179.46552297474526,-8.466355009273782,102.16952813360832,1525.0,1435.0,1000.0,1528.0,1475.0,1021.47,244.0,294.01,1637232096.1411543,1637232097.3874466,228c935d-3f4b-47ee-b4c8-5b399910a5ad
0.0158097255747125,0.1274777671598097,-0.0432498364177635,0.0773620600030538,-0.0880786745606408,0.3002598461247984,-0.1969115371231905,-0.222428228734038,-13.210145298078409,12.138942677579152,69.52560000986254,0.5829642085627401,-0.0566472110411189,0.5592233490490562,-1.0,12.047999999999998,0.0366666666666666,179.52445081126447,-8.479316716179959,102.32212822004472,1525.0,1435.0,1000.0,1528.0,1475.0,1021.47,244.0,294.01,1637232097.4950502,1637232098.5136116,228c935d-3f4b-47ee-b4c8-5b399910a5ad
0.0185490373293245,0.1355176468418377,-0.0349771147511833,0.0834707250730377,-0.0826137473943562,0.2868920057746455,-0.1922957964015711,-0.2186205850933646,-12.988228280879328,12.211309703613802,69.59230952780719,0.5401592319507179,-0.028881126577778,0.535177425767088,-1.0,12.047999999999998,0.04,179.55748767736992,-8.481610900831175,102.46463859925724,1525.0,1435.0,1000.0,1528.0,1475.0,1021.47,244.0,294.01,1637232098.6230457,1637232099.7386255,228c935d-3f4b-47ee-b4c8-5b399910a5ad
0.1691229741470077,0.411887338393583,-0.0122106944537188,-0.0579944562200181,-0.126025814123848,0.1477957894900003,-0.2243123271592227,-0.2488740948645169,-12.280504133305932,11.335298554463918,69.76678109027287,0.5424127454380404,1.0199636183186278,0.6421587288352996,-1.0,12.042555555555555,0.0388888888888888,179.57323657577615,-8.491335287798242,102.61273000193154,1576.0,1435.0,1000.0,1528.0,1515.0,1021.47,244.0,294.01,1637232100.6531055,1637232101.6808808,94bd28a1-35fa-43a5-b409-4448542940de
0.1565528209636179,0.3881802409472832,-0.0159975190696289,-0.0474886475274421,-0.123369777309581,0.1616676636004033,-0.2233919183224641,-0.2479142396869058,-12.467185264154642,11.382710571971762,69.80124711241706,0.5499234332590364,0.9305306504409856,0.6395146599847946,-1.0,12.037777777777778,0.03,179.62055157288654,-8.499802161048118,102.6114292303496,1576.0,1435.0,1000.0,1528.0,1515.0,1021.47,244.0,294.01,1637232101.8171358,1637232102.9078896,94bd28a1-35fa-43a5-b409-4448542940de
0.1767853766337601,0.4091885687069514,-0.005885623583633,-0.0585899825864691,-0.1196355473445267,0.1505838608807857,-0.2152512308988476,-0.2415623231229683,-12.127308793885655,11.26813213048009,69.76848652869838,0.5499683541511147,1.0092153556547492,0.6117374480875556,-1.0,12.04,0.03,179.6320490579894,-8.5255710418305,102.63118061960948,1576.0,1435.0,1000.0,1528.0,1515.0,1021.47,244.0,294.01,1637232103.016324,1637232104.136588,94bd28a1-35fa-43a5-b409-4448542940de
0.396122052839523,0.7957738988126586,0.0353821079947616,-0.2463013328072209,-0.1749970413164857,-0.0534263798655559,-0.2582310367032546,-0.2865418274644867,-11.141451782529794,10.610776678922266,70.03785144727196,0.5131972823060432,2.475496648201325,0.738553563155825,-1.0,12.038333333333334,0.03,179.56016814716418,-8.518497147716351,102.60970422812922,1627.0,1435.0,1000.0,1528.0,1556.0,1021.47,244.0,294.01,1637232106.1826928,1637232107.208917,fdd2c814-1712-466b-b9c7-329563c3460f
0.3797820597272975,0.780844651347096,0.027698338567452,-0.2268111276167248,-0.176804987199943,-0.0577134028266673,-0.2667229041061902,-0.2973073238490094,-11.292960517442785,10.645769773670096,69.83851402806063,0.4593399733758573,2.4194557794209826,0.7615434722218314,-1.0,12.0318,0.03,179.5711811441819,-8.521822292504538,102.55134390443902,1627.0,1435.0,1000.0,1528.0,1556.0,1021.47,244.0,294.01,1637232107.3191023,1637232108.344298,fdd2c814-1712-466b-b9c7-329563c3460f
0.3849867515798801,0.795102767507045,0.0374228952196971,-0.2334265661388908,-0.1726960192767512,-0.0650410619690329,-0.2589432578465205,-0.288527828575437,-10.994939548500644,10.678538511247169,69.98216993669439,0.458670915058444,2.470981388885204,0.7336795166279858,-1.0,12.02988888888889,0.03,179.56518302383478,-8.513426016848832,102.47229448240692,1627.0,1435.0,1000.0,1528.0,1556.0,1021.47,244.0,294.01,1637232108.452922,1637232109.665435,fdd2c814-1712-466b-b9c7-329563c3460f
0.5787968735560935,1.1119107190193127,0.0759250170948939,-0.4039761407421808,-0.22114349104614,-0.2183954134532555,-0.2960779203998983,-0.3260701011425148,-10.599496847657813,11.00717590254125,69.98324517333768,0.5030762192659738,3.6798401544223314,0.8370375218340214,-1.0,12.027222222222225,0.03,179.4759337008601,-8.509797004533572,102.27289393977756,1678.0,1435.0,1000.0,1528.0,1596.0,1021.47,244.0,294.01,1637232111.712756,1637232112.8506558,3e3276e4-87f9-4763-b703-a9df23e7eef9
0.5706446826681028,1.111805529460873,0.0764904110191638,-0.3979145902949996,-0.2207095840310912,-0.2239573124013981,-0.2965512735610432,-0.3258991683720185,-10.479177739690206,11.034149904745613,69.97080603175563,0.4771700664377406,3.6779942821733975,0.836445732075034,-1.0,12.023555555555554,0.03,179.45776995112735,-8.519075152474862,102.15213923089136,1678.0,1435.0,1000.0,1528.0,1596.0,1021.47,244.0,294.01,1637232112.9582777,1637232114.0864708,3e3276e4-87f9-4763-b703-a9df23e7eef9
0.572629587749172,1.1170129607935462,0.0787454124380493,-0.3991960405366148,-0.219962847534387,-0.2258249753007033,-0.2940475422248566,-0.3243991208244714,-10.321771239818029,10.979274493916575,70.28085240963132,0.4757409822123619,3.693963096394368,0.8299788118378612,-1.0,12.023333333333332,0.03,179.43932388690888,-8.538400983003937,102.06637482221322,1678.0,1435.0,1000.0,1528.0,1596.0,1021.47,244.0,294.01,1637232114.2198827,1637232115.2041712,3e3276e4-87f9-4763-b703-a9df23e7eef9
0.7424323824906768,1.4184068288831977,0.1213143159128724,-0.5744490304316315,-0.2660068479373961,-0.3668836612832959,-0.3233088744426027,-0.3433474910093438,-9.715570640608044,11.609264182201748,69.30893279283076,0.560537229611809,4.852983627755517,0.9100548247415372,-1.0,12.01911111111111,0.03,179.30728874115346,-8.514061603896597,101.82992657461584,1729.0,1435.0,1000.0,1528.0,1636.0,1021.47,244.0,294.01,1637232117.2420146,1637232118.267514,020c28ca-cd87-4451-a5c6-c3b57c9e3596
0.7460006096006401,1.4219531420269398,0.1286145814576708,-0.5694853961571436,-0.2604909691879841,-0.3769939147558341,-0.3184959030200311,-0.3443002238632255,-9.551238822259265,11.679818556502603,69.06047012647939,0.5274957293133866,4.867176341158783,0.8859464427093676,-1.0,12.008666666666668,0.03,179.29030889087684,-8.529652554178275,101.68626568798314,1729.0,1435.0,1000.0,1528.0,1636.0,1021.47,244.0,294.01,1637232118.3755014,1637232119.404918,020c28ca-cd87-4451-a5c6-c3b57c9e3596
0.7459299353604283,1.41463315281875,0.1168569079586712,-0.5582498317688375,-0.2685708440536614,-0.3805057131592669,-0.3318686771297273,-0.3557204164531145,-9.71537044273554,11.706847724574091,68.91631126724687,0.4937476954113059,4.840033036836964,0.930902105761432,-1.0,12.005222222222224,0.03,179.28772100809127,-8.54602859675955,101.50942146563278,1729.0,1435.0,1000.0,1528.0,1636.0,1021.47,244.0,294.01,1637232119.5138786,1637232120.6335783,020c28ca-cd87-4451-a5c6-c3b57c9e3596
-0.1697512589286135,-0.2023764645032418,-0.0662737522613187,0.2697713084945551,-0.0315118853277417,0.4267338587890243,-0.1593007838772141,-0.1813248521026992,-13.467356454194848,13.04871517038232,66.79502190338624,0.4374598890316036,-1.2929134684287078,0.4173819351444246,-1.0,12.014111111111111,0.03,179.6972060270317,-8.534504265218708,101.25682133846811,1474.0,1435.0,1000.0,1528.0,1435.0,1021.47,244.0,294.01,1637232121.7477524,1637232122.7723808,60a33831-074e-4423-aa4b-14872c18cabe
-0.1751340068947625,-0.2036228514363043,-0.0711908170398354,0.2677168248603037,-0.0352373494177189,0.4290211838955981,-0.1626838341540713,-0.1935421836135092,-13.491340240061136,12.94067874661386,66.64719345670288,0.4462375646415566,-1.296168823095865,0.4336256370928582,-1.0,12.035666666666666,0.03,179.66081326131405,-8.516319266008502,101.29512503933354,1474.0,1435.0,1000.0,1528.0,1435.0,1021.47,244.0,294.01,1637232122.8813715,1637232124.0019348,60a33831-074e-4423-aa4b-14872c18cabe
-0.1628892824973295,-0.1879402903229832,-0.0688760985045161,0.2617314290852153,-0.0364563431245459,0.4180639379353074,-0.1639987038221201,-0.1858721099749369,-13.436259136109948,12.880177334015771,66.49481611500342,0.4348343793227981,-1.2355063729027622,0.4356963753140452,-1.0,12.03711111111111,0.03,179.61800618905585,-8.501034535874615,101.29580729934064,1474.0,1435.0,1000.0,1528.0,1435.0,1021.47,244.0,294.01,1637232124.1102571,1637232125.137735,60a33831-074e-4423-aa4b-14872c18cabe
-0.3115928364256618,-0.4449288593700716,-0.0919821939486924,0.3717695735474288,3.1289840777638224e-05,0.5652745364877872,-0.1303462568640664,-0.1616428957477426,-14.063207450402126,13.603028879755838,66.06607073221254,0.5206745623738012,-2.206133004002258,0.3381104997232267,-1.0,12.032888888888888,0.03,179.6496785351471,-8.450126290078353,101.22918563417632,1423.0,1435.0,1000.0,1528.0,1394.0,1021.47,244.0,294.01,1637232127.1649616,1637232128.211396,7286fc88-50c4-4e7f-ba4e-eefcc6353d2f
-0.3050869700997603,-0.4377518610564007,-0.0989126529880033,0.3698246623467611,-0.0076113900026485,0.5600972378296856,-0.1411665389206426,-0.1739013167790277,-14.26715087195374,13.64380080496394,66.0074537078092,0.5132409117785733,-2.1774511166214423,0.3739821947890691,-1.0,12.024555555555557,0.03,179.64129865194542,-8.456362252790576,101.06911407969784,1423.0,1435.0,1000.0,1528.0,1394.0,1021.47,244.0,294.01,1637232128.3206758,1637232129.4385414,7286fc88-50c4-4e7f-ba4e-eefcc6353d2f
-0.3255633283596669,-0.4603237947760081,-0.1029257448979245,0.3765359755793985,-0.0072415829507431,0.5777657967323503,-0.1405638903445981,-0.1607115300588898,-14.39679633343841,13.815506985108591,66.23903387210403,0.5387155352284911,-2.264322285049625,0.3755838739976524,-1.0,12.026222222222223,0.03,179.6475490339459,-8.453002843220053,100.93052574688872,1423.0,1435.0,1000.0,1528.0,1394.0,1021.47,244.0,294.01,1637232129.5463097,1637232130.6673138,7286fc88-50c4-4e7f-ba4e-eefcc6353d2f
-0.4399022212445718,-0.6805234341804468,-0.1134173094461266,0.4713983325411977,0.0301226293564847,0.6764905814735375,-0.1117874189219372,-0.1421116019588611,-15.04932593300584,14.79521027812937,62.08447940930807,0.551558507432612,-3.0610927382897146,0.2654915917243053,-1.0,12.025,0.03,179.7133692902476,-8.444863819050337,100.7304141056758,1372.0,1435.0,1000.0,1528.0,1354.0,1021.47,244.0,294.01,1637232131.6373065,1637232132.5855217,de62838b-0e08-4803-a512-33a6a80004bc
-0.4411349118580872,-0.68653622575227,-0.1175947600706096,0.4648102884250051,0.02645195163754,0.6875710962944387,-0.1127735711871309,-0.1357563980705873,-15.085958193283636,14.808579943677492,61.93997574884136,0.5911580626868037,-3.0815578281131217,0.2765693555828623,-1.0,11.985333333333331,0.1,179.7491230538229,-8.451788492503868,100.30551031413904,1372.0,1435.0,1000.0,1528.0,1354.0,1021.47,244.0,294.01,1637232132.6953118,1637232133.8326635,de62838b-0e08-4803-a512-33a6a80004bc
-0.4366375087876707,-0.6699348947017749,-0.1172293357783439,0.4566717940274145,0.023146150303362,0.6791214161931479,-0.115717235634523,-0.1378727903923246,-15.06092795448733,14.740419536244376,61.97655585183082,0.5901137354768905,-3.018770076703879,0.2867994891756541,-1.0,11.99088888888889,0.09,179.75463273975336,-8.459194314838932,99.98364447969136,1372.0,1435.0,1000.0,1528.0,1354.0,1021.47,244.0,294.01,1637232133.9410436,1637232134.9686413,de62838b-0e08-4803-a512-33a6a80004bc
-0.5642122193286125,-0.8980111879829771,-0.127017992919521,0.5706298903850356,0.0630765494813739,0.769914798621382,-0.0905166621296124,-0.1100342592878652,-15.792218879189122,15.987037862748792,58.08306387986483,0.543864858598555,-3.849141114877928,0.1767630805015315,-1.0,11.992,0.08,179.8158767693111,-8.450788154381677,99.379511970874,1321.0,1435.0,1000.0,1528.0,1314.0,1021.47,244.0,294.01,1637232136.625116,1637232137.648094,68b84762-fba4-401a-999a-595642bbb35a
-0.5618427140400953,-0.9039554975913144,-0.1203477684260894,0.5800257286839409,0.0696508975921088,0.7676685632309045,-0.0850791280574554,-0.1096233629784598,-15.713408809803378,16.187601577637867,58.209426596719936,0.5193440662201115,-3.873844208596392,0.1504885842451741,-1.0,11.986777777777778,0.0922222222222222,179.81180901220543,-8.471889075185047,99.1573168102546,1321.0,1435.0,1000.0,1528.0,1314.0,1021.47,244.0,294.01,1637232137.757166,1637232138.7649126,68b84762-fba4-401a-999a-595642bbb35a
-0.5512826642974011,-0.8801508659632726,-0.1225118248177514,0.5668633371280128,0.0624191146834449,0.7589712493486812,-0.0899414066079283,-0.1154307037328262,-15.58142900339984,16.00234478857939,58.54003399217397,0.5282744619944203,-3.786946411868025,0.1736108055751929,-1.0,11.987111111111112,0.0944444444444444,179.79811068837003,-8.480601550653828,98.97373498574296,1321.0,1435.0,1000.0,1528.0,1314.0,1021.47,244.0,294.01,1637232138.87261,1637232140.0413024,68b84762-fba4-401a-999a-595642bbb35a
0.0005380625384536,0.0926885089163912,-0.0373603160171929,0.1309703894781387,-0.0661230901074347,0.2883027512183708,-0.1849270471924954,-0.208156412992805,-13.015038199885815,11.685024627235018,70.07050583652624,0.4326370168712075,-0.1995731545708403,0.5015794447137126,-1.0,12.011,0.07,179.4982183313922,-8.473345992480505,98.6526705601579,1525.0,1435.0,1000.0,1528.0,1475.0,1021.47,244.0,294.01,1637232142.2380989,1637232143.2985263,e7fc3097-5bd7-437d-824e-99b212ac2311
-0.0156030582085215,0.07693746668583,-0.0520249478668629,0.141274036283408,-0.0752849924887046,0.2966521728028855,-0.1993692477950226,-0.2184217108581216,-13.379641300107169,11.805552040943194,70.30056967526693,0.4280787108377543,-0.2603038332309458,0.5528149187927788,-1.0,12.050000000000002,0.04,179.3879047050172,-8.4580523451552,99.0771182468401,1525.0,1435.0,1000.0,1528.0,1475.0,1021.47,244.0,294.01,1637232143.4075458,1637232144.4830658,e7fc3097-5bd7-437d-824e-99b212ac2311
-0.0098713222179612,0.0904970595565209,-0.0539468490546883,0.1371612337487917,-0.0786691383542065,0.2864948055727077,-0.2046227003514096,-0.2255099547109945,-13.45137057534744,11.671497391346673,70.18139155119975,0.4134917586245085,-0.2075008986625207,0.5689652247218748,-1.0,12.04922222222222,0.04,179.309448598751,-8.460401361047253,99.45957924287444,1525.0,1435.0,1000.0,1528.0,1475.0,1021.47,244.0,294.01,1637232144.590175,1637232145.617812,e7fc3097-5bd7-437d-824e-99b212ac2311
0.0197680310624692,0.0894972108268334,-0.0898729238111275,-0.4184123161862179,-0.1720248878495729,0.8238792344740048,-0.0872431844422149,-0.1118832948409556,-13.032338138476584,10.44915650993466,74.03209450765382,2.865236965988027,-0.1822406872306348,0.5792003899728759,-1.0,12.048,0.04,179.24200427524667,-8.249235248390123,100.23609282487443,1525.0,1521.0,1000.0,1528.0,1475.0,1021.47,244.0,294.01,1637232147.645028,1637232148.5784693,b2637198-b8e4-4f61-9509-52b357c76c72
0.0196447620352013,0.0930583160121872,-0.0825863542766861,-0.4228363056217996,-0.1653272701355561,0.8243997036538074,-0.0773542686450349,-0.1034325177492556,-12.873104283677288,10.264223510027117,74.09045595076601,2.8756123027466125,-0.1695251706276931,0.5467275609383501,-1.0,12.044333333333334,0.0366666666666666,179.22970082782172,-8.242746284087396,100.35060094630973,1525.0,1521.0,1000.0,1528.0,1475.0,1021.47,244.0,294.01,1637232148.686814,1637232149.7192547,b2637198-b8e4-4f61-9509-52b357c76c72
0.0104406745385527,0.0774168462610228,-0.0948173817407847,-0.4118379668110146,-0.1721618534789017,0.829850933489178,-0.088790895640048,-0.119512278460079,-13.127143432226054,10.327890550368558,74.03592683619914,2.862728850196936,-0.2280373084041738,0.5869151880007264,-1.0,12.045,0.03,179.22875826171628,-8.25000430871792,100.46013365438958,1525.0,1521.0,1000.0,1528.0,1475.0,1021.47,244.0,294.01,1637232149.827597,1637232150.9427354,b2637198-b8e4-4f61-9509-52b357c76c72
0.0255479788071238,0.071267091472472,-0.1349619974320087,-0.9643847490199934,-0.2753380406196251,1.366112270215088,0.0102078330257176,-0.0137885381714689,-13.347137383136326,10.265583564294184,77.30865135347143,5.312188820016512,-0.2130673152816929,0.6401120308229993,-1.0,12.038222222222222,0.03,179.24891642668672,-8.070121411096832,100.61305096516746,1525.0,1607.0,1000.0,1528.0,1475.0,1021.47,244.0,294.01,1637232151.6491597,1637232152.7869873,31ffe748-de54-44ba-8d54-ebd6b04cfd88
0.0309038811649423,0.0787651354764771,-0.1219891641305222,-0.9667668558488433,-0.2646262346610648,1.3638791832052268,0.0239087746889623,0.0009248532431668,-13.148436735230636,10.177577299870336,77.82615644364265,5.3127892952030935,-0.1898238761269601,0.5901228908474304,-1.0,12.033,0.03,179.27012188732988,-8.054481036807411,100.57039491598093,1525.0,1607.0,1000.0,1528.0,1475.0,1021.47,244.0,294.01,1637232152.8964622,1637232154.0154638,31ffe748-de54-44ba-8d54-ebd6b04cfd88
0.0374091986575355,0.0821010692542764,-0.1226898800980493,-0.9660694266661468,-0.2652025859096705,1.3569903618673749,0.021959480457059,-0.0092001909933853,-13.145067082302605,10.097021863296712,77.39382437546152,5.295099841748471,-0.1736358538753381,0.5944738498415353,-1.0,12.031777777777778,0.03,179.28432109170444,-8.051878829597376,100.52158866090171,1525.0,1607.0,1000.0,1528.0,1475.0,1021.47,244.0,294.01,1637232154.1244996,1637232155.2446454,31ffe748-de54-44ba-8d54-ebd6b04cfd88
0.0562282702111637,0.0727561813165418,-0.1417911020477306,-1.4720979762783015,-0.3472263568971985,1.8543124760240937,0.1254824525081928,0.0952930462351892,-13.47556101503845,10.730160036425486,80.86597752636156,7.557758621200282,-0.1760165487881518,0.5836741589154063,-1.0,12.031666666666666,0.03,179.33492520435513,-7.885264712803899,100.43410532128247,1525.0,1693.0,1000.0,1528.0,1475.0,1021.47,244.0,294.01,1637232157.1790714,1637232158.3128517,aa9d8f54-7f0c-47d1-843d-a8f4b7183d3e
0.053324599756934,0.0727600163348023,-0.1542467533713174,-1.4722809619792592,-0.3597910340527921,1.8533263233671904,0.1117267250687642,0.0835392075591966,-13.502207623134852,10.789360593294726,80.60104141344942,7.555671969209627,-0.174231533328878,0.6369336111127505,-1.0,12.019222222222222,0.03,179.36517383545942,-7.88370534267089,100.25134615511092,1525.0,1693.0,1000.0,1528.0,1475.0,1021.47,244.0,294.01,1637232158.420989,1637232159.545105,aa9d8f54-7f0c-47d1-843d-a8f4b7183d3e
0.0510920607075304,0.0752117003300869,-0.1407830352337404,-1.4693225022624568,-0.345574003746709,1.849641948100468,0.1258067870295173,0.095729144781418,-13.478906672019798,10.64325231360552,80.9135419957958,7.540482503087502,-0.1674840305940934,0.5800095729100849,-1.0,12.020444444444443,0.03,179.3848599584672,-7.894253431479113,100.11865075773572,1525.0,1693.0,1000.0,1528.0,1475.0,1021.47,244.0,294.01,1637232159.6536112,1637232160.773816,aa9d8f54-7f0c-47d1-843d-a8f4b7183d3e
0.0605152930489256,0.0664185097767471,-0.1479052462830813,-1.7277494970532334,-0.3904439379616014,2.105671812328017,0.1753335414462327,0.1538436415835108,-13.690509866468895,11.694619497487356,82.40691946994158,8.705510317822691,-0.180817718152569,0.5785137660396716,-1.0,12.012666666666668,0.04,179.4314828297417,-7.772013061584703,99.79477608876216,1525.0,1780.0,1000.0,1528.0,1475.0,1021.47,244.0,294.01,1637232162.7085688,1637232163.8098042,322d077c-b28b-42ec-bd7f-c0e2a8696232
0.0640353085976988,0.0680484002212337,-0.1437962784109958,-1.725749794656064,-0.3886907781073836,2.102261366758392,0.1794699019883538,0.1611439071385491,-13.39050467192598,11.762520689777816,82.44020178655911,8.694146797322151,-0.1771075493241916,0.5650792525611522,-1.0,11.997666666666667,0.05,179.42761390703183,-7.802655946386057,99.51096882727968,1525.0,1780.0,1000.0,1528.0,1475.0,1021.47,244.0,294.01,1637232163.923955,1637232165.0719595,322d077c-b28b-42ec-bd7f-c0e2a8696232
0.0674046619883792,0.0682198811363032,-0.1408312471637263,-1.7211082984118684,-0.3841742000200642,2.096380061903788,0.1811934768551123,0.1578413930663512,-13.485121241892411,11.693075078474044,82.25511175531582,8.670070785095596,-0.1745389486490142,0.552194569829693,-1.0,12.000666666666667,0.06,179.44176909463172,-7.777827260115676,99.27301793806488,1525.0,1780.0,1000.0,1528.0,1475.0,1021.47,244.0,294.01,1637232165.1814938,1637232166.3035252,322d077c-b28b-42ec-bd7f-c0e2a8696232
-0.0256360615214608,0.1091517720998458,-0.0033791533168852,0.698103748830036,0.0197954241623972,-0.276721393336534,-0.3124146300444758,-0.3318089602725115,-12.975014518606123,13.083078268559362,65.90694856871004,-2.106045236105168,-0.1688560036550851,0.5202970175105919,-1.0,12.011222222222225,0.0555555555555555,179.42727239757335,-8.604118881331816,99.05612831661074,1525.0,1349.0,1000.0,1528.0,1475.0,1021.47,244.0,294.01,1637232167.2138174,1637232168.245671,b0c7b34d-5de5-408c-a3ef-b43d28b9ff65
-0.0304435537319634,0.0940718613200799,-0.0075976934304878,0.6987748801317397,0.0184668579855477,-0.2582036437297066,-0.3118530710254296,-0.3374793366757049,-13.078954202213438,13.170390990202575,66.5118268035002,-2.0655344360506867,-0.2303887814030681,0.5259831857396999,-1.0,12.05011111111111,0.04,179.35745572169728,-8.577751600087149,99.4607578299612,1525.0,1349.0,1000.0,1528.0,1475.0,1021.47,244.0,294.01,1637232168.3529518,1637232169.376537,b0c7b34d-5de5-408c-a3ef-b43d28b9ff65
-0.0329500240064024,0.1018515065093423,-0.0052144922071437,0.687105413347402,0.0176450644367042,-0.2563956976171777,-0.3085248068153953,-0.3397803586880157,-12.950280089257983,13.119743425516424,66.3468899021786,-2.0353268836450664,-0.1990722896692776,0.5198323551275523,-1.0,12.05,0.04,179.2798829865637,-8.562607932332371,99.85725182910024,1525.0,1349.0,1000.0,1528.0,1475.0,1021.47,244.0,294.01,1637232169.4839897,1637232170.7031314,b0c7b34d-5de5-408c-a3ef-b43d28b9ff65
-0.0506443347092287,0.1012625545037074,0.0339412299558945,1.1833738806549063,0.0989615326286025,-0.7344029777991614,-0.4163359175277172,-0.4408582416574233,-13.420853903587192,15.303223922996454,62.99017947641519,-4.213280846921761,-0.2267821482210777,0.50752337278263,-1.0,12.046333333333331,0.0333333333333333,179.22709624901825,-8.716130758352916,100.65654788653184,1525.0,1262.0,1000.0,1528.0,1475.0,1021.47,244.0,294.01,1637232172.754793,1637232173.9008684,233d65a7-311d-472f-ae25-0cdb139e2ca2
-0.0462395213018411,0.1153842540291064,0.0334678769385814,1.1760632057392206,0.0947933960226909,-0.7412666001865611,-0.421345571791728,-0.442199408670133,-13.508730236769884,15.37042663009266,63.00301242050676,-4.211833495405409,-0.1724377278392665,0.5225521289249275,-1.0,12.038555555555556,0.03,179.2122777741589,-8.704013813037838,100.83601641934328,1525.0,1262.0,1000.0,1528.0,1475.0,1021.47,244.0,294.01,1637232174.009215,1637232175.2088432,233d65a7-311d-472f-ae25-0cdb139e2ca2
-0.0482381232076957,0.1131884217952035,0.0324422786359797,1.1722500839055434,0.0947145038649673,-0.7368354876517615,-0.4198071739431084,-0.4493391523863384,-13.503777052171948,15.25704210147747,62.83133295199978,-4.194102306331955,-0.1787843638734907,0.5213759660382757,-1.0,12.042,0.03,179.2247512174032,-8.726478494945487,101.00093437249284,1525.0,1262.0,1000.0,1528.0,1475.0,1021.47,244.0,294.01,1637232175.316939,1637232176.4303467,233d65a7-311d-472f-ae25-0cdb139e2ca2
-0.0611649357109686,0.1225059164706522,0.0756636867611733,1.6624099508922183,0.1746898032329356,-1.2163194277712837,-0.5302858339537642,-0.5581583390727144,-14.184131461968628,17.868178631920383,59.84605940145815,-6.358603977440566,-0.1701291894471706,0.5104965251001065,-1.0,12.04188888888889,0.03,179.23355912579288,-8.890380552319774,101.2394848005348,1525.0,1176.0,1000.0,1528.0,1475.0,1021.47,244.0,294.01,1637232177.1361277,1637232178.3868744,3d98f4ca-a565-4f1d-901c-766e9d35f8a7
-0.0669355700278871,0.1172908149115429,0.0717305830106041,1.6629989030192724,0.1713976985150692,-1.2122794874381644,-0.5329780302717605,-0.5506761806086847,-14.162907386781908,17.913247032697626,59.7449513416612,-6.3507567357799575,-0.1892641777399316,0.5234027357717242,-1.0,12.035666666666666,0.03,179.25261838921685,-8.901487862866292,101.3245836452238,1525.0,1176.0,1000.0,1528.0,1475.0,1021.47,244.0,294.01,1637232178.495536,1637232179.5113974,3d98f4ca-a565-4f1d-901c-766e9d35f8a7
-0.0707223946833291,0.1195392419446319,0.0715465012804643,1.6594356057750357,0.1707665611354263,-1.2106884938535396,-0.5316105654936599,-0.5652186428997145,-14.072933890363077,17.815399538187574,59.82306053629457,-6.3397437026725205,-0.1817349105146128,0.5230203746548967,-1.0,12.031222222222222,0.03,179.25719765160042,-8.921387998468077,101.39469629596393,1525.0,1176.0,1000.0,1528.0,1475.0,1021.47,244.0,294.01,1637232179.6196263,1637232180.73964,3d98f4ca-a565-4f1d-901c-766e9d35f8a7
-0.0755463228320876,0.1345177980967282,0.0960441656722317,1.929410729877172,0.2076848115439779,-1.4821561922967066,-0.6029324028071098,-0.6321197791284149,-14.59607156929392,20.00923413254576,58.45611192527917,-7.543483822706082,-0.1413878361406883,0.5418758496231458,-1.0,12.029666666666666,0.03,179.3168722554689,-9.009371269989074,101.52635198676543,1525.0,1090.0,1000.0,1528.0,1475.0,1021.47,244.0,294.01,1637232182.7787316,1637232183.803477,89552489-af26-4016-b2bb-719d77ba6f36
-0.0760739142688775,0.1212748698244524,0.0949117342640363,1.9273009117498563,0.2101863509205837,-1.4607111935497852,-0.5946059879886467,-0.623335898972721,-14.467017823056755,19.794112276284302,59.41291625478906,-7.491799788139968,-0.2002660867864254,0.5280643844203367,-1.0,12.025444444444444,0.03,179.3108328504228,-9.015053323332356,101.54031137560914,1525.0,1090.0,1000.0,1528.0,1475.0,1021.47,244.0,294.01,1637232183.9115722,1637232185.0333064,89552489-af26-4016-b2bb-719d77ba6f36
-0.084002578528654,0.1233260663747214,0.0940702177321183,1.9633546489673903,0.2095946596253901,-1.4944639343779398,-0.6094903169594936,-0.6285164869915938,-14.533890352440611,20.25830253720001,59.55415356981926,-7.64595097793298,-0.1978357900840001,0.5517357244708506,-1.0,12.021222222222224,0.0377777777777777,179.34072631169022,-9.04880982575785,101.53168788232703,1525.0,1090.0,1000.0,1528.0,1475.0,1021.47,244.0,294.01,1637232185.141907,1637232186.2640126,89552489-af26-4016-b2bb-719d77ba6f36
-0.0103096120978238,0.0861415540089191,-0.0554671671001053,0.0901957352944386,-0.0852845764594494,0.3434998787028285,-0.1898304156436159,-0.2134432852537465,-13.287034572668896,11.618668564825724,71.58044018305243,0.6474122559282621,-0.2317143730382048,0.5601580161280956,-1.0,12.024333333333336,0.0311111111111111,179.40490276913164,-8.488782789187164,101.50178759087044,1525.0,1435.0,1000.0,1528.0,1475.0,1021.47,244.0,294.01,1637232187.171748,1637232188.2180548,8c37a204-34ac-4768-aee9-293cd031e334
-0.0211025005147854,0.0698015597310298,-0.0524676206835066,0.1074533988656657,-0.0774912342599405,0.3423630644025603,-0.1868171724733342,-0.2066634881129464,-13.409372694305969,11.725839816819864,71.42455396176018,0.6067019990443673,-0.2926846063821862,0.5389890471164503,-1.0,12.048777777777778,0.04,179.3846717488101,-8.485957936782935,101.5966961050274,1525.0,1435.0,1000.0,1528.0,1475.0,1021.47,244.0,294.01,1637232188.3266022,1637232189.5382564,8c37a204-34ac-4768-aee9-293cd031e334
-0.0079110707002018,0.0840509113153109,-0.044950949053461,0.1005656735604928,-0.0747195985471141,0.3300630077729761,-0.1818814801554404,-0.2062197194952603,-13.162054034657617,11.68461321799272,70.80665037393815,0.5947261307221193,-0.2341910270400207,0.5189227123459534,-1.0,12.04888888888889,0.04,179.38118987015318,-8.480660935354111,101.6691211542565,1525.0,1435.0,1000.0,1528.0,1475.0,1021.47,244.0,294.01,1637232189.646911,1637232190.763511,8c37a204-34ac-4768-aee9-293cd031e334
0.0561888240987454,0.1087047164518472,0.1834550525509183,0.0779499162767954,0.1322145848507463,0.3129434064335493,0.0560310397426739,0.0319163307018004,-11.615883938190832,11.662342307068728,70.63397628932893,0.6192479430282968,-0.1338734455343944,-0.4093766956822685,-1.0,12.04988888888889,0.04,179.39156720423216,-8.448710638509132,101.7088091067937,1525.0,1435.0,1000.0,1439.0,1475.0,1021.47,244.0,294.01,1637232191.7898638,1637232192.9318516,4ecdf60a-a55e-43e7-9d8e-69cc3c223325
0.0726778370355117,0.1176299417237712,0.1799629781058378,0.0818545311688647,0.1277243051946713,0.3002461495603833,0.0497771910967248,0.0279722696752514,-11.476804722745124,11.565128801618576,70.54624507125,0.5811453589134372,-0.1013090024415295,-0.388468930926994,-1.0,12.04811111111111,0.04,179.38460800037782,-8.441460013250207,101.74782466515263,1525.0,1435.0,1000.0,1439.0,1475.0,1021.47,244.0,294.01,1637232193.0405817,1637232194.0451558,4ecdf60a-a55e-43e7-9d8e-69cc3c223325
0.0586739277090663,0.107744861631871,0.1815484916652226,0.083196246064451,0.131136391788192,0.3094064073730143,0.0542428170680552,0.0309564758681613,-11.518031085100809,11.610066903859654,70.67009486262718,0.5990789394047819,-0.1392538689784433,-0.402692571842518,-1.0,12.049555555555555,0.04,179.36368637204018,-8.435158120239748,101.78853638715546,1525.0,1435.0,1000.0,1439.0,1475.0,1021.47,244.0,294.01,1637232194.1537757,1637232195.381955,4ecdf60a-a55e-43e7-9d8e-69cc3c223325
0.1730188231431204,0.1809217371817136,0.5054205810368396,0.0474487761142114,0.4152150539821886,0.2505002516550498,0.3774125552633169,0.3475266665972563,-9.240612822391672,11.711002872123489,70.2874486168762,0.5652276591070257,0.1474110368788005,-1.6816636256600157,-1.0,12.047666666666666,0.03,179.3888761096992,-8.415632222086236,101.7764029355499,1525.0,1435.0,1000.0,1351.0,1475.0,1021.47,244.0,294.01,1637232197.1621532,1637232198.1022997,d410d452-b870-43a8-b2cb-4788e7be968e
0.1708273738455235,0.1815243857411644,0.4997091166093212,0.0448327334517926,0.4098733965556513,0.2540065704937147,0.3717832700758066,0.3535394553399817,-9.345893327772126,11.702565972666545,70.48427177974922,0.5786460342234139,0.1486319175652357,-1.6583304157453618,-1.0,12.045222222222222,0.04,179.38249215955491,-8.430397478388251,101.7562994120928,1525.0,1435.0,1000.0,1351.0,1475.0,1021.47,244.0,294.01,1637232198.2122183,1637232199.276559,d410d452-b870-43a8-b2cb-4788e7be968e
0.1636777705036537,0.1665814408339646,0.4894366986059694,0.051735798973863,0.4033812283161043,0.2644159544248023,0.3635242458960226,0.3321591289215371,-9.50331503545504,11.817249843996184,70.7142635767084,0.5866718605910204,0.0901633829024529,-1.625306665928802,-1.0,12.044333333333334,0.03,179.39279208482333,-8.431877352708419,101.76688620530632,1525.0,1435.0,1000.0,1351.0,1475.0,1021.47,244.0,294.01,1637232199.38525,1637232200.504895,d410d452-b870-43a8-b2cb-4788e7be968e
0.2608088289687045,0.2133157405156645,0.7968153850325876,0.0427377077915978,0.6797788509385808,0.2090687117807288,0.6708903331429401,0.6517589819739544,-7.462654099661487,12.049528779892835,70.53119690267725,0.5004399518766466,0.2732226063755168,-2.851735510447757,-1.0,12.044,0.03,179.39494587114157,-8.422691317457183,101.7068579494208,1525.0,1435.0,1000.0,1262.0,1475.0,1021.47,244.0,294.01,1637232202.1274807,1637232203.1642668,cbbebcf5-46ad-4344-8722-e0a3dffb3751
0.2610739943359703,0.2124786068769242,0.8017729909362462,0.0474350795680002,0.6823664045372765,0.2058631693680772,0.6745182772297612,0.653589937740183,-7.23988258853489,12.251728652393618,70.60319660032987,0.4843514279327278,0.2676073607095592,-2.8670687880617,-1.0,12.044333333333334,0.03,179.38704258336196,-8.426299364886242,101.68053667708932,1525.0,1435.0,1000.0,1262.0,1475.0,1021.47,244.0,294.01,1637232203.273093,1637232204.3999894,cbbebcf5-46ad-4344-8722-e0a3dffb3751
0.2569650269736273,0.2155329393195131,0.7964861198084711,0.0501606946593945,0.6790381411238604,0.1994668767184058,0.6688068128532008,0.6426189953772993,-7.285223856318307,12.04508542609198,70.43663161007261,0.4621472955738472,0.2801858945127216,-2.846985427618385,-1.0,12.042333333333334,0.03,179.39096311194555,-8.424332460132755,101.65543269624987,1525.0,1435.0,1000.0,1262.0,1475.0,1021.47,244.0,294.01,1637232204.5073154,1637232205.8302736,cbbebcf5-46ad-4344-8722-e0a3dffb3751
0.3215442967857378,0.2347081204380375,1.030532894385221,0.0647886192644903,0.89138956586538,0.1526657377162253,0.8990870311596065,0.8712282333786092,-5.762525444800002,12.668130168295823,70.14151578711422,0.3404855233175041,0.3569896744851569,-3.7802758525442255,-1.0,12.041,0.03,179.40419850073724,-8.427830939943878,101.59615424335324,1525.0,1435.0,1000.0,1173.0,1475.0,1021.47,244.0,294.01,1637232206.627854,1637232207.5872004,d939e959-3602-4e5c-93f0-148b03fb4088
0.3206748393247739,0.2270561274477326,1.028219271892587,0.0725326534480236,0.8915122870439667,0.1536206617455411,0.8964693451310072,0.8727885452006275,-5.877696884108639,12.739161089709874,70.20588627571058,0.3254706775610536,0.3274357664651795,-3.774439151138158,-1.0,12.03,0.03,179.39790410196213,-8.429994592090956,101.51519449330128,1525.0,1435.0,1000.0,1173.0,1475.0,1021.47,244.0,294.01,1637232207.70218,1637232208.6936538,d939e959-3602-4e5c-93f0-148b03fb4088
0.3298444107341522,0.2465693395537807,1.034861006662302,0.0622958455821565,0.894348022285314,0.1465159830886603,0.9001827557768683,0.8767205529299251,-5.904010699401006,12.6117058896937,70.61514348688091,0.3321350368914659,0.398860441343396,-3.789759573477291,-1.0,12.035777777777778,0.03,179.39908041231917,-8.441225035770012,101.4513276711022,1525.0,1435.0,1000.0,1173.0,1475.0,1021.47,244.0,294.01,1637232208.8014529,1637232209.926527,d939e959-3602-4e5c-93f0-148b03fb4088
-0.1220549075924354,0.048062929819566,-0.4051989694180865,0.1571313635050222,-0.404120776118893,0.3247903809165165,-0.5700836618833572,-0.5883866534056924,-15.560723005039552,12.239316260622264,69.57431601251537,0.439614873413429,-0.3710613437794607,2.003852139997148,-1.0,12.036555555555555,0.03,179.4296174291884,-8.417435297163381,101.62910079917964,1525.0,1435.0,1000.0,1617.0,1475.0,1021.47,244.0,294.01,1637232211.6557837,1637232212.6819184,688e37f2-788c-42c5-b243-20bd93c4cab5
-0.1234842805652909,0.0288762426111254,-0.396443031689054,0.1755526863839026,-0.389813896043271,0.3292006724952493,-0.5578433176912438,-0.5915094695180358,-15.541436442378014,12.244927786593747,70.02059849094168,0.4085254313951686,-0.4488278663207778,1.953483258449936,-1.0,12.049,0.0399999999999999,179.4355144627358,-8.426612699814417,101.64744076779304,1525.0,1435.0,1000.0,1617.0,1475.0,1021.47,244.0,294.01,1637232212.7900174,1637232213.916919,688e37f2-788c-42c5-b243-20bd93c4cab5
-0.1299572745533491,0.0255129156468745,-0.3972440066015227,0.1767492177201801,-0.3905907649755156,0.3294450191188041,-0.5598145270168606,-0.5844025966210028,-15.62336828354818,12.37712679952734,69.73183575615815,0.4071246365152299,-0.4584990512065999,1.957524481240046,-1.0,12.047222222222224,0.04,179.4226445649557,-8.431875645161126,101.65594799607726,1525.0,1435.0,1000.0,1617.0,1475.0,1021.47,244.0,294.01,1637232214.0330746,1637232215.1367917,688e37f2-788c-42c5-b243-20bd93c4cab5
-0.2096082481518534,0.0164123741705283,-0.7079165620633093,0.2417892408475956,-0.6791674744521954,0.2965480789758141,-0.9069550456674574,-0.9257604314637664,-17.630369318124906,13.093215325350888,69.77113019493659,0.1747600710437818,-0.506465478471896,3.2661385069091424,-1.0,12.047999999999998,0.0388888888888888,179.43223111491076,-8.43004468014487,101.69490435946338,1525.0,1435.0,1000.0,1706.0,1475.0,1021.47,244.0,294.01,1637232217.1858327,1637232218.2102878,6a6f3cf0-a0b8-491c-883d-239136866a7b
-0.230180481383153,-0.0177468436041616,-0.7126966628852199,0.2515274934850782,-0.6742367114898804,0.3190652198170073,-0.9028597723347582,-0.9258700041355866,-17.895854059570603,13.03177080438702,69.48855868646008,0.2025679589362181,-0.6317029161697677,3.2555007694109004,-1.0,12.038888888888888,0.03,179.42794175611203,-8.435357049499324,101.60786801777982,1525.0,1435.0,1000.0,1706.0,1475.0,1021.47,244.0,294.01,1637232218.318128,1637232219.4398,6a6f3cf0-a0b8-491c-883d-239136866a7b
-0.2262495686350027,-0.0020916767683738,-0.7137512982846355,0.249390830455783,-0.6795783712904298,0.3057658623243373,-0.9082288262365058,-0.9360328564415288,-17.7019336225171,13.038698559020244,69.47301646103337,0.1775908634087114,-0.5740249649225533,3.2738446674095747,-1.0,12.037777777777778,0.03,179.41436334004203,-8.438910075960072,101.53018220507,1525.0,1435.0,1000.0,1706.0,1475.0,1021.47,244.0,294.01,1637232219.5495045,1637232220.6682785,6a6f3cf0-a0b8-491c-883d-239136866a7b
-0.3138390723576333,-0.0320871408097781,-0.983642122078515,0.3640447150773767,-0.9229389385263111,0.2398306330405728,-1.2231403195894492,-1.2496568800940324,-19.64145944731563,14.207718941931896,68.67568847418882,-0.2359980643516235,-0.6969381678403708,4.4159834628774535,-1.0,12.038555555555556,0.03,179.41663248066627,-8.454661156232289,101.47010765568012,1525.0,1435.0,1000.0,1795.0,1475.0,1021.47,244.0,294.01,1637232222.7150142,1637232223.8606026,0606f0d3-3d89-4bff-8e84-29a4d6d047f7
-0.3031650686759188,-0.0164577234630964,-0.9819273119144226,0.3440400708729549,-0.9261768068572104,0.2452670707557429,-1.2193271944711193,-1.2419429718443735,-19.45965237882001,14.04929491569911,69.02884444176644,-0.179473100522752,-0.640166125419142,4.41503301997892,-1.0,12.029444444444444,0.03,179.43573120740544,-8.474485400843296,101.31527713302472,1525.0,1435.0,1000.0,1795.0,1475.0,1021.47,244.0,294.01,1637232223.994388,1637232224.9657066,0606f0d3-3d89-4bff-8e84-29a4d6d047f7
-0.3246593553669248,-0.0481121149026483,-0.9842173779491028,0.3639351426224502,-0.9229800282810582,0.2558829988849937,-1.2182232509387274,-1.2398227426478592,-19.44404312623568,14.373013076281664,68.72484103945185,-0.1985047659028157,-0.7588946400869414,4.408022266917513,-1.0,12.031,0.03,179.42725418373553,-8.45323099051108,101.19172356439864,1525.0,1435.0,1000.0,1795.0,1475.0,1021.47,244.0,294.01,1637232225.0740173,1637232226.31059,0606f0d3-3d89-4bff-8e84-29a4d6d047f7
-0.3800756410676851,-0.060493804342483186,-1.1924326102363139,0.4476621985610209,-1.1112393482911556,0.20573990029484793,-1.4610634685681434,-1.4861966819255086,-20.9940503933405,15.082839689353444,69.09512457398253,-0.50643413953737,-0.8211410366477638,5.2923941848936975,-1.0,12.033,0.030000000000000002,179.43023062839387,-8.470401042583369,101.02685114584352,1525.0,1435.0,1000.0,1883.0,1475.0,1021.4699999999999,244.0,294.01,1637232228.2449684,1637232229.327463,fccf4ca4-9325-4b1d-95c4-24c0fd11aa46
-0.3852786906786754,-0.06355635490599434,-1.1893086968207016,0.4496635395407154,-1.1065507390621876,0.21104101613446005,-1.4577790305181193,-1.4762003741568859,-21.196736447393857,15.117702375126685,69.70908791242468,-0.49865385805078816,-0.8366822200003314,5.277430420454354,-1.0,12.004111111111111,0.05,179.437405362662,-8.510692992543442,100.68544641691014,1525.0,1435.0,1000.0,1883.0,1475.0,1021.4699999999999,244.0,294.01,1637232229.4360368,1637232230.49845,fccf4ca4-9325-4b1d-95c4-24c0fd11aa46
-0.36787200502111644,-0.03981200008299778,-1.1745585870009387,0.43691040097416084,-1.1004053625443735,0.19667277889437437,-1.4464355283138273,-1.4777321988512089,-20.775081706125192,15.106446506657875,69.40296469813275,-0.50134995660961,-0.745392587503043,5.235432423786868,-1.0,12.006555555555556,0.05,179.47269770901337,-8.494423387076734,100.40678835915196,1525.0,1435.0,1000.0,1883.0,1475.0,1021.4699999999999,244.0,294.01,1637232230.6085055,1637232231.7274287,fccf4ca4-9325-4b1d-95c4-24c0fd11aa46
