raw_voltage_G-,raw_voltage_G0,raw_voltage_G1,raw_voltage_G2,raw_voltage_G3,raw_voltage_G4,raw_voltage_G5,raw_voltage_G6,load_x,load_y,load_z,load_l,load_m,load_n,rpm,voltage,current,roll,pitch,yaw,aileron1_pwm,elevator_pwm,throttle_pwm,rudder_pwm,aileron2_pwm,pbaro,pdiff,Tt,sample_start_time,sample_end_time,uid
-0.1866528137630848,-0.1001864330717842,-0.0287177874267959,0.5896544084371729,-0.0424006498203621,-0.782549141566823,-0.4774581938447614,-0.5065222985732474,-15.08409118828765,20.062263204883248,-50.091455762528334,-2.972620890465865,0.1008813707183204,0.6803108595612795,-1.0,12.048333333333334,0.04,179.50626429423448,13.067088187333114,51.80281160896384,1525.0,1435.0,1000.0,1528.0,1475.0,1021.47,244.0,294.23,1637232610.2014372,1637232611.338721,9740c4e7-2791-45cd-aabd-f35479906791
-0.1846821527324076,-0.1022792672945876,-0.0317233602400018,0.5798093230772426,-0.0468575100949031,-0.7646186947529329,-0.4732303389707102,-0.4973713513927492,-14.751784656822856,19.960124490607345,-49.11920628859914,-2.9106251723551395,0.0830828346898696,0.6857646524102057,-1.0,12.045444444444444,0.0344444444444444,179.64007225353444,13.101922531555134,51.61210817387764,1525.0,1435.0,1000.0,1528.0,1475.0,1021.47,244.0,294.23,1637232611.4475043,1637232612.4561155,9740c4e7-2791-45cd-aabd-f35479906791
-0.1751340069695612,-0.09046187590079,-0.010569846759668,0.5774370793514202,-0.0300189604350333,-0.7723178078971354,-0.454228824830617,-0.4804166512009837,-14.573116286941456,19.99634857191741,-48.72521647869845,-2.921128728032597,0.1242824530569289,0.6090161376953699,-1.0,12.048,0.04,179.82524778885238,13.156459789666656,51.53832619373343,1525.0,1435.0,1000.0,1528.0,1475.0,1021.47,244.0,294.23,1637232612.5638912,1637232613.6833515,9740c4e7-2791-45cd-aabd-f35479906791
-0.0673420839083101,0.1238344826109032,-0.0346757905004058,0.4851496761283995,-0.0960226789827885,-0.8909163669388606,-0.5355042242951313,-0.5587472913713863,-15.541741451388136,19.523202597416176,-48.2116445035962,-2.984200326392628,0.9401543460249764,0.872855344462331,-1.0,12.035333333333334,0.03,-179.8756378889091,13.299383964506372,51.48151040348754,1576.0,1435.0,1000.0,1528.0,1515.0,1021.47,244.0,294.23,1637232615.7316482,1637232616.9572754,6ab5eb86-625a-4ab9-b615-b243cd7edae1
-0.04708487294099,0.1508851851775689,-0.0088714734293014,0.4665634477460633,-0.0810249465581693,-0.9049690438089136,-0.5116174195514022,-0.5406130423016965,-14.948198300460026,19.472337418664097,-48.68543347491618,-2.972681648983132,1.04553251052405,0.7861219352232144,-1.0,12.039,0.03,-179.77948552141328,13.35298681479394,51.48502719200019,1576.0,1435.0,1000.0,1528.0,1515.0,1021.47,244.0,294.23,1637232617.0699246,1637232618.097109,6ab5eb86-625a-4ab9-b615-b243cd7edae1
-0.0443729542595169,0.1485841633940466,-0.002694325388929,0.4694945110104662,-0.0751217295296736,-0.9054210304907871,-0.5051937318679679,-0.5232321044980218,-14.868558874352184,19.527159797069974,-48.63910434991817,-2.979590605526076,1.0359596490545258,0.7603612576895721,-1.0,12.036555555555555,0.03,-179.7048937843975,13.366045851895787,51.51460912075047,1576.0,1435.0,1000.0,1528.0,1515.0,1021.47,244.0,294.23,1637232618.2046573,1637232619.2137392,6ab5eb86-625a-4ab9-b615-b243cd7edae1
0.126771024708797,0.4722924438148006,-0.0189165297413537,0.3183606687833884,-0.1572408213031082,-1.0729952420824354,-0.5994315611263716,-0.6251241222359837,-15.842173024091023,18.59945283547629,-47.56550089875971,-3.0225079067550946,2.2650018712116045,1.0675553479900992,-1.0,12.028,0.03,-179.72479695563894,13.37135907502389,51.548272846439744,1627.0,1435.0,1000.0,1528.0,1556.0,1021.47,244.0,294.23,1637232620.236718,1637232621.2616074,c64622a0-a6e5-4d36-8a9b-a6c1391b5434
0.1279297535619507,0.4723981812371741,-0.0080496799559565,0.3163259082916281,-0.1482750534101885,-1.0740394681743588,-0.5893317156833134,-0.6158345652639242,-15.806358507648532,18.72485702492266,-47.88636033560196,-3.01892520370238,2.2689302832556213,1.025666894715226,-1.0,12.021666666666668,0.03,-179.69613899970136,13.386199463406774,51.57939725957758,1627.0,1435.0,1000.0,1528.0,1556.0,1021.47,244.0,294.23,1637232621.37022,1637232622.600937,c64622a0-a6e5-4d36-8a9b-a6c1391b5434
0.123365512468479,0.4605769564927355,-0.0176279575139758,0.3205170549249241,-0.1550186915286969,-1.0636728097156594,-0.5955263971307696,-0.6195227757773071,-15.804797480865814,18.74739316817181,-47.57179166497415,-3.0053607475475688,2.220671591082534,1.0557700194798052,-1.0,12.028700000000002,0.03,-179.69153317547105,13.398800707079502,51.541709186429344,1627.0,1435.0,1000.0,1528.0,1556.0,1021.47,244.0,294.23,1637232622.7090642,1637232623.8331137,c64622a0-a6e5-4d36-8a9b-a6c1391b5434
0.3056425933108471,0.8132370094109289,-0.0221023493510156,0.1509536679508118,-0.2395489285396539,-1.247191496890422,-0.6847693690541092,-0.7040541314108123,-16.191003990332174,18.150111477194987,-47.08694287004986,-3.0395576498464094,3.56238057731345,1.345909367143448,-1.0,12.0167,0.03,-179.74712681720143,13.413915488825916,51.74206663856141,1672.9,1435.0,1000.0,1528.0,1592.0,1021.47,244.0,294.23,1637232625.639541,1637232626.603392,b9858213-2891-45c9-9def-5b2749e974c7
0.3180927642411094,0.8310836236491235,0.0020583804957062,0.1455846170981189,-0.2194286817445113,-1.2590664235558506,-0.6645669375801977,-0.6969182213900139,-16.21105480187475,18.093069105844457,-46.82060171681426,-3.053273666807129,3.629289310267312,1.259304577268809,-1.0,12.014111111111111,0.03,-179.77829403285807,13.410684363488931,51.78102520278627,1678.0,1435.0,1000.0,1528.0,1596.0,1021.47,244.0,294.23,1637232626.711695,1637232627.9279144,b9858213-2891-45c9-9def-5b2749e974c7
0.3164765704529693,0.8196743913653964,-0.0040502847154882,0.1476664938897088,-0.2239485465460675,-1.248889872040322,-0.6682650097484624,-0.7018215913538771,-16.23190871678294,18.217670547747275,-46.72978837733539,-3.034575994625547,3.585199007759359,1.2777529440668014,-1.0,12.013333333333334,0.03,-179.78044781917637,13.390019910746272,51.84883797705084,1678.0,1435.0,1000.0,1528.0,1596.0,1021.47,244.0,294.23,1637232628.0363142,1637232629.1561787,b9858213-2891-45c9-9def-5b2749e974c7
0.4003268959701181,0.9734045523327248,0.0002230415997903,0.0645009914166457,-0.2577242640331816,-1.285952792345254,-0.6928092521986194,-0.720654367026893,-16.286960293103192,18.160130163102643,-41.552452154944056,-2.929631400625776,4.126793003429808,1.378036905138612,-1.0,11.977555555555556,0.13,-179.89085403256007,13.35807644409046,51.89929751736411,1729.0,1435.0,1000.0,1528.0,1636.0,1021.47,244.0,294.23,1637232631.2959807,1637232632.3209765,f0cc6826-3489-4aa8-87ba-68588662c097
0.3992448679266709,0.9773902505992628,0.0112624679383993,0.0661856682542804,-0.2476435957527031,-1.2913629377120683,-0.6830025124972966,-0.7069851961901691,-16.248842336534562,18.151477880302767,-41.46573871951601,-2.945063594903844,4.14119574094632,1.3359455602678034,-1.0,11.978444444444444,0.13,-179.92819391784263,13.34713827558964,51.9221733387143,1729.0,1435.0,1000.0,1528.0,1636.0,1021.47,244.0,294.23,1637232632.4286969,1637232633.4582608,f0cc6826-3489-4aa8-87ba-68588662c097
0.3986148263052181,0.9636389067576902,-0.0087208113146462,0.0809779514313933,-0.2625591498050829,-1.291746441532134,-0.7039856482158706,-0.7286531601552979,-16.42645673002276,18.23997702320366,-41.65702706301684,-2.9798214073241502,4.089485756438129,1.4114114667892397,-1.0,11.978333333333332,0.1211111111111111,-179.97893615209654,13.340375249946463,51.90825872555517,1729.0,1435.0,1000.0,1528.0,1636.0,1021.47,244.0,294.23,1637232633.5660112,1637232634.6871684,f0cc6826-3489-4aa8-87ba-68588662c097
-0.3306064019828165,-0.3887762445341313,-0.0078716246551132,0.7077066790590927,0.0368207944610663,-0.6102529416791096,-0.3826883970761535,-0.4082231704839916,-14.510170670938674,20.871600862000538,-49.91002425752336,-2.8450243084621354,-1.0003754744905766,0.3755015549952468,-1.0,12.04622222222222,0.04,-179.6729345703611,13.310917402966108,51.95755865152937,1474.0,1435.0,1000.0,1528.0,1435.0,1021.47,244.0,294.23,1637232636.721912,1637232637.7598102,4765670c-3dc3-43b8-91a9-dc6c5fe51c16
-0.3462725283528123,-0.4036474229428905,-0.0296491534035488,0.7064723453147327,0.0175765815907313,-0.5953718998545743,-0.400894414264293,-0.4204804973466807,-14.567761200112086,20.982621377890705,-50.18235800968275,-2.809221074325988,-1.054556859800104,0.4550393478302931,-1.0,12.048555555555556,0.04,-179.67396820565548,13.287835063257264,52.08731213464706,1474.0,1435.0,1000.0,1528.0,1435.0,1021.47,244.0,294.23,1637232637.8679268,1637232638.988021,4765670c-3dc3-43b8-91a9-dc6c5fe51c16
-0.360968938305444,-0.4221925670926005,-0.0375109782153234,0.7217440066661557,0.0127690895063424,-0.5905781028079522,-0.4061812869264296,-0.436943764138086,-14.36454938514187,21.14743500826196,-50.13861985319115,-2.83208753186728,-1.128314230189277,0.4778573347956418,-1.0,12.04622222222222,0.04,-179.70012934799647,13.276297735384254,52.17951703225755,1474.0,1435.0,1000.0,1528.0,1435.0,1021.47,244.0,294.23,1637232639.0963943,1637232640.2164562,4765670c-3dc3-43b8-91a9-dc6c5fe51c16
-0.4654189157844174,-0.6220801977668423,-0.0229926256909316,0.8244270967805988,0.0710479465219942,-0.4951130622074535,-0.3477380604034881,-0.3726931946945087,-14.163468898836962,21.72787156744062,-50.69495497022896,-2.844609495870549,-1.886219046284775,0.2713102580198924,-1.0,12.0336,0.03,-179.63867434148435,13.256835054426055,52.42976969929549,1423.0,1435.0,1000.0,1528.0,1394.0,1021.47,244.0,294.23,1637232641.2189724,1637232642.2712796,01a64ce9-8c3a-4326-bb51-22314b8e49a0
-0.4663776750942416,-0.6314075573569323,-0.0273344349144563,0.8239340207104872,0.0694728422564784,-0.4841695091158589,-0.3496144893061626,-0.3781581227804699,-14.365530869982196,21.74361250269208,-50.52614907878827,-2.819092260822181,-1.921482565511476,0.2810029896665091,-1.0,12.031777777777778,0.03,-179.6671865867196,13.261868771035122,52.51154201418572,1423.0,1435.0,1000.0,1528.0,1394.0,1021.47,244.0,294.23,1637232642.381631,1637232643.4929097,01a64ce9-8c3a-4326-bb51-22314b8e49a0
-0.4616660578180102,-0.6231759229104855,-0.0204587622824854,0.8239888069466881,0.074157065313699,-0.4958115868609015,-0.3450946241450069,-0.3695292891521429,-14.217554322912845,21.701487369353288,-50.983539852657394,-2.845312461431535,-1.8871740090713025,0.2592874570684002,-1.0,12.0313,0.03,-179.71236252036394,13.244223110123627,52.593743075228346,1423.0,1435.0,1000.0,1528.0,1394.0,1021.47,244.0,294.23,1637232643.6014245,1637232644.7223482,01a64ce9-8c3a-4326-bb51-22314b8e49a0
-0.6359411199166073,-0.9636999205405852,-0.024745785260819,0.9943876786777016,0.1393526831218509,-0.3158387703726458,-0.2742697090022131,-0.3065388059410378,-13.578730295664316,23.12825346533309,-50.2893500569762,-2.8155906537658715,-3.196247388807972,0.0366236662515198,-1.0,12.024,0.03,-179.66582662016484,13.235986528085268,52.78451014491033,1372.0,1435.0,1000.0,1528.0,1354.0,1021.47,244.0,294.23,1637232646.8612125,1637232647.9982295,3364022b-7118-48d1-a70a-c4ad93687f03
-0.6409677586775119,-0.956495526449076,-0.023526791497817,0.9907033046492024,0.1399005454565325,-0.3174686610991244,-0.2723521905099258,-0.2907329750143544,-13.506391885053398,22.9575035482692,-49.98629251651232,-2.811928692364458,-3.171896508351504,0.0328732278597183,-1.0,12.02022222222222,0.03,-179.69203026146067,13.218199387394217,52.81052861218863,1372.0,1435.0,1000.0,1528.0,1354.0,1021.47,244.0,294.23,1637232648.1071184,1637232649.2310536,3364022b-7118-48d1-a70a-c4ad93687f03
-0.6292024106902812,-0.9430181048505832,-0.0054199407505247,0.989949993992206,0.1541038762396986,-0.3320828913978484,-0.2585323612745064,-0.2845010398107852,-13.40030695545631,22.97924977400974,-50.16296366533047,-2.8419985382015667,-3.119291999018978,-0.029390097129116,-1.0,12.021333333333336,0.03,-179.73466126662024,13.207777277630685,52.80790581954734,1372.0,1435.0,1000.0,1528.0,1354.0,1021.47,244.0,294.23,1637232649.3406763,1637232650.3438995,3364022b-7118-48d1-a70a-c4ad93687f03
-0.8041075346598602,-1.2796523692935535,-0.004680326456394,1.1534321087465391,0.2224907907248353,-0.139906455455058,-0.1821192524583004,-0.2158538798031628,-12.89829002416601,24.517541192557456,-48.058162995073225,-2.768105456905715,-4.424138281738416,-0.2689506973468975,-1.0,12.015333333333334,0.03,-179.66473834335707,13.190575161614792,52.907265719768375,1321.0,1435.0,1000.0,1528.0,1314.0,1021.47,244.0,294.23,1637232652.1900308,1637232653.328893,8cf861bb-f40c-4441-8710-88739b04db70
-0.8092300500436128,-1.289623472923184,-0.023937688493257,1.1680326397366867,0.2075204527321103,-0.142892305510293,-0.2037324242385636,-0.226633072591553,-13.0918680149916,24.61938077920044,-48.11773284772505,-2.8081410005680034,-4.462654644004228,-0.1928777745029987,-1.0,12.018,0.03,-179.7023180441705,13.212057908965512,52.92850495190245,1321.0,1435.0,1000.0,1528.0,1314.0,1021.47,244.0,294.23,1637232653.437043,1637232654.5531433,8cf861bb-f40c-4441-8710-88739b04db70
-0.8133740829354508,-1.2779704305096553,-0.0199947229238985,1.1435596296698245,0.2065047161076033,-0.1322451479889339,-0.19664746747911,-0.22544311534557,-12.991271081160548,24.52168617122003,-48.141525590310486,-2.7294147519613445,-4.416188318339996,-0.2056841437481942,-1.0,12.015,0.03,-179.72493507724212,13.187573483202048,52.94882324686341,1321.0,1435.0,1000.0,1528.0,1314.0,1021.47,244.0,294.23,1637232654.6612034,1637232655.7423065,8cf861bb-f40c-4441-8710-88739b04db70
-0.1735846520657668,-0.0871977118522492,-0.0178646339856405,0.5686197836304328,-0.0387579129083259,-0.766038754718838,-0.4636449370791318,-0.479883581306582,-14.857987429764298,20.15952687659178,-48.59701916812968,-2.8865336627414284,0.1380310058377368,0.6445013180591489,-1.0,12.041333333333334,0.03,179.93784269841015,13.168597320412983,53.03949704373496,1525.0,1435.0,1000.0,1528.0,1475.0,1021.47,244.0,294.23,1637232656.6913793,1637232657.7160485,5a2f1692-2dbb-4859-9fc3-786341879509
-0.1707374112787248,-0.0871747016636097,-0.0156238770155362,0.5783410521304617,-0.0362645913591673,-0.7748790653293183,-0.4637753284043338,-0.4858404899735148,-14.782609012490065,20.212674039124483,-48.57090644507323,-2.927821821279179,0.1362984188808674,0.6383923273083663,-1.0,12.044777777777776,0.03,179.9362489876038,13.17901658426436,53.068422135960056,1525.0,1435.0,1000.0,1528.0,1475.0,1021.47,244.0,294.23,1637232657.8247445,1637232659.0569851,5a2f1692-2dbb-4859-9fc3-786341879509
-0.1757936333059772,-0.0856987604175099,-0.0121580997835832,0.5682647688692272,-0.0325254307584522,-0.7669591637146153,-0.457885806999548,-0.4779507222908793,-14.9278386047065,20.089001848276247,-48.520227250783975,-2.888007410183042,0.1438710473883046,0.6203007085462918,-1.0,12.045,0.0388888888888888,179.91690437405452,13.17287937470389,53.06806355102864,1525.0,1435.0,1000.0,1528.0,1475.0,1021.47,244.0,294.23,1637232659.165758,1637232660.287331,5a2f1692-2dbb-4859-9fc3-786341879509
-0.1673269678407388,-0.1127735710661679,-0.0576860097050464,0.0256986408091537,-0.1324555270601556,-0.2152512310541602,-0.3495733995462072,-0.3731999677464017,-14.671143842252889,19.383983421421423,-44.63982630161911,-0.4305426311325353,0.0700186480297377,0.662163378805371,-1.0,12.045444444444446,0.0322222222222222,179.88624289596044,13.333759832280354,53.14692036172616,1525.0,1521.0,1000.0,1528.0,1475.0,1021.47,244.0,294.23,1637232662.224255,1637232663.2459743,73267802-ec0a-4586-9beb-4ecd2b428a48
-0.1675872024969571,-0.1169647182615998,-0.0641507856044187,0.0311087815872993,-0.1354687701475996,-0.2159223624494093,-0.3560792659752433,-0.3843900579871129,-14.857844645705136,19.28940092802049,-44.65859623787253,-0.4453005790132658,0.0547095372074953,0.6837647816518886,-1.0,12.044555555555556,0.0355555555555555,179.8632190871782,13.342789437226848,53.09089269941949,1525.0,1521.0,1000.0,1528.0,1475.0,1021.47,244.0,294.23,1637232663.3543746,1637232664.4753618,73267802-ec0a-4586-9beb-4ecd2b428a48
-0.1661353672125082,-0.1161155316010938,-0.0620552120743936,0.0264793447297218,-0.1330718722350939,-0.2151964446987408,-0.3519429045988656,-0.3772130599939773,-14.811112785597787,19.136196699538605,-45.0173291140357,-0.4341713938054001,0.0614434200079938,0.6714060832139687,-1.0,12.044888888888888,0.03,179.82988017492946,13.3342972353588,53.02931930296173,1525.0,1521.0,1000.0,1528.0,1475.0,1021.47,244.0,294.23,1637232664.583474,1637232665.703906,73267802-ec0a-4586-9beb-4ecd2b428a48
-0.143671365775629,-0.1207663353550525,-0.087329198937941,-0.4657618778635856,-0.2134252055961916,0.2663444297137862,-0.2457578533663379,-0.2691888331916388,-14.552687930534924,18.65346343692663,-41.33329775202682,1.754549613237007,0.0685145412295908,0.6648126485593449,-1.0,12.03611111111111,0.03,179.81402351131635,13.492586679646369,52.85964564087505,1525.0,1607.0,1000.0,1528.0,1475.0,1021.47,244.0,294.23,1637232667.7507515,1637232668.7000802,6545504b-0624-4a65-bb8a-a5990e80de9e
-0.1419883324711866,-0.1133762196982274,-0.0841340655230178,-0.4823341698281734,-0.2129228157246318,0.2716203438263067,-0.2398091632054995,-0.2666407249368381,-14.461531528544008,18.50415626329709,-41.6865800155231,1.8029472187316748,0.1009583434016788,0.6516790397212113,-1.0,12.040555555555551,0.03,179.7753312485781,13.51356712350188,52.71676149853297,1525.0,1607.0,1000.0,1528.0,1475.0,1021.47,244.0,294.23,1637232668.8089173,1637232669.9131138,6545504b-0624-4a65-bb8a-a5990e80de9e
-0.1495214402701874,-0.1327705478947301,-0.0992002807890019,-0.4653230399984276,-0.2215516485954333,0.2764552287093185,-0.2536152959734836,-0.2784471605017684,-14.63344055764437,18.575082427939293,-41.58501864989381,1.775088545505075,0.0254860660026836,0.7014220765112301,-1.0,12.040555555555557,0.03,179.76526203192168,13.513855034948143,52.56283180193811,1525.0,1607.0,1000.0,1528.0,1475.0,1021.47,244.0,294.23,1637232670.0211718,1637232671.1401937,6545504b-0624-4a65-bb8a-a5990e80de9e
-0.1350589690745519,-0.1329420288346345,-0.1230279112194402,-0.9551696991235278,-0.3024024442197041,0.7493222986881898,-0.1517709632324123,-0.1684040655534001,-14.535328129019712,18.33383371867505,-38.20966037405091,3.9404597550340337,0.0530287495913471,0.6996313366868141,-1.0,12.02975,0.03,179.74237198101076,13.673520691205663,52.28548442902254,1525.0,1693.0,1000.0,1528.0,1475.0,1021.47,244.0,294.23,1637232673.2804782,1637232674.4186883,d210ccba-8125-4608-a76b-7d7c2cad1d64
-0.1254428885830089,-0.129360104577925,-0.1289355112658123,-0.9641519074894104,-0.3113052086448031,0.7572317865793496,-0.1540960912485405,-0.180612630999419,-14.191479429844165,18.29071481406092,-37.79541607020106,3.978154209982508,0.0610886904621661,0.7243174895941742,-1.0,12.028666666666668,0.03,179.70629017862782,13.675105176513432,52.10574985085655,1525.0,1693.0,1000.0,1528.0,1475.0,1021.47,244.0,294.23,1637232674.5268676,1637232675.5300038,d210ccba-8125-4608-a76b-7d7c2cad1d64
-0.124580005319324,-0.1234431908991883,-0.1243882535173892,-0.9723424546218312,-0.3059361568695572,0.7565743518399867,-0.149863854333266,-0.1700388869452513,-14.470348550087984,18.10809428087533,-38.0992183275292,3.993979740025882,0.0892406794625954,0.7048760068895105,-1.0,12.030444444444443,0.03,179.68288995053138,13.645538331097573,51.94297240310186,1525.0,1693.0,1000.0,1528.0,1475.0,1021.47,244.0,294.23,1637232675.6404502,1637232676.762859,d210ccba-8125-4608-a76b-7d7c2cad1d64
-0.097104707168538,-0.117375615039128,-0.1458644589377538,-1.472691859949966,-0.3926216911565662,1.2355840654743415,-0.0485367083142886,-0.0802579394874235,-14.157785776854364,18.37886313142684,-34.35692308313579,6.200523664523505,0.1368645035979066,0.7096837030957014,-1.0,12.02111111111111,0.03,179.64024073153394,13.7786128039717,51.7128166570048,1525.0,1780.0,1000.0,1528.0,1475.0,1021.47,244.0,294.23,1637232677.6741002,1637232678.718404,6ee4df71-3e08-4194-aad3-dc30ef66d0a1
-0.1139788683159308,-0.1350304802439625,-0.1566847410450974,-1.4601184049618812,-0.3976757222481086,1.2413914061697346,-0.0568368230880518,-0.0806825328185482,-14.27326772893951,18.37949534014608,-34.41755386328477,6.184608518143159,0.0697687480574014,0.7409417782037534,-1.0,12.019666666666668,0.03,179.58777577178938,13.773314664178018,51.487947097870375,1525.0,1780.0,1000.0,1528.0,1475.0,1021.47,244.0,294.23,1637232678.8263104,1637232679.9328568,6ee4df71-3e08-4194-aad3-dc30ef66d0a1
-0.1053089461785945,-0.1398653657941896,-0.1583146317234111,-1.4586117821715607,-0.3954568794744393,1.2418570892354592,-0.0577544926292578,-0.0785595659997747,-14.545803947991615,18.232057571841967,-34.83390764636861,6.180994300834868,0.056962740755143,0.7401587987595913,-1.0,12.021666666666668,0.03,179.55007312757093,13.738508209895109,51.32030010469241,1525.0,1780.0,1000.0,1528.0,1475.0,1021.47,244.0,294.23,1637232680.041375,1637232680.9894457,6ee4df71-3e08-4194-aad3-dc30ef66d0a1
-0.1921451342288881,-0.0752313019836232,0.0324647409379095,1.1711828481775657,0.0686099591123579,-1.3548876365855922,-0.5846748842736935,-0.6028502234480942,-15.2408212752992,21.774623462890645,-52.04887853953546,-5.55652058740169,0.1452452592242596,0.6029109056304851,-1.0,12.033,0.03,179.52121026595827,12.849146527019334,51.1231178557235,1525.0,1349.0,1000.0,1528.0,1475.0,1021.47,244.0,294.23,1637232681.663663,1637232682.8147876,90a43ac6-6829-4f0c-8fa8-7f83abfbb323
-0.203403706550108,-0.0896537788665768,0.0262601998648161,1.1753602984863136,0.0677744690474096,-1.3449850150833698,-0.584894029324324,-0.612013224467678,-15.255434430223817,21.56305215406478,-52.125262060650506,-5.545422387437619,0.0910213591823163,0.6110787499418172,-1.0,12.033666666666669,0.03,179.58089245892583,12.831515532041806,51.40441426377608,1525.0,1349.0,1000.0,1528.0,1475.0,1021.47,244.0,294.23,1637232682.9231615,1637232684.053097,90a43ac6-6829-4f0c-8fa8-7f83abfbb323
-0.2189082124242604,-0.1037201452998147,0.0086190322231414,1.1758670710704215,0.052269964770789,-1.3327813695292314,-0.6008505249840745,-0.6207379353027012,-15.392187523253114,21.75924855070251,-52.414193496642575,-5.51883501932947,0.0406152064312851,0.6766806905270384,-1.0,12.033,0.03,179.64510837968248,12.815678600086269,51.64808391860096,1525.0,1349.0,1000.0,1528.0,1475.0,1021.47,244.0,294.23,1637232684.160931,1637232685.1601543,90a43ac6-6829-4f0c-8fa8-7f83abfbb323
-0.2253045059611305,-0.0922972148206627,0.0449833955535683,1.7177714508866746,0.1353258950047697,-1.862400562405312,-0.7266945514886111,-0.7533891562245093,-15.97787190790613,23.88191494514713,-55.539820773213,-7.916274522332453,0.0509271043071445,0.6936064181293755,-1.0,12.023666666666664,0.03,179.72624192010335,12.642674177278078,52.070960282319085,1525.0,1262.0,1000.0,1528.0,1475.0,1021.47,244.0,294.23,1637232686.1840446,1637232687.3211472,f9aeee06-27b0-49ff-91ef-3e30fbee333f
-0.2102224862151963,-0.070960082683351,0.0726009255345925,1.6977797395381784,0.1566387931667154,-1.8647721782522948,-0.6982035910678539,-0.727282450304728,-15.791869929926984,23.672577704175303,-55.30451863787425,-7.876388873070396,0.1317610310061877,0.5893210604072742,-1.0,12.022333333333332,0.03,179.782055190361,12.630194283299604,52.355090839422274,1525.0,1262.0,1000.0,1528.0,1475.0,1021.47,244.0,294.23,1637232687.429991,1637232688.5501654,f9aeee06-27b0-49ff-91ef-3e30fbee333f
-0.2350290636729249,-0.0940503743994276,0.0404635312131875,1.7087454170447298,0.1333946802999009,-1.851265242976046,-0.7282011735386211,-0.7605661554996056,-16.281166739869523,23.69993261475128,-55.40207149510017,-7.872453606591947,0.0460991442199006,0.7043085809509136,-1.0,12.023555555555554,0.03,179.81810492880038,12.62492090294166,52.60681328727859,1525.0,1262.0,1000.0,1528.0,1475.0,1021.47,244.0,294.23,1637232688.658126,1637232689.7788663,f9aeee06-27b0-49ff-91ef-3e30fbee333f
-0.2409848759071933,-0.075534817727861,0.0788834736332762,1.979816822055904,0.1845069481311592,-2.128113722144685,-0.7822774018711113,-0.8064184194559617,-16.498138032888093,25.58114621995596,-56.77563210746992,-9.09198410395098,0.0983460733032347,0.6610703000189172,-1.0,12.00711111111111,0.05,179.8462225408836,12.511124449272415,52.941338497897945,1525.0,1176.0,1000.0,1528.0,1475.0,1021.47,244.0,294.23,1637232690.6887228,1637232692.027314,bb830275-d845-47dd-8388-97a3354e0c23
-0.2470595743341602,-0.0931409228820022,0.0724143151657109,1.9911904484095324,0.1801547298808637,-2.1184494112796948,-0.787221313881383,-0.815070265795235,-16.461870631198106,25.87591896596921,-56.41316711728196,-9.094215223189616,0.027037816893175,0.6812404228463902,-1.0,12.00711111111111,0.0422222222222222,179.8929440704461,12.550907360411848,53.19124297707018,1525.0,1176.0,1000.0,1528.0,1475.0,1021.47,244.0,294.23,1637232692.1359189,1637232693.2591438,bb830275-d845-47dd-8388-97a3354e0c23
-0.2398803852584919,-0.0832399540856842,0.0764378161776759,1.9793171718249405,0.1834682011702149,-2.119198889293548,-0.7824351863597266,-0.8060108096187923,-16.56307171616792,25.627539781124472,-56.65727937822548,-9.070652244444648,0.0687650174728206,0.6652092350967814,-1.0,12.006999999999998,0.05,179.90595330408527,12.588609530311626,53.38081298020912,1525.0,1176.0,1000.0,1528.0,1475.0,1021.47,244.0,294.23,1637232693.3675585,1637232694.497008,bb830275-d845-47dd-8388-97a3354e0c23
-0.2409870673395576,-0.0797785596917543,0.0844294841254668,1.984251769240632,0.1883726647063118,-2.127032239421464,-0.7756597696401801,-0.8007792702155733,-16.20021211843761,25.730306752117897,-56.5891128386439,-9.098113364098031,0.0784757790408957,0.6387587235512224,-1.0,11.940555555555555,0.2688888888888889,179.89620738304953,12.611403294528037,53.61119981437309,1525.0,1090.0,1000.0,1528.0,1475.0,1021.47,244.0,294.23,1637232696.1553671,1637232697.1164558,c2b002e8-4a7a-4977-bbf5-25330b987d06
-0.2457841506405253,-0.0840551733432908,0.0819997146223952,1.9811053946412256,0.1876757838119171,-2.120934519629717,-0.7764919730273958,-0.7949790489028937,-16.364564516819527,25.686377628353213,-56.74089959386355,-9.077832647581353,0.0651770123620959,0.6433487776288423,-1.0,11.948000000000002,0.25,179.88978214820634,12.62880718571566,53.66166261799898,1525.0,1090.0,1000.0,1528.0,1475.0,1021.47,244.0,294.23,1637232697.2335522,1637232698.3803804,c2b002e8-4a7a-4977-bbf5-25330b987d06
-0.2440824899855961,-0.0869144670201261,0.0764306939896749,1.9928395151920693,0.1869482226912488,-2.131072732763458,-0.7852062752664675,-0.8026009130052905,-16.698178303787856,25.573861641662138,-57.09598783534441,-9.12833158517578,0.0581616213294131,0.6634072048110199,-1.0,11.952666666666666,0.24,179.87511272325293,12.610877939144377,53.706229374660346,1525.0,1090.0,1000.0,1528.0,1475.0,1021.47,244.0,294.23,1637232698.489005,1637232699.609286,c2b002e8-4a7a-4977-bbf5-25330b987d06
-0.1654061622981054,-0.0980585355432448,-0.0236237631289636,0.5452151065351658,-0.0478962571289578,-0.733429973988051,-0.4639342085323704,-0.4938474999650837,-14.96847893311642,20.532012092861383,-48.565209851218086,-2.7583302257944875,0.10031925592683,0.6635056059757813,-1.0,12.044666666666666,0.03,179.8566135353409,13.05278766848588,53.7452035724293,1525.0,1435.0,1000.0,1528.0,1475.0,1021.47,244.0,294.23,1637232701.750173,1637232702.888118,7886e6b6-0f91-48b4-b2f6-e98758b0df07
-0.1677294359588449,-0.1009745119349834,-0.0216651130472168,0.5507077210053203,-0.0440052543432975,-0.7290018959597663,-0.4623614217932373,-0.4841832056343138,-15.171670060275035,20.5782430813312,-47.60933192009144,-2.760315646027536,0.0817974800329669,0.6541791880154619,-1.0,12.043222222222225,0.0311111111111111,179.83710955071098,13.074679847731844,53.70339067215029,1525.0,1435.0,1000.0,1528.0,1475.0,1021.47,244.0,294.23,1637232702.9967434,1637232704.1159935,7886e6b6-0f91-48b4-b2f6-e98758b0df07
-0.187996130187342,-0.1001906473722237,-0.0194778780570149,0.5458907471592274,-0.044650046271235,-0.7248044257092517,-0.4602753302294973,-0.4885450339365862,-15.078905146370252,20.752928710278017,-47.52020744531333,-2.738689632796328,0.0840256676732457,0.6492773187196017,-1.0,12.042666666666667,0.03,179.78268660340433,13.07694633217143,53.60941561717991,1525.0,1435.0,1000.0,1528.0,1475.0,1021.47,244.0,294.23,1637232704.223615,1637232705.5493524,7886e6b6-0f91-48b4-b2f6-e98758b0df07
-0.0865488742184122,-0.0556241507685376,0.218260661498062,0.5143085931590641,0.1677772557026881,-0.7486870195579459,-0.2140027368087169,-0.2414506432838139,-13.376117486447452,20.503698057391134,-46.98481405793099,-2.709987311580329,0.2533356036482593,-0.307595994129618,-1.0,12.045,0.03,179.7566666183062,13.092349641978409,53.51798746386002,1525.0,1435.0,1000.0,1439.0,1475.0,1021.47,244.0,294.23,1637232706.1555088,1637232707.186928,370617fa-e5af-452c-b68a-5db21e16ed64
-0.0953104578923799,-0.052234779196448,0.227394158508832,0.516035412961903,0.1758266175732815,-0.7575529111396128,-0.2060197494668247,-0.2245648919941591,-13.2480630999031,20.467822284427093,-47.48106849198814,-2.733603120329125,0.2699055589238452,-0.3425459431211322,-1.0,12.041666666666666,0.03,179.7707717178522,13.086555175105037,53.52451560688674,1525.0,1435.0,1000.0,1439.0,1475.0,1021.47,244.0,294.23,1637232707.2957394,1637232708.415631,370617fa-e5af-452c-b68a-5db21e16ed64
-0.1025011515354602,-0.0653012966130987,0.2166149673308532,0.5229247812816692,0.1680606690675053,-0.7527180238607234,-0.2155662518957493,-0.2323582347715141,-13.307829726673884,20.56563676818212,-47.79086187435095,-2.738246985652981,0.2225369655864949,-0.3057225517381323,-1.0,12.044222222222222,0.03,179.75688214872002,13.06784178487154,53.46083889161957,1525.0,1435.0,1000.0,1439.0,1475.0,1021.47,244.0,294.23,1637232708.5241575,1637232709.7321198,370617fa-e5af-452c-b68a-5db21e16ed64
0.0048826109930232,-0.0066619445268068,0.5260837552856503,0.4835345780967812,0.4440358980269535,-0.7937299213218041,0.101012729222205,0.076161693562746,-11.202725621225024,20.364343075944465,-48.20773131257203,-2.7264832637825727,0.4557305165583722,-1.5464750307084072,-1.0,12.038,0.03,179.71831434720667,13.064019838684974,53.374279335085575,1525.0,1435.0,1000.0,1351.0,1475.0,1021.47,244.0,294.23,1637232710.759442,1637232711.9041412,4e06eb6f-6b42-4bb8-94d5-329c5f48616c
-0.0003637188981187,-0.0012972763684776,0.5092928717228022,0.4741201124087217,0.4259695908921607,-0.7807127062156793,0.0828149338393069,0.0597915668068767,-11.515485942341718,20.514215491290823,-46.977971347633954,-2.67579907159939,0.4672628044555618,-1.4710496462684648,-1.0,12.039,0.03,179.7343652917562,13.083953252486216,53.34559804266834,1525.0,1435.0,1000.0,1351.0,1475.0,1021.47,244.0,294.23,1637232712.0188773,1637232713.1272323,4e06eb6f-6b42-4bb8-94d5-329c5f48616c
0.0021213847286172,-0.0015208041887459,0.5039019067509425,0.4767892975015377,0.4204339902383519,-0.782040725202844,0.0784627153933695,0.0497854088651103,-11.306645962731732,20.46577407434749,-46.886585566215096,-2.6852742011199315,0.4634651575306432,-1.4496736712193672,-1.0,12.038222222222224,0.03,179.7393391872918,13.079745286775058,53.33001724280669,1525.0,1435.0,1000.0,1351.0,1475.0,1021.47,244.0,294.23,1637232713.2351615,1637232714.2206855,4e06eb6f-6b42-4bb8-94d5-329c5f48616c
0.0885110585955849,0.0440794227162827,0.7936098427745165,0.4759044998884503,0.6805858520939694,-0.8386365758825297,0.3651815292934943,0.3410344982039512,-9.407400371306098,20.81648024049514,-46.49159553007608,-2.792687357609269,0.636031376590523,-2.599888993131591,-1.0,12.033444444444443,0.03,179.71362124833695,13.071027878391874,53.263079871120745,1525.0,1435.0,1000.0,1262.0,1475.0,1021.47,244.0,294.23,1637232716.176484,1637232717.2222016,42fbc971-e389-4e06-b304-fc93bfe0f146
0.0892506727761866,0.0446546781545353,0.794157705062784,0.468508358905402,0.6802297416050985,-0.8304734227850116,0.3660991987071777,0.3467596592828157,-9.563327533192714,20.898203130290806,-46.213877609289845,-2.7571249697690643,0.6377778822075683,-2.6012034517425264,-1.0,12.037333333333336,0.03,179.7074042583724,13.075213551124492,53.22309025189519,1525.0,1435.0,1000.0,1262.0,1475.0,1021.47,244.0,294.23,1637232717.3303,1637232718.45142,42fbc971-e389-4e06-b304-fc93bfe0f146
0.109658544780177,0.0614877486893609,0.8180308044919405,0.4668373789390316,0.6995692804537463,-0.8516072231399342,0.3872740766572398,0.3611958309991037,-9.19433589874904,20.72804758907905,-46.91833371809747,-2.800711933644729,0.7062603506508601,-2.6888783211553604,-1.0,12.034666666666668,0.03,179.7117027240901,13.070282818589911,53.227569338170895,1525.0,1435.0,1000.0,1262.0,1475.0,1021.47,244.0,294.23,1637232718.558947,1637232719.566274,42fbc971-e389-4e06-b304-fc93bfe0f146
0.1742926030431115,0.0887439001125435,1.0607885905770742,0.490135222958393,0.9198236191945602,-0.9189121483321072,0.6204716622903426,0.605104125032006,-7.671733665168539,21.35471685447102,-47.82259807362834,-2.9876450378303043,0.8182570717523822,-3.648767465897996,-1.0,12.028333333333332,0.03,179.69516607719956,13.05638812681586,53.17133069890988,1525.0,1435.0,1000.0,1173.0,1475.0,1021.47,244.0,294.23,1637232721.818679,1637232722.9563084,26d578e1-a337-4041-9e2f-d81082722793
0.1561452113715784,0.0692454794368685,1.022052533714786,0.4983400087361665,0.8906444731542262,-0.9015624338116066,0.5852134367154117,0.5547742077947595,-8.188352138850009,21.237435673651447,-47.27913163261931,-2.9700455882875887,0.7404980752726575,-3.5078567124809137,-1.0,12.027111111111113,0.03,179.69623765798937,13.066335538432076,53.17905754013592,1525.0,1435.0,1000.0,1173.0,1475.0,1021.47,244.0,294.23,1637232723.0645552,1637232724.1813662,26d578e1-a337-4041-9e2f-d81082722793
0.1734357463653491,0.0868121374769852,1.0385672952330012,0.4899379925834645,0.8990727867675232,-0.910674485270487,0.5995981090154641,0.5751283876392334,-7.711848628886746,21.327103187174103,-47.11224480268677,-2.9698854905377545,0.8036149714385816,-3.559744820444617,-1.0,12.029888888888888,0.03,179.69417949431949,13.06693706939773,53.21832315930947,1525.0,1435.0,1000.0,1173.0,1475.0,1021.47,244.0,294.23,1637232724.2907584,1637232725.2970805,26d578e1-a337-4041-9e2f-d81082722793
-0.2903631674840733,-0.1588214043111855,-0.3491488062512466,0.5904488087672712,-0.3409993524326449,-0.6880702409080538,-0.8034227065760629,-0.8353904900439657,-17.468819991439037,21.270482937641024,-47.21604347131995,-2.770794103439561,-0.1480325385635149,1.9827039190836817,-1.0,12.039888888888887,0.03,179.87331562459133,13.100086349033262,53.53935457231355,1525.0,1435.0,1000.0,1617.0,1475.0,1021.47,244.0,294.23,1637232727.348869,1637232728.3152745,17a636cb-1262-4d80-bcaa-9dce139c0360
-0.299485076787396,-0.1722851225052593,-0.3677487361447459,0.6082817263263142,-0.3535454023219332,-0.6969456143774965,-0.821926766111655,-0.8477037024143769,-17.45104848944341,21.155385659517577,-48.15968966725686,-2.832795568640822,-0.1936686397540383,2.0487476682496983,-1.0,12.042333333333334,0.03,179.84888479684008,13.097150126600065,53.448898582585535,1525.0,1435.0,1000.0,1617.0,1475.0,1021.47,244.0,294.23,1637232728.4236782,1637232729.5103245,17a636cb-1262-4d80-bcaa-9dce139c0360
-0.3064018399562516,-0.1748052895797165,-0.3634069262311892,0.6278951963286789,-0.34813526066505,-0.7218322714049913,-0.8246660790086086,-0.8550313647355178,-17.437594760380364,21.319846403287624,-49.47614900445499,-2.9318590485795166,-0.1936850760476042,2.037312885990454,-1.0,12.0408,0.03,179.8470470206074,13.081375007856511,53.40441652026988,1525.0,1435.0,1000.0,1617.0,1475.0,1021.47,244.0,294.23,1637232729.6184947,1637232730.738426,17a636cb-1262-4d80-bcaa-9dce139c0360
-0.4311282038464331,-0.2328721294079566,-0.7025699713368236,0.705287319176356,-0.6518291334743924,-0.7241864365977374,-1.1895716703504935,-1.2148171879607894,-19.836342299103315,22.05046991322444,-50.47406873742115,-3.125138046445555,-0.4166661113814121,3.4230869412980174,-1.0,12.033444444444443,0.03,179.88501953318908,13.066469106575845,53.36391698947728,1525.0,1435.0,1000.0,1706.0,1475.0,1021.47,244.0,294.23,1637232732.6736472,1637232733.8118925,f94cfd01-df5a-48b4-821f-bf09d2a16c5e
-0.4193299857512693,-0.2301119985674008,-0.6935762596348178,0.7091705670984959,-0.643474229798526,-0.7298173682619572,-1.1798180692879938,-1.2056361034561862,-19.59186458943613,21.9475328859845,-50.3097424699198,-3.14663645444294,-0.4094104185923158,3.3863738006350843,-1.0,12.032666666666666,0.03,179.86891091148655,13.062367388251776,53.31913295690932,1525.0,1435.0,1000.0,1706.0,1475.0,1021.47,244.0,294.23,1637232733.9199097,1637232735.03959,f94cfd01-df5a-48b4-821f-bf09d2a16c5e
-0.3971651144726179,-0.2119919975255789,-0.6635446262321081,0.6740591686335158,-0.6219026904574162,-0.7051339684120737,-1.1431830338597628,-1.1689413501437025,-19.42033587012604,21.860952637404075,-48.6173381546697,-3.010689300463992,-0.3514378309244986,3.268322814931878,-1.0,12.032222222222224,0.03,179.8576532419146,13.07171507131337,53.29255517302899,1525.0,1435.0,1000.0,1706.0,1475.0,1021.47,244.0,294.23,1637232735.1481934,1637232736.2679985,f94cfd01-df5a-48b4-821f-bf09d2a16c5e
-0.4977428020358482,-0.261682569879413,-0.9593307158261456,0.7692436673467876,-0.8884783781255795,-0.7186820617760716,-1.4736780124403108,-1.5003315461684017,-21.75907792872344,23.219773417490995,-47.420440376050486,-3.2625534401396465,-0.5623101875726787,4.499468884941789,-1.0,12.022666666666666,0.03,179.89308522768894,13.075269900185145,53.21001954655349,1525.0,1435.0,1000.0,1795.0,1475.0,1021.47,244.0,294.23,1637232738.2031806,1637232739.341822,dc7209c5-b52f-4d48-90e6-e483b89ee346
-0.5034679650482491,-0.2583132160693408,-0.9575364657552152,0.7704626609287093,-0.8856157959579719,-0.7265986756171521,-1.4705278008442724,-1.4923327469000391,-21.59735995757164,22.938656909807406,-47.89511757629938,-3.2848613545518326,-0.5466517160960452,4.488616312870337,-1.0,12.023,0.03,179.8793155663222,13.064794382136856,53.12888856745358,1525.0,1435.0,1000.0,1795.0,1475.0,1021.47,244.0,294.23,1637232739.450227,1637232740.565771,dc7209c5-b52f-4d48-90e6-e483b89ee346
-0.524574367445429,-0.2779951733461684,-0.9850254752860436,0.790733565727647,-0.9063387002079344,-0.7301597822389385,-1.5005232974459293,-1.53008050561154,-21.873498282407738,23.110481218522512,-48.710721061923664,-3.3390885694047,-0.6155234349719517,4.593401650902858,-1.0,12.0216,0.03,179.8906850992146,13.051437093441246,53.1002921021913,1525.0,1435.0,1000.0,1795.0,1475.0,1021.47,244.0,294.23,1637232740.6741016,1637232741.798804,dc7209c5-b52f-4d48-90e6-e483b89ee346
-0.6049934613670708,-0.3273192274196691,-1.2007875176104597,0.902991097942375,-1.0959528819313877,-0.7784248320201448,-1.7503773364358752,-1.7730194242651305,-23.39456731392527,24.29199102144003,-49.54554716620234,-3.704581951653019,-0.8098332614430174,5.493799336210124,-1.0,11.98977777777778,0.09,179.92557567866078,13.045463713557119,53.13412779686568,1525.0,1435.0,1000.0,1883.0,1475.0,1021.4699999999999,244.0,294.22999999999996,1637232742.709067,1637232743.7339928,5bcc7471-46b2-42ad-87d4-36b943923c31
-0.5987609774004045,-0.31211933221208676,-1.1881121640276964,0.9018340127423663,-1.0869986132395586,-0.7923887538429172,-1.741738630481924,-1.7683779279100071,-23.274705970838465,24.262228173214652,-49.48316224802197,-3.732846521626567,-0.7532801710088306,5.454038788774723,-1.0,11.991600000000002,0.08399999999999999,179.92133762217185,13.02780293136571,53.05707886135046,1525.0,1435.0,1000.0,1883.0,1475.0,1021.4699999999999,244.0,294.22999999999996,1637232743.841631,1637232745.082658,5bcc7471-46b2-42ad-87d4-36b943923c31
-0.5846787192083039,-0.3093449568559938,-1.1845357157625114,0.8969295494870696,-1.0838166265314464,-0.788746563477877,-1.7368604572897834,-1.7618167189151683,-23.292711166943956,24.184094706420773,-49.18756169301727,-3.7139005819239013,-0.744537793468275,5.438613327348439,-1.0,11.992,0.08299999999999999,179.92043057305003,13.023232510282593,52.999959013850024,1525.0,1435.0,1000.0,1883.0,1475.0,1021.4699999999999,244.0,294.22999999999996,1637232745.1947677,1637232746.3064497,5bcc7471-46b2-42ad-87d4-36b943923c31
