raw_voltage_G-,raw_voltage_G0,raw_voltage_G1,raw_voltage_G2,raw_voltage_G3,raw_voltage_G4,raw_voltage_G5,raw_voltage_G6,load_x,load_y,load_z,load_l,load_m,load_n,rpm,voltage,current,roll,pitch,yaw,aileron1_pwm,elevator_pwm,throttle_pwm,rudder_pwm,aileron2_pwm,pbaro,pdiff,Tt,sample_start_time,sample_end_time,uid
0.0154673116105133,0.1496524949219772,-0.0108437779010117,0.1084121578883681,-0.0891607027592577,0.1744158720095634,-0.2277014040071374,-0.2524784816460466,-13.213423676811097,15.613908499258002,58.76011982438786,0.2530664258449593,0.1202492558295716,0.5467054463998039,-1.0,12.049444444444443,0.04,179.30863352951005,-6.2505487709216805,98.3587007361004,1525.0,1435.0,1000.0,1528.0,1475.0,1021.47,244.0,293.9,1637231751.771971,1637231752.8028653,186963b5-8f56-4c09-adcf-b1910975e033
0.0006887246414845,0.1236427308121163,-0.0203765828982125,0.1231770477889044,-0.0915302074961584,0.1865921122015009,-0.2331526349381708,-0.2634357297982238,-13.385907285462013,15.695849148822196,58.74321918516978,0.2471010956625669,0.0216465998142195,0.5674926384327902,-1.0,12.050000000000002,0.04,179.35670136524897,-6.267189862788247,98.60258933643364,1525.0,1435.0,1000.0,1528.0,1475.0,1021.47,244.0,293.9,1637231752.9341156,1637231753.9337552,186963b5-8f56-4c09-adcf-b1910975e033
0.0060714722434692,0.1292035334656545,-0.0178701126298822,0.121519764270474,-0.0901057653531034,0.1835103866030461,-0.2307968266219856,-0.2451645184573226,-13.29407231696008,15.616356528827438,58.8818481566066,0.2435806372920991,0.040985936077535,0.5597324308430385,-1.0,12.050111111111113,0.04,179.39608423600325,-6.268675571228333,98.77974243511646,1525.0,1435.0,1000.0,1528.0,1475.0,1021.47,244.0,293.9,1637231754.0640018,1637231755.0577152,186963b5-8f56-4c09-adcf-b1910975e033
0.1443113850885565,0.3691409302343995,0.0110624982967432,0.0009380020292808,-0.1219365693361653,0.0531514752703552,-0.2533183544964463,-0.2756185462247751,-12.559233460426857,15.145995275296254,58.01338302685495,0.2212037007249527,0.9600656225225632,0.6231718796319109,-1.0,12.04811111111111,0.0388888888888888,179.41967267375685,-6.28002516376291,99.09577301128324,1576.0,1435.0,1000.0,1528.0,1515.0,1021.47,244.0,293.9,1637231756.6333113,1637231757.620084,320f59f1-966c-41b8-80fc-975f1631df48
0.1348191223622562,0.3643323428107576,0.0017981459361677,0.0143578903273701,-0.126223592439727,0.0482568730826797,-0.2655176067951752,-0.2912397474765881,-12.92227868660791,15.119301261129436,58.32395132891825,0.1791613938835378,0.939607443185186,0.6587393540101305,-1.0,12.039222222222223,0.03,179.45731156954304,-6.298104627064063,99.11769640069916,1576.0,1435.0,1000.0,1528.0,1515.0,1021.47,244.0,293.9,1637231757.7281437,1637231758.856046,320f59f1-966c-41b8-80fc-975f1631df48
0.1374740632248201,0.3711789779864333,0.0050403953176644,0.0087088816230331,-0.1259600706657669,0.0443155513635104,-0.2631272831484105,-0.2888987313716234,-12.774697791135754,15.129635541134384,57.9988163349817,0.1832999069784055,0.9680248402303148,0.6509768772372863,-1.0,12.041999999999998,0.03,179.4871989595312,-6.309407451775574,99.1308999152747,1576.0,1435.0,1000.0,1528.0,1515.0,1021.47,244.0,293.9,1637231758.9912877,1637231759.9617062,320f59f1-966c-41b8-80fc-975f1631df48
0.373933629660112,0.7770096152998351,0.0495443496087344,-0.1844613641708247,-0.1816398728284014,-0.1735725991384845,-0.3068675229660118,-0.3345893622469549,-11.715760200023157,14.334158046334316,58.27221082717983,0.1269401936922319,2.506809699157987,0.7772922060508841,-1.0,12.039666666666667,0.03,179.43938763534115,-6.3505761324066095,99.13437875829196,1627.0,1435.0,1000.0,1528.0,1556.0,1021.47,244.0,293.9,1637231761.6947925,1637231762.7409394,4fb799c9-d252-4370-ab37-74383380a7ac
0.3629215973695157,0.7719281925406163,0.0473255071224047,-0.1847626884897608,-0.1833519427978999,-0.1711893977393951,-0.3066072883120156,-0.3382874336272166,-11.566921155828195,14.295073723563569,57.85615155367605,0.1326143005746501,2.490281124856642,0.7811939331099161,-1.0,12.030333333333331,0.03,179.45255624006091,-6.376399512406743,99.09945600106568,1627.0,1435.0,1000.0,1528.0,1556.0,1021.47,244.0,293.9,1637231762.8491597,1637231763.9760206,4fb799c9-d252-4370-ab37-74383380a7ac
0.3661824737778396,0.7675200925398048,0.0477342124344308,-0.182841335109828,-0.1834724725239833,-0.1692850280932299,-0.3083456557775454,-0.3268064284807987,-11.703974541054947,14.552553056709783,57.75695658044664,0.1342019819224471,2.475390979157796,0.7824180947602951,-1.0,12.032,0.03,179.45675604749056,-6.395582999896239,99.0774491315599,1627.0,1435.0,1000.0,1528.0,1556.0,1021.47,244.0,293.9,1637231764.1117222,1637231765.2009504,4fb799c9-d252-4370-ab37-74383380a7ac
0.5750949680632754,1.1246145504907694,0.0936061783377464,-0.3368492944659911,-0.2272905072027194,-0.3726247117747663,-0.3479435087751707,-0.3671871771826137,-10.881501404988072,14.292673922848282,58.452378467286856,0.0257610002493335,3.8245928456096734,0.8794709843302714,-1.0,12.026444444444444,0.03,179.3896471621655,-6.4804280366529605,98.98365166150792,1678.0,1435.0,1000.0,1528.0,1596.0,1021.47,244.0,293.9,1637231767.336198,1637231768.4808376,996085f8-c819-49dc-96f6-50f72ad6cede
0.5772847736391676,1.1229950694885662,0.0908487872091248,-0.3376541044108996,-0.231767638739404,-0.3705389994278856,-0.3505792749625347,-0.3747071370421022,-10.73712956872028,14.43116469236239,58.394780843054,0.0331075925231143,3.817934099288288,0.892840269536176,-1.0,12.021888888888888,0.03,179.37682158472398,-6.507772509267631,98.91471076766544,1678.0,1435.0,1000.0,1528.0,1596.0,1021.47,244.0,293.9,1637231768.6175344,1637231769.5873833,996085f8-c819-49dc-96f6-50f72ad6cede
0.5732322362716689,1.1365168594580843,0.0968111730116794,-0.3396707860348325,-0.2272768106257824,-0.3815959593354701,-0.3482722262288307,-0.3742546026809696,-10.826453706691751,14.316897730468256,58.47604427133539,0.0123176547900589,3.86918535367528,0.8770289664947329,-1.0,12.023,0.03,179.370830749912,-6.516999810245102,98.85374677586364,1678.0,1435.0,1000.0,1528.0,1596.0,1021.47,244.0,293.9,1637231769.6964085,1637231770.760816,996085f8-c819-49dc-96f6-50f72ad6cede
0.7872546401677724,1.5154732510983486,0.124286469056544,-0.521259799489142,-0.304210390190373,-0.5802098046853764,-0.4173165912734518,-0.4351906046049215,-10.09641324243028,14.972539812051783,59.0832641170367,-0.018195155254374,5.304063805571982,1.0880273448091056,-1.0,12.014111111111111,0.03,179.2704467007704,-6.518573409938883,98.70256433313494,1729.0,1435.0,1000.0,1528.0,1636.0,1021.47,244.0,293.9,1637231771.7308586,1637231772.7873504,e3e831a9-1f05-4315-a084-99717ff3ab51
0.816661148755109,1.5514815074192014,0.1381747791333933,-0.5372573842305816,-0.2980058482628477,-0.5929476081759857,-0.405907355611085,-0.426794612077212,-9.778219161052188,14.635485678665017,60.29293882339869,-0.0119218962441318,5.428987617400096,1.0506846463762674,-1.0,12.008599999999998,0.03,179.24947103804732,-6.532329273374866,98.58759661585952,1729.0,1435.0,1000.0,1528.0,1636.0,1021.47,244.0,293.9,1637231772.8977644,1637231774.003802,e3e831a9-1f05-4315-a084-99717ff3ab51
0.8188000031467344,1.5343783388745462,0.1366193979572515,-0.5258777323642779,-0.2974979798705492,-0.5887548163838027,-0.4049885903346682,-0.4320486130555407,-9.585244990189247,14.810464643790391,59.99092330451309,-0.0270383354716054,5.36465455484131,1.0484724043248117,-1.0,12.008777777777777,0.03,179.22204190903244,-6.538142471093399,98.49291547111096,1729.0,1435.0,1000.0,1528.0,1636.0,1021.47,244.0,293.9,1637231774.118839,1637231775.2406356,e3e831a9-1f05-4315-a084-99717ff3ab51
-0.2024197456352391,-0.2387758946794032,-0.0392838607484225,0.3501147681255803,-0.0225455699452392,0.3178873158617267,-0.1881928548946964,-0.2051152289541015,-13.582562113880572,16.800197084312536,56.7231107496861,0.0361814437693464,-1.347468332146307,0.3899897869947255,-1.0,12.016,0.03,179.70818593557746,-6.555229564826394,98.31043937833498,1474.0,1435.0,1000.0,1528.0,1435.0,1021.47,244.0,293.9,1637231776.2478838,1637231777.2877471,260ae414-576c-4932-b728-77cd9c1d5463
-0.2065676118727177,-0.2471779125901444,-0.0455234652256,0.3535120623013262,-0.02619762046914,0.3178599227736702,-0.1939256870569642,-0.2150731757205441,-13.679258899327598,16.801346639980576,55.94849652694548,0.027981201736404,-1.3722450430914097,0.4094841345680772,-1.0,12.037,0.03,179.69699808571698,-6.56856143004009,98.33653070096445,1474.0,1435.0,1000.0,1528.0,1435.0,1021.47,244.0,293.9,1637231777.3954422,1637231778.4059613,260ae414-576c-4932-b728-77cd9c1d5463
-0.1984225415627924,-0.2250881003222834,-0.04725197099865,0.3387279980142431,-0.0334984342783825,0.3081572813068933,-0.1998557496311949,-0.2293088324251071,-13.647491060413644,16.737259869848334,55.68204970204901,0.0389899087249146,-1.2855485802286457,0.4324433562812317,-1.0,12.038000000000002,0.03,179.67225762272335,-6.555492242518223,98.35154345676013,1474.0,1435.0,1000.0,1528.0,1435.0,1021.47,244.0,293.9,1637231778.5147507,1637231779.6287794,260ae414-576c-4932-b728-77cd9c1d5463
-0.3383148264701898,-0.4864294417422729,-0.0508103370139273,0.4664264821945081,0.0229182395676645,0.4354859590148481,-0.1497405852329544,-0.1763119114356526,-14.032282216601288,17.53783205893703,54.269466791525936,0.0417689936740936,-2.2664287817581905,0.2560062915598268,-1.0,12.034333333333334,0.03,179.7354687467621,-6.56617925927144,98.34327437440496,1423.0,1435.0,1000.0,1528.0,1394.0,1021.47,244.0,293.9,1637231781.6735284,1637231782.90284,3679a869-ea23-4c78-b188-cb0614255423
-0.3428346915083731,-0.488689374485814,-0.0613566875132687,0.4658649233491802,0.0136456693119635,0.4400469126400728,-0.1619990061137766,-0.1899673814516406,-14.338049349557494,17.649271212564738,54.44193229789797,0.0533719870115831,-2.274866868941633,0.3001703879872809,-1.0,12.023222222222223,0.03,179.7202996555254,-6.554701600689926,98.2188768979614,1423.0,1435.0,1000.0,1528.0,1394.0,1021.47,244.0,293.9,1637231783.0117466,1637231784.1402233,3679a869-ea23-4c78-b188-cb0614255423
-0.3441358648711476,-0.4894974716533481,-0.0615210462370254,0.4637830466316794,0.0156453668721616,0.4418822513391225,-0.1603280258356227,-0.1921040447767673,-14.447855170962512,17.459423467668913,54.32649431081453,0.0608520593968538,-2.27585473763719,0.2950139249300315,-1.0,12.023888888888887,0.03,179.70417281998513,-6.551355709202135,98.11612277317784,1423.0,1435.0,1000.0,1528.0,1394.0,1021.47,244.0,293.9,1637231784.2774284,1637231785.4731138,3679a869-ea23-4c78-b188-cb0614255423
-0.5525301471572446,-0.8685986344765607,-0.0872503066357551,0.6347445706849568,0.0735845491910972,0.6423445163752542,-0.1079332069797358,-0.1328499880643465,-15.07593234032155,18.904055884919163,52.48822847145762,0.1333565318219293,-3.699632330998041,0.1285743015268342,-1.0,12.021,0.03,179.82530243036575,-6.542213026679381,97.87668366163388,1372.0,1435.0,1000.0,1528.0,1354.0,1021.47,244.0,293.9,1637231786.793378,1637231787.8184378,7023088f-7e2a-4db7-8be9-614f36d92dc2
-0.5588157736417562,-0.8817807572820393,-0.0846682313595766,0.654863717570024,0.0815669034279743,0.6374416967348353,-0.1057061464836606,-0.1245663090253746,-15.176357318066424,18.90699047546883,52.60775353763445,0.0770719007769603,-3.7517352285612433,0.1096900479329155,-1.0,12.013222222222222,0.03,179.83029302191932,-6.564236876794349,97.66170421641762,1372.0,1435.0,1000.0,1528.0,1354.0,1021.47,244.0,293.9,1637231787.9264786,1637231789.042783,7023088f-7e2a-4db7-8be9-614f36d92dc2
-0.5463929913565339,-0.871946622985495,-0.0830931270310263,0.649371398109349,0.0807451099144547,0.6334833916921547,-0.1063361881765755,-0.1280863247667023,-15.199589602726652,18.901571543409776,52.69964689294528,0.0806118486182724,-3.714725278538772,0.1108167236557098,-1.0,12.015555555555554,0.03,179.83295679569562,-6.548899070398785,97.50119780656196,1372.0,1435.0,1000.0,1528.0,1354.0,1021.47,244.0,293.9,1637231789.1523504,1637231790.2730389,7023088f-7e2a-4db7-8be9-614f36d92dc2
-0.6651558897235003,-1.077285554744002,-0.1009671369274246,0.7232506279663609,0.1050291080015483,0.7405493798010294,-0.084681927885798,-0.1026792069750262,-15.781769342178308,19.9032987863124,48.99725811476327,0.1594173054646484,-4.458148657031469,0.0410358260419234,-1.0,12.005,0.0477777777777777,179.8909724225057,-6.5346536673836,97.08568476622403,1321.0,1435.0,1000.0,1528.0,1314.0,1021.47,244.0,293.9,1637231792.2103555,1637231793.2551925,280c0fc8-2ecb-4492-9300-8eb57e5eb184
-0.6780443562300323,-1.099104188076838,-0.1018163235725221,0.7525338674216341,0.1097681172238097,0.7330162732974195,-0.0876677777727433,-0.1158552972960195,-15.820082038839711,20.162352453782947,48.7030658304716,0.0780424281851726,-4.540758045084516,0.0370585286630871,-1.0,11.982666666666669,0.1133333333333333,179.91113514093558,-6.539253704925866,96.68391861995563,1321.0,1435.0,1000.0,1528.0,1314.0,1021.47,244.0,293.9,1637231793.3632052,1637231794.4843895,280c0fc8-2ecb-4492-9300-8eb57e5eb184
-0.6698812042308934,-1.078134741903549,-0.0965157550771397,0.7366184678695746,0.1099735656119551,0.728907306115579,-0.0844490863370491,-0.1019669858961638,-15.794027593999326,20.04244779240173,48.99030586145037,0.1042382456857886,-4.462546560110357,0.0278410271905928,-1.0,11.983333333333334,0.11,179.9065164152368,-6.550453697344871,96.35523397998656,1321.0,1435.0,1000.0,1528.0,1314.0,1021.47,244.0,293.9,1637231794.592336,1637231795.7134545,280c0fc8-2ecb-4492-9300-8eb57e5eb184
-0.0403461658925777,0.0540231242785176,-0.0187877821138248,0.199672325126129,-0.0677803738338473,0.1774702045246209,-0.225838671924153,-0.2499583144616485,-13.373940040411036,15.714279463148811,57.79731464175152,0.0541048767158468,-0.2404875980465212,0.513478699163621,-1.0,11.993000000000002,0.0933333333333333,179.61950731285344,-6.533148749036474,95.84868286602136,1525.0,1435.0,1000.0,1528.0,1475.0,1021.47,244.0,293.9,1637231797.648465,1637231798.6784642,b7c24b16-b084-4d95-9e06-e11f7c2fb94f
-0.0428663327716216,0.0509003089082243,-0.0245266402461215,0.2037265063192402,-0.0709168858272004,0.1796068676019221,-0.2304270194491945,-0.2600937690815805,-13.448098177144518,15.609820297074036,58.15846742404389,0.0488030157218887,-0.2557408103204892,0.5322643384852449,-1.0,12.048444444444446,0.04,179.5212633896518,-6.522040916739394,96.28046845260188,1525.0,1435.0,1000.0,1528.0,1475.0,1021.47,244.0,293.9,1637231798.8001745,1637231799.9048092,b7c24b16-b084-4d95-9e06-e11f7c2fb94f
-0.0476327353394533,0.0489964872547193,-0.0274440072862329,0.2156151186309758,-0.0720947899009073,0.1759772796923812,-0.2358919469304347,-0.2542727309927438,-13.550602306467928,15.69602033896345,58.90037521018062,0.0143218819240426,-0.270378536253127,0.5464394827976672,-1.0,12.047999999999998,0.04,179.46272715064498,-6.5222341067427925,96.627800267915,1525.0,1435.0,1000.0,1528.0,1475.0,1021.47,244.0,293.9,1637231800.0367858,1637231800.9966128,b7c24b16-b084-4d95-9e06-e11f7c2fb94f
-0.0244855505810237,0.034628797260402,-0.0643014477489347,-0.361941394116651,-0.1633275724160011,0.7445213814068378,-0.1069114436523833,-0.1321678995069773,-13.195695987556393,14.152962645948644,62.48643254609891,2.583428301071017,-0.2898143503082575,0.5364385751341499,-1.0,12.048444444444444,0.0377777777777777,179.40485875235697,-6.299318124006604,97.27327970632798,1525.0,1521.0,1000.0,1528.0,1475.0,1021.47,244.0,293.9,1637231802.6333554,1637231803.7016509,ff537b19-7176-479b-870c-a6c2b4af2c27
-0.0070361345160523,0.0573650845630681,-0.0586995550339987,-0.363311050278756,-0.1648068008507403,0.7199497576598547,-0.1119106877995301,-0.1383587444012178,-13.142607018636468,14.389820992011538,61.98051517324755,2.5330973673197774,-0.1999034860571848,0.5399006471112605,-1.0,12.04411111111111,0.03,179.38708811795644,-6.303770221548721,97.3887865532019,1525.0,1521.0,1000.0,1528.0,1475.0,1021.47,244.0,293.9,1637231803.8101776,1637231804.9355066,ff537b19-7176-479b-870c-a6c2b4af2c27
-0.0016122972057178,0.0674183585025804,-0.0534400763993705,-0.3760077624727862,-0.1646150490901754,0.7184705294869183,-0.1064320641463336,-0.1232103495889838,-12.881429921015174,14.395497053810208,61.548631526219616,2.5587761554730784,-0.1583216136759555,0.5253461385032311,-1.0,12.044222222222222,0.03,179.37019174776964,-6.303329674347255,97.48816504671566,1525.0,1521.0,1000.0,1528.0,1475.0,1021.47,244.0,293.9,1637231805.0700886,1637231806.0463543,ff537b19-7176-479b-870c-a6c2b4af2c27
0.0032521726297831,0.0439999826837592,-0.0981242790261212,-0.9162495356406783,-0.2622200229441646,1.2617401092476237,-0.004742234870603,-0.0353655493083019,-13.269353345234183,13.850798580068885,65.02253634625733,4.992751162802842,-0.2105249177058879,0.5716938691734453,-1.0,12.044,0.03,179.375397869737,-6.125220586339994,97.58410112488777,1525.0,1607.0,1000.0,1528.0,1475.0,1021.47,244.0,293.9,1637231806.6381617,1637231807.6804545,e9dc7aa1-1401-4374-b277-dff95025e512
0.0059345067080152,0.0411467155925652,-0.0956128779120934,-0.9068482125244496,-0.25773631696882,1.2453436850592157,-0.0061096992892908,-0.0325648768701423,-13.372531991643411,13.85371209515942,63.530721828745264,4.9345537504409895,-0.2082724617951557,0.5616703234952355,-1.0,12.033,0.03,179.4117663503376,-6.112287243691621,97.5170643360039,1525.0,1607.0,1000.0,1528.0,1475.0,1021.47,244.0,293.9,1637231807.7881982,1637231808.9173632,e9dc7aa1-1401-4374-b277-dff95025e512
0.0017532212400996,0.0354533300907602,-0.0974405467885639,-0.8895576675339965,-0.2564345958718418,1.2331153976582947,-0.0080688550848722,-0.0308029515265139,-13.146981526177631,13.729337705975608,63.24864045409044,4.867224995008993,-0.2309692395607797,0.5644516989677423,-1.0,12.032000000000002,0.03,179.38685892716433,-6.103512964497224,97.49317764665656,1525.0,1607.0,1000.0,1528.0,1475.0,1021.47,244.0,293.9,1637231809.0281725,1637231810.0848827,e9dc7aa1-1401-4374-b277-dff95025e512
0.0263149861380824,0.0411209660587504,-0.1136501508559548,-1.4000452351245685,-0.33762999840455,1.7221817436312126,0.0959756829443325,0.0757869555929288,-13.470389043396484,14.205122702558349,67.06934470407042,7.120550411345914,-0.1794535526916838,0.550178104778498,-1.0,12.031555555555554,0.03,179.4291878861806,-5.933962720134288,97.43941419205971,1525.0,1693.0,1000.0,1528.0,1475.0,1021.47,244.0,293.9,1637231812.1779892,1637231813.1162312,228ece2c-dac6-4eea-8cb5-3f8b6050bfcd
0.0276435523093418,0.0376420401683916,-0.1247854537134117,-1.3950733797265638,-0.346683425190038,1.7219899918795754,0.082005193331321,0.058844312663319,-13.769909476128054,14.323964942140194,67.11182916329894,7.108993589026234,-0.1920742918022775,0.5970031703439895,-1.0,12.020555555555555,0.03,179.43645065399804,-5.928947796031815,97.26441867424477,1525.0,1693.0,1000.0,1528.0,1475.0,1021.47,244.0,293.9,1637231813.2310874,1637231814.4501324,228ece2c-dac6-4eea-8cb5-3f8b6050bfcd
0.0300755132559566,0.0508636021159796,-0.1150598007556365,-1.3968742046257971,-0.3419274313410693,1.709479552686371,0.0885609140793066,0.0709022149244286,-13.468483090948569,14.366968832818936,66.99989102107762,7.085846418857461,-0.1427877088362767,0.5695535365415327,-1.0,12.020888888888887,0.03,179.4405032329056,-5.927165069226572,97.08592002829543,1525.0,1693.0,1000.0,1528.0,1475.0,1021.47,244.0,293.9,1637231814.562842,1637231815.682201,228ece2c-dac6-4eea-8cb5-3f8b6050bfcd
0.0378595415195562,0.0316796542444447,-0.1270382638428705,-1.7665502573252718,-0.4020038356432556,2.088451394581403,0.1679395915211324,0.1442456414272856,-13.602134710394177,15.267756969260276,70.05677091639427,8.777140345897331,-0.1961153324700049,0.5529750913169719,-1.0,12.015444444444444,0.0344444444444444,179.48079527772936,-5.796755366198003,96.6964800967492,1525.0,1780.0,1000.0,1528.0,1475.0,1021.47,244.0,293.9,1637231817.7083514,1637231818.7610748,9b10dde7-b9ec-4b53-a8f9-a5321db89061
0.0331260108410756,0.0306277585347706,-0.1357689987178729,-1.7687197943175328,-0.4101428802075546,2.095893559323992,0.1585251253060812,0.1353702716271481,-13.838242773441513,15.366271483856517,70.61409004873043,8.798946149101683,-0.2036136663631202,0.5898001099315556,-1.0,12.007333333333332,0.0433333333333333,179.49713005458443,-5.795949973058372,96.42967393502084,1525.0,1780.0,1000.0,1528.0,1475.0,1021.47,244.0,293.9,1637231818.874212,1637231819.989859,9b10dde7-b9ec-4b53-a8f9-a5321db89061
0.0520075387203324,0.0497196655595916,-0.1288001892412897,-1.775951588608116,-0.4080916832067001,2.0834680359154003,0.162680113207724,0.1386179995647361,-13.603037658472116,15.253037157944158,70.60327933529979,8.787050524172669,-0.1322460624938811,0.5740336577607442,-1.0,12.00288888888889,0.05,179.51784222378754,-5.8001037715748645,96.20261264407272,1525.0,1780.0,1000.0,1528.0,1475.0,1021.47,244.0,293.9,1637231820.1244051,1637231821.2186935,9b10dde7-b9ec-4b53-a8f9-a5321db89061
-0.0586721619486003,0.0681442761272271,0.0216444596029605,0.7561497585494784,0.0250685992772624,-0.3736519539317828,-0.3396570894093412,-0.3596677653028275,-13.187073637199887,16.861370018499333,53.96839010994366,-2.4305157837684392,-0.2208432664104726,0.4948020593652525,-1.0,12.021333333333333,0.04,179.48494955056458,-6.569939325841402,95.83035898629804,1525.0,1349.0,1000.0,1528.0,1475.0,1021.47,244.0,293.9,1637231823.350661,1637231824.4881985,f9fd7f93-43e1-49ce-af49-8769fade3720
-0.0474683766161237,0.0829365593273987,0.0204391624223771,0.7384811996529583,0.0193708308340893,-0.3737752229508921,-0.3443550098249544,-0.3702004208730398,-13.40320219115818,16.93624015162863,53.67608551379582,-2.3906559269109766,-0.1591425796304707,0.5119352227417866,-1.0,12.0484,0.0399999999999999,179.39573544100966,-6.591106551654777,96.34090219405114,1525.0,1349.0,1000.0,1528.0,1475.0,1021.47,244.0,293.9,1637231824.5959394,1637231825.6056182,f9fd7f93-43e1-49ce-af49-8769fade3720
-0.0534263797939798,0.0810738273577041,0.0197406379418766,0.7352488121380117,0.0188640581668032,-0.3669954252243492,-0.3415472148387166,-0.3625029533646051,-13.271171566441382,16.838120747517127,53.96571461521379,-2.3687019397046902,-0.1692783834508154,0.509867295287303,-1.0,12.049,0.04,179.36443465720924,-6.598362636321848,96.72597588922496,1525.0,1349.0,1000.0,1528.0,1475.0,1021.47,244.0,293.9,1637231825.7131538,1637231826.742492,f9fd7f93-43e1-49ce-af49-8769fade3720
-0.0803949047906999,0.0769511632562327,0.0671855170379502,1.321283432734919,0.1167807550989256,-0.9181588367742356,-0.4633781280617557,-0.4854295934550897,-13.732505150685853,19.37131070806303,51.44106519213987,-4.910669649531193,-0.2282024622205644,0.4850063613059356,-1.0,12.047666666666666,0.0377777777777777,179.30780024643127,-6.782137698268719,97.4973099111044,1525.0,1262.0,1000.0,1528.0,1475.0,1021.47,244.0,293.9,1637231828.675844,1637231829.812334,c1334c19-152c-43bb-bc83-7fc76c7c94c0
-0.0833807547396829,0.0644599018965161,0.0575705329294431,1.327131863398746,0.1113706145482616,-0.9099956833697694,-0.4715412789407482,-0.4950993660058397,-13.969972960710097,19.41575542686471,51.55941616522574,-4.905803382597008,-0.2757493418115381,0.5156264889488646,-1.0,12.044111111111112,0.03,179.30189440952896,-6.794688218300487,97.70517078138568,1525.0,1262.0,1000.0,1528.0,1475.0,1021.47,244.0,293.9,1637231829.9205313,1637231831.0367024,c1334c19-152c-43bb-bc83-7fc76c7c94c0
-0.0813673605276556,0.0691030352310994,0.0556804078414808,1.3129559249824128,0.1062207086130362,-0.9005587493110205,-0.4714864926993278,-0.5036871102933874,-13.892849392161104,19.45039339107363,51.68402463513686,-4.852425698794202,-0.2583589071636744,0.5257922828495557,-1.0,12.045,0.03,179.3192977315342,-6.785853985223375,97.91763975262698,1525.0,1262.0,1000.0,1528.0,1475.0,1021.47,244.0,293.9,1637231831.1444466,1637231832.3630087,c1334c19-152c-43bb-bc83-7fc76c7c94c0
-0.0919137111614404,0.0907846873032907,0.101522789080705,1.7706127853097502,0.1830036139824896,-1.3817329177242368,-0.5796619421274317,-0.5994671722674193,-14.63531780522299,22.00087851530513,45.947556075524425,-6.94814810035755,-0.1743402826318058,0.5097212535458423,-1.0,12.039666666666667,0.03,179.30609421695863,-6.954483244981351,98.34038520438604,1525.0,1176.0,1000.0,1528.0,1475.0,1021.47,244.0,293.9,1637231834.2051182,1637231835.2424686,b5e51c74-e63d-41c7-808a-9365c1793619
-0.0962281273287641,0.0881823412017305,0.0996874502802416,1.759354211585812,0.179387722670275,-1.369885382759275,-0.5772239539802411,-0.5926873737527428,-14.468153749442129,22.007053420986352,45.796939318109885,-6.896118839904805,-0.182678970865324,0.5131651569102663,-1.0,12.030333333333331,0.03,179.33430896951003,-6.925126380450597,98.4038399385052,1525.0,1176.0,1000.0,1528.0,1475.0,1021.47,244.0,293.9,1637231835.3514185,1637231836.4593697,b5e51c74-e63d-41c7-808a-9365c1793619
-0.088284122958166,0.100742085249569,0.1024815482037719,1.7362618089944215,0.1782372118097673,-1.362311178601303,-0.570471548500114,-0.5975359569829171,-14.309345218759914,21.76283606829621,45.63915427746027,-6.828432819855107,-0.1322816991607421,0.5026155466625281,-1.0,12.030499999999998,0.03,179.3576434760085,-6.946622166822171,98.45789473861558,1525.0,1176.0,1000.0,1528.0,1475.0,1021.47,244.0,293.9,1637231836.5673094,1637231837.6948335,b5e51c74-e63d-41c7-808a-9365c1793619
-0.1173608227421114,0.0887712932223226,0.1248776124059888,2.051135378578912,0.2229800317195217,-1.64868518072874,-0.6476872930579702,-0.678192279553111,-15.01691592415334,24.14520923827511,44.24475279004673,-8.165901303113383,-0.1971203721508409,0.5189577773954052,-1.0,12.024555555555557,0.0377777777777777,179.380994071397,-7.0331000029886654,98.58678731433386,1525.0,1090.0,1000.0,1528.0,1475.0,1021.47,244.0,293.9,1637231839.7351255,1637231840.7598827,72797bdb-fb53-44c1-963a-5ec92295bee7
-0.1070259468906804,0.0924397794081303,0.1253904115709298,2.0786030170791623,0.2255571760578157,-1.6688421594604146,-0.65365680300491,-0.6754047547409382,-14.969728320976555,24.19671670800739,45.46329114080245,-8.27257201026238,-0.1978436473975114,0.5256631488911353,-1.0,12.01688888888889,0.0355555555555555,179.4100603208649,-7.069442253765574,98.55852550936817,1525.0,1090.0,1000.0,1528.0,1475.0,1021.47,244.0,293.9,1637231840.869835,1637231841.896321,72797bdb-fb53-44c1-963a-5ec92295bee7
-0.1182812316179429,0.0771872918807689,0.1171593279587589,2.106333629064124,0.2238872917891948,-1.6799659700103555,-0.6663058532458566,-0.6872254372355584,-15.24542941518034,24.34962745751284,45.30684008539816,-8.359682073733055,-0.2556452281577798,0.5550883868194307,-1.0,12.02111111111111,0.0322222222222222,179.42721623824016,-7.078002140911023,98.51978391748594,1525.0,1090.0,1000.0,1528.0,1475.0,1021.47,244.0,293.9,1637231842.0048468,1637231843.012488,72797bdb-fb53-44c1-963a-5ec92295bee7
-0.0243896746736995,0.0666239581302826,-0.0175550917834367,0.1257656973201686,-0.0768064063203008,0.2365708522969835,-0.2094575860242844,-0.2335772285200351,-13.380742360360202,15.59373479216788,58.34834800408283,0.3529738569621851,-0.1888868700867387,0.5024675958424293,-1.0,12.018999999999998,0.03,179.4370334968072,-6.473133347187519,98.49901179440012,1525.0,1435.0,1000.0,1528.0,1475.0,1021.47,244.0,293.9,1637231843.6316664,1637231844.6513665,b74bc73b-59f0-49c6-8df4-0c5d37246af5
-0.0374424953770922,0.054516200380279,-0.0275946694612293,0.1424891949526744,-0.0810523396541593,0.2356394863219915,-0.2193191092253338,-0.2394256597187321,-13.533176540929311,15.55388729792166,58.64313779536311,0.3123630417974803,-0.2385282979149276,0.5349835893766927,-1.0,12.049,0.04,179.42724052335723,-6.480409206200874,98.57721518366706,1525.0,1435.0,1000.0,1528.0,1475.0,1021.47,244.0,293.9,1637231844.759159,1637231845.9924812,b74bc73b-59f0-49c6-8df4-0c5d37246af5
-0.035442797737434,0.0514070815738139,-0.0206368175240637,0.1395033452593853,-0.07595721964644,0.2397347571600481,-0.2113888009977315,-0.2304955024223031,-13.422185592058716,15.699374086546165,58.45647203867592,0.3296380260401054,-0.2485093564488577,0.5066207131264672,-1.0,12.047222222222222,0.04,179.4300985780699,-6.47040577754709,98.64899819511416,1525.0,1435.0,1000.0,1528.0,1475.0,1021.47,244.0,293.9,1637231846.101041,1637231847.2213078,b74bc73b-59f0-49c6-8df4-0c5d37246af5
0.0555160491592125,0.1044127629284146,0.2291473179152371,0.1028239621041416,0.1443382303420345,0.206821928392639,0.0447231609658897,0.0190421132248941,-11.532340513918127,15.514347832119336,58.29929403053067,0.3505554728276326,-0.0413407568712014,-0.4912938377645919,-1.0,12.049,0.04,179.42640572245867,-6.472988632554479,98.7050581110919,1525.0,1435.0,1000.0,1439.0,1475.0,1021.47,244.0,293.9,1637231849.1555653,1637231850.300485,5ec34375-ea13-466c-83cf-aa971cdc2e8d
0.0472844174333506,0.0960852554074601,0.2221483767992394,0.1044812456581761,0.1394622556045974,0.2112185235369801,0.0404635312110422,0.009933901593493,-11.484254860842478,15.464285519896816,57.93852957242914,0.3559831109939064,-0.0703654569463092,-0.470495202136478,-1.0,12.048222222222222,0.04,179.43034294706024,-6.466509771239898,98.72812290100914,1525.0,1435.0,1000.0,1439.0,1475.0,1021.47,244.0,293.9,1637231850.4360795,1637231851.5228746,5ec34375-ea13-466c-83cf-aa971cdc2e8d
0.0382035990591352,0.0858539262760393,0.2116157237306225,0.1225059164422651,0.1346136739987636,0.2065616937950053,0.0271093865423314,0.0084546732075806,-11.811203756971327,15.51746705264972,58.11994794643545,0.3045517839466754,-0.1109190392333282,-0.4315951817480838,-1.0,12.045,0.04,179.44878142217962,-6.460186296728937,98.75097064269274,1525.0,1435.0,1000.0,1439.0,1475.0,1021.47,244.0,293.9,1637231851.631181,1637231852.7508595,5ec34375-ea13-466c-83cf-aa971cdc2e8d
0.1415989187092025,0.1336686114859344,0.5174735514908712,0.0982904013270546,0.4076545542509207,0.1650885159930151,0.3386239041726546,0.3169559498013277,-9.584589834774311,15.621416189128274,58.07822539265084,0.2830132242448953,0.0753984278228836,-1.656906042272604,-1.0,12.047,0.0366666666666666,179.433677597195,-6.450837475302482,98.7119657090725,1525.0,1435.0,1000.0,1351.0,1475.0,1021.47,244.0,293.9,1637231854.6853588,1637231855.8222315,b03e34aa-0a03-4ab6-8890-b8959a19d354
0.1432014160103543,0.13784606174607,0.5314988261899466,0.0924693639718467,0.4199403663190492,0.1669512478744037,0.3543612488761569,0.3334055155915698,-9.480379081285166,15.54722624118112,58.277708315864366,0.3006206722952669,0.0901653796631947,-1.7143252697764195,-1.0,12.045444444444444,0.0322222222222222,179.4485264284506,-6.428984474780502,98.6996622616476,1525.0,1435.0,1000.0,1351.0,1475.0,1021.47,244.0,293.9,1637231855.9306738,1637231857.0516765,b03e34aa-0a03-4ab6-8890-b8959a19d354
0.1425165881026481,0.139708793683482,0.5250477476986092,0.0909079562916134,0.4119552733171946,0.1667047098286496,0.3449928034864837,0.3139974934381973,-9.588608998585654,15.740596463493633,58.23509452537485,0.3044882024261817,0.0980820248196713,-1.6813205375851492,-1.0,12.045222222222224,0.04,179.45507885659435,-6.432577438875144,98.70609933548538,1525.0,1435.0,1000.0,1351.0,1475.0,1021.47,244.0,293.9,1637231857.159972,1637231858.170437,b03e34aa-0a03-4ab6-8890-b8959a19d354
0.2344752789333607,0.1851813667361327,0.8316862721644748,0.087757747893979,0.6879956895686125,0.1115212766892242,0.6515354541550379,0.6334559985739193,-7.482886436375916,16.008000442146855,58.6579288557413,0.2057583322357636,0.2698121046351167,-2.904297274785577,-1.0,12.043333333333331,0.03,179.44759296926404,-6.466305861634051,98.60707449398862,1525.0,1435.0,1000.0,1262.0,1475.0,1021.47,244.0,293.9,1637231860.218501,1637231861.3639815,28f9b91e-cf7f-4b81-bdd8-1a4c5d2b6a73
0.2324076465516191,0.1759471472787739,0.8295161896186296,0.0920190210940791,0.6885490304817969,0.1140693844039917,0.6516932384943637,0.6272235171559892,-7.476269727058651,15.95538052867863,58.28482498691499,0.2013588585601587,0.2377750280456251,-2.903897519970561,-1.0,12.042333333333334,0.03,179.45530197610728,-6.4625492575905445,98.57058990017214,1525.0,1435.0,1000.0,1262.0,1475.0,1021.47,244.0,293.9,1637231861.4729607,1637231862.4833736,28f9b91e-cf7f-4b81-bdd8-1a4c5d2b6a73
0.2239135891897458,0.1669534393351554,0.8228629499207628,0.0951878568677129,0.6845123811274011,0.1186451305899153,0.6463154222528402,0.6180983228431793,-7.5850998868376065,15.977816671592205,58.051516980499485,0.2042185260752715,0.2060696802936913,-2.8831483261548625,-1.0,12.039555555555555,0.03,179.45653141015788,-6.461544033985822,98.55954017191488,1525.0,1435.0,1000.0,1262.0,1475.0,1021.47,244.0,293.9,1637231862.5930846,1637231863.8131416,28f9b91e-cf7f-4b81-bdd8-1a4c5d2b6a73
0.3058206485746488,0.2149439873141293,1.0663356964893844,0.0836898699640667,0.8985939550992703,0.0703494220284735,0.886006818800556,0.860421649618289,-5.8608609549061725,16.35248611136983,58.21178436874634,0.1371287936090107,0.3892961044024901,-3.840900681068813,-1.0,12.040777777777777,0.03,179.43602111099025,-6.488374677161056,98.48060595240676,1525.0,1435.0,1000.0,1173.0,1475.0,1021.47,244.0,293.9,1637231864.7206872,1637231865.7493951,3ea36340-811f-49ef-a588-1d03fb0999db
0.3125045687302687,0.2193542789653401,1.064966040700042,0.0686647453418646,0.8928277044041883,0.080854682399414,0.8855959220793418,0.8617639122635069,-5.799369496274152,16.515540225089964,58.343413497895824,0.1956931577035252,0.406001383306491,-3.830031180826794,-1.0,12.032666666666666,0.03,179.44288013873674,-6.480967289574307,98.40955453011075,1525.0,1435.0,1000.0,1173.0,1475.0,1021.47,244.0,293.9,1637231865.8586931,1637231866.974583,3ea36340-811f-49ef-a588-1d03fb0999db
0.3052590896961656,0.2073423976354151,1.066897255370114,0.0668431030800915,0.8987857069078601,0.0963044003034857,0.8928277044251547,0.8635855543647707,-5.996937003157098,16.409623388398956,58.665530993552686,0.2338658383820786,0.3598378557500397,-3.852184957320537,-1.0,12.033888888888889,0.03,179.45147555235224,-6.475179320867022,98.36411479938248,1525.0,1435.0,1000.0,1173.0,1475.0,1021.47,244.0,293.9,1637231867.0823486,1637231868.1110764,3ea36340-811f-49ef-a588-1d03fb0999db
-0.1534797460079991,0.0023323117192456,-0.3798975856810678,0.1771277905791288,-0.4050170790548475,0.2683468665300633,-0.5881264179304871,-0.6151771302984642,-15.71505299636567,16.287695901819877,57.78539613478813,0.2938118497702318,-0.4377911139499719,1.972518638223501,-1.0,12.041444444444446,0.0344444444444444,179.47541308866343,-6.476547540567009,98.57907754858074,1525.0,1435.0,1000.0,1617.0,1475.0,1021.47,244.0,293.9,1637231869.2268243,1637231870.3789663,2279d7d7-aca7-4fbc-84e8-9ab17726efb7
-0.1548462412072391,0.0054540735711635,-0.3745685698555386,0.1814190275751595,-0.3984258723399972,0.2601089137800861,-0.583557033895491,-0.5989941141515845,-15.72124635029548,16.12465543301495,57.651065796795805,0.2647800945223008,-0.4250414845529456,1.9500597940218187,-1.0,12.048666666666666,0.04,179.4771100112172,-6.489391853596825,98.59011968773892,1525.0,1435.0,1000.0,1617.0,1475.0,1021.47,244.0,293.9,1637231870.4889443,1637231871.600522,2279d7d7-aca7-4fbc-84e8-9ab17726efb7
-0.1523889519800758,-0.0022439825003831,-0.3734317130941146,0.1810619899307643,-0.3943249954311953,0.2676198532540242,-0.577473231364961,-0.6014301636517775,-15.688553294508583,15.928533213327698,57.62980441334943,0.2812331254993767,-0.4538441259788344,1.9334013238171983,-1.0,12.048375,0.04,179.48192833022168,-6.480840735418202,98.59504083903592,1525.0,1435.0,1000.0,1617.0,1475.0,1021.47,244.0,293.9,1637231871.7369907,1637231872.8221176,2279d7d7-aca7-4fbc-84e8-9ab17726efb7
-0.2639151092548608,-0.0530565727030992,-0.7050402835535161,0.2563486818721889,-0.6936584389259407,0.2637585196633508,-0.938635203522328,-0.9616865261307672,-18.18768399251667,16.87750451371378,57.19353022451343,0.0911792708011148,-0.6531428375791483,3.2991002617110907,-1.0,12.046333333333331,0.0377777777777777,179.47713429633427,-6.483378156623845,98.64957952010352,1525.0,1435.0,1000.0,1706.0,1475.0,1021.47,244.0,293.9,1637231873.6309593,1637231874.7632017,f364de14-c05e-4c84-8c6b-6edce1c0a241
-0.2463698155202531,-0.037990357820516,-0.6944391430444217,0.2529382389559434,-0.6883852618152587,0.2529245424090717,-0.931211664536174,-0.9548108489841688,-17.917269067698232,16.918722996891315,57.37287263024867,0.0754928175191587,-0.5990461558289164,3.269116192593348,-1.0,12.0389,0.03,179.47085112942574,-6.488211971620015,98.57325799973492,1525.0,1435.0,1000.0,1706.0,1475.0,1021.47,244.0,293.9,1637231874.9018488,1637231875.9923124,f364de14-c05e-4c84-8c6b-6edce1c0a241
-0.2526017504250223,-0.0325802169188442,-0.6919189753327304,0.2497880306224151,-0.6859061838047072,0.251678155627754,-0.9286914963195416,-0.9493185257434924,-17.97056780625676,16.791514655940283,57.55799963840184,0.0790830073497391,-0.5794729128458221,3.2596191973411983,-1.0,12.041,0.03,179.47763214123376,-6.483939987114948,98.52709070207806,1525.0,1435.0,1000.0,1706.0,1475.0,1021.47,244.0,293.9,1637231876.1304348,1637231877.1224103,f364de14-c05e-4c84-8c6b-6edce1c0a241
-0.3396921526237211,-0.0678165326960081,-0.9768519120638324,0.3318117842220942,-0.9464258107508194,0.2240582247876678,-1.2465318702309085,-1.2658078762204066,-19.762287602031066,17.82607609812092,57.13746764502242,-0.1763066238193285,-0.7233665668490771,4.449573148666461,-1.0,12.035,0.03,179.4980832454286,-6.521264267312521,98.4208251011512,1525.0,1435.0,1000.0,1795.0,1475.0,1021.47,244.0,293.9,1637231878.2380393,1637231879.3753254,86edab18-f413-4446-849a-51eaacf65abe
-0.3415066730208969,-0.072734145316847,-0.9790740430539964,0.3421335100789184,-0.946005052192725,0.2196008169886874,-1.250384441475718,-1.278009876734193,-19.88324704533589,17.853500722982755,57.14692287609295,-0.2095945258229543,-0.7424495158614585,4.456927270587797,-1.0,12.024666666666668,0.0311111111111111,179.50724632365512,-6.523397325903941,98.23371889902786,1525.0,1435.0,1000.0,1795.0,1475.0,1021.47,244.0,293.9,1637231879.4837496,1637231880.7139122,86edab18-f413-4446-849a-51eaacf65abe
-0.3481993605642644,-0.0818461922579798,-0.97416957631686,0.3389252284312906,-0.9398646074563756,0.229869948305867,-1.2424557707897614,-1.266241783481527,-19.97509924786911,17.902212696663465,56.96698695949999,-0.1787891108589055,-0.773673605867616,4.429120997541202,-1.0,12.026333333333334,0.03,179.51675546479956,-6.509106103703076,98.090355505079,1525.0,1435.0,1000.0,1795.0,1475.0,1021.47,244.0,293.9,1637231880.822931,1637231881.9375143,86edab18-f413-4446-849a-51eaacf65abe
-0.38847163307758165,-0.07558741252713705,-1.1360301376419388,0.38668512471851896,-1.0971729722937653,0.17920966741151934,-1.4378066868846506,-1.4597896874092318,-20.856505910292466,18.895232352360022,55.50734169128304,-0.4025172327011064,-0.7471487187154212,5.140245952712874,-1.0,12.02,0.03666666666666667,179.49546348842694,-6.534114129871038,97.77855888728773,1525.0,1435.0,1000.0,1883.0,1475.0,1021.4699999999999,244.0,293.9,1637231884.2711895,1637231885.3264887,f2533046-c666-4bd9-9ca6-87815590d8ae
-0.3985386056368518,-0.0844079966678251,-1.148850126504235,0.41120196261423136,-1.1005971145661937,0.17047126328032858,-1.453105759454816,-1.476485811300418,-21.313169042862917,18.68020657158509,56.14224256127932,-0.47965002064401824,-0.7864611462464953,5.183979474892286,-1.0,11.998333333333333,0.05555555555555555,179.52561801470264,-6.544651831099898,97.51625306131248,1525.0,1435.0,1000.0,1883.0,1475.0,1021.4699999999999,244.0,293.9,1637231885.4342349,1637231886.4358795,f2533046-c666-4bd9-9ca6-87815590d8ae
-0.39715196572261696,-0.09799279205385938,-1.1568050938033445,0.4188692955117378,-1.1090095468154109,0.1811671794718074,-1.458922968251052,-1.486824532581814,-21.05493125965341,19.00350907491407,56.71557623519659,-0.4709420032096498,-0.8457644061647673,5.213843479043459,-1.0,12.000555555555556,0.05,179.54892262015073,-6.546275091960769,97.28180833587162,1525.0,1435.0,1000.0,1883.0,1475.0,1021.4699999999999,244.0,293.9,1637231886.543582,1637231887.6633332,f2533046-c666-4bd9-9ca6-87815590d8ae
