raw_voltage_G-,raw_voltage_G0,raw_voltage_G1,raw_voltage_G2,raw_voltage_G3,raw_voltage_G4,raw_voltage_G5,raw_voltage_G6,load_x,load_y,load_z,load_l,load_m,load_n,rpm,voltage,current,roll,pitch,yaw,aileron1_pwm,elevator_pwm,throttle_pwm,rudder_pwm,aileron2_pwm,pbaro,pdiff,Tt,sample_start_time,sample_end_time,uid
-0.1654094495424377,-0.0781349725204348,-0.0202944035841041,0.5137069982003555,-0.0647534342348427,-0.647432536752173,-0.4604607604918775,-0.4918943705831612,-15.079144955906932,22.129111523036883,-37.68840455131013,-2.481576664720952,0.0835446185745464,0.6937243485060272,-1.0,12.04977777777778,0.04,179.57927294518265,10.377619334234293,59.135635917817645,1525.0,1435.0,1000.0,1528.0,1475.0,1021.47,244.0,294.13,1637232273.8189745,1637232275.0433464,bccffbb4-f90a-4aa6-9521-e087af76a540
-0.1780924638579248,-0.0865857495983644,-0.0257867237107453,0.5091049549238799,-0.0695335333966462,-0.6322841377301841,-0.4604470638393219,-0.4843612611979211,-14.947921461506688,22.109576880262267,-37.33624903856264,-2.4374358955378645,0.0480172483689302,0.7072357255467027,-1.0,12.049,0.04,179.6828626297747,10.384509572150758,58.955292361882535,1525.0,1435.0,1000.0,1528.0,1475.0,1021.47,244.0,294.13,1637232275.1526349,1637232276.2719333,bccffbb4-f90a-4aa6-9521-e087af76a540
-0.1564108097808975,-0.0678625531910841,-0.0117203577226176,0.4935456657652298,-0.0597541901391829,-0.632366317115348,-0.44694225401347,-0.4723219833854588,-14.968155635788548,21.95760052087053,-36.66907672902784,-2.4027335120709354,0.1152755363720601,0.6586322243806961,-1.0,12.049,0.04,179.7660027279917,10.429817252555084,58.817113081513725,1525.0,1435.0,1000.0,1528.0,1475.0,1021.47,244.0,294.13,1637232276.3799477,1637232277.408602,bccffbb4-f90a-4aa6-9521-e087af76a540
-0.0563508691072682,0.1388415275637334,-0.0308292489284205,0.3881144974292469,-0.1256050559027541,-0.7209781534383236,-0.5128473709563562,-0.5357918525313271,-15.291884253269686,21.63336803742122,-34.598523269818,-2.366963025008103,0.8862454556234713,0.8951196478989246,-1.0,12.045666666666667,0.0377777777777777,179.9309123331323,10.576128157722003,58.559156568219954,1576.0,1435.0,1000.0,1528.0,1515.0,1021.47,244.0,294.13,1637232279.138354,1637232280.2720654,05c62872-fa10-494c-99b7-9a35ca7c389c
-0.0447975476050776,0.1475843146432956,-0.0220064734310512,0.3901092640674239,-0.1181015327354525,-0.733912641074249,-0.5049334971664751,-0.5336962781796438,-15.050931869791375,21.45061552984008,-34.89282771383618,-2.401226048255684,0.920249852955429,0.8625092806394825,-1.0,12.041,0.03,0.0081552458689913,10.649268100084225,58.519845034996976,1576.0,1435.0,1000.0,1528.0,1515.0,1021.47,244.0,294.13,1637232280.3805869,1637232281.399165,05c62872-fa10-494c-99b7-9a35ca7c389c
-0.0347305766797816,0.1526520411750226,-0.0040228915783199,0.3924924650604366,-0.102021771948053,-0.7422264555269108,-0.4891276644842358,-0.5105079980760721,-14.984303264755,21.495328311177857,-34.927626182456635,-2.424064356153534,0.9399411441055836,0.7942035809836027,-1.0,12.043555555555557,0.03,-179.91538503641914,10.684864864172347,58.50096790995089,1576.0,1435.0,1000.0,1528.0,1515.0,1021.47,244.0,294.13,1637232281.5123494,1637232282.6215427,05c62872-fa10-494c-99b7-9a35ca7c389c
0.1595112775024126,0.5110284994795602,-0.0008633693752217,0.2109884213673778,-0.1796724989706124,-0.921061960949386,-0.5684663717173762,-0.5875845820933372,-15.437772168173115,20.71453013506498,-34.47376664770639,-2.4216775607082384,2.3057918373444664,1.0510369211911017,-1.0,12.0384,0.03,-179.9235068902522,10.766273338680046,58.42752273402376,1627.0,1435.0,1000.0,1528.0,1556.0,1021.47,244.0,294.13,1637232284.6681223,1637232285.6926682,37acedb9-eb3a-4a58-a48f-1e7f063b15a8
0.1538310408927189,0.509187682170959,0.0004909463289809,0.2101863509050223,-0.1775424100157568,-0.921035663686352,-0.567033163460827,-0.584797058059151,-15.525549189437449,20.69921542474573,-34.81983638026347,-2.419942630210397,2.302760473424253,1.043476026768738,-1.0,12.030888888888889,0.03,-179.90557536695118,10.7863313085699,58.437854685290255,1627.0,1435.0,1000.0,1528.0,1556.0,1021.47,244.0,294.13,1637232285.8019571,1637232286.8543642,37acedb9-eb3a-4a58-a48f-1e7f063b15a8
0.1516878034594212,0.5054666014706541,-0.0074508664496446,0.2163662377982941,-0.1829991195536012,-0.9215616118950212,-0.5753168447120389,-0.6009305131794997,-15.627159918659387,20.669799187966063,-34.665602989817145,-2.435681832412692,2.2868915237019194,1.0732905059435602,-1.0,12.029,0.03,-179.89614059897767,10.79668350375818,58.411326989463824,1627.0,1435.0,1000.0,1528.0,1556.0,1021.47,244.0,294.13,1637232286.9633791,1637232288.0657651,37acedb9-eb3a-4a58-a48f-1e7f063b15a8
0.3563735471164847,0.8915911791931902,0.0046985291679709,0.0280769113824073,-0.2609708966662625,-1.1205672590349325,-0.6535384646541962,-0.6733930036502211,-15.762894035156386,20.03717855300252,-34.06693464851371,-2.4617011576878296,3.754690086527927,1.320380102795363,-1.0,12.022555555555554,0.03,179.97115732554184,10.78266435075925,58.29075593677531,1678.0,1435.0,1000.0,1528.0,1596.0,1021.47,244.0,294.13,1637232288.623063,1637232289.7899113,753d0bc5-11c5-4230-9eb8-13152d0034ee
0.3554158837634078,0.8828429140418456,-0.0047762023441887,0.0350533904560895,-0.2664215797940816,-1.1168001549394535,-0.6636355713053739,-0.6806877933799345,-16.081801680989816,20.08574002922536,-33.91103143596055,-2.4692587359299405,3.721295379207852,1.354074927567794,-1.0,12.018333333333333,0.03,179.96520595404502,10.802739984277212,58.237548004231,1678.0,1435.0,1000.0,1528.0,1596.0,1021.47,244.0,294.13,1637232289.8992827,1637232291.0179074,753d0bc5-11c5-4230-9eb8-13152d0034ee
0.3452667346171207,0.8683108666127605,-0.0245540334439166,0.0313964093201344,-0.284720184605699,-1.099884892648045,-0.6780580528180575,-0.6956170480598548,-15.965614786390196,20.166700812402187,-34.14240801566022,-2.423425131896033,3.667217525112618,1.424423434562036,-1.0,12.017777777777775,0.03,179.97314718732002,10.81224874596673,58.255631309513575,1678.0,1435.0,1000.0,1528.0,1596.0,1021.47,244.0,294.13,1637232291.1266954,1637232292.2427778,753d0bc5-11c5-4230-9eb8-13152d0034ee
0.5022977659576283,1.1592942355947604,0.0048798716632546,-0.0967212035945138,-0.3216598085126942,-1.262107062456466,-0.7212433188766791,-0.7438837401086195,-16.27745028908638,19.77079273200098,-33.49062676667743,-2.5001700448509165,4.772645708130448,1.531050866750172,-1.0,12.016555555555556,0.03,179.89148696342318,10.820758782217611,58.28563860726716,1729.0,1435.0,1000.0,1528.0,1636.0,1021.47,244.0,294.13,1637232293.157099,1637232294.172642,704bea58-841f-4473-8f4b-12b8d65ac92e
0.4978666557041534,1.1591408341903566,0.0044092578430966,-0.0974536955731515,-0.3240057554905223,-1.25995670097383,-0.7205442463374437,-0.7471046238694075,-16.037089929281542,19.836194965102,-33.30349379526038,-2.493124625796379,4.768772053466438,1.534272497341715,-1.0,12.001666666666669,0.03,179.85613845773864,10.82277596475249,58.230673039376434,1729.0,1435.0,1000.0,1528.0,1636.0,1021.47,244.0,294.13,1637232294.2809985,1637232295.427575,704bea58-841f-4473-8f4b-12b8d65ac92e
0.5096347377770261,1.1746431465946965,0.0190700543258163,-0.1098134707556288,-0.3122771166439201,-1.2638092722416,-0.7059228903490393,-0.7318784274699119,-16.017644928323072,19.612553777598485,-33.194542791765045,-2.474626622317523,4.828259269763408,1.4795221526706164,-1.0,12.00477777777778,0.03,179.8497727214322,10.827671597703834,58.23628441923456,1729.0,1435.0,1000.0,1528.0,1636.0,1021.47,244.0,294.13,1637232295.5358355,1637232296.660052,704bea58-841f-4473-8f4b-12b8d65ac92e
-0.3530249328632992,-0.4196450067105474,-0.0233898259066402,0.646015741579982,0.0022501323434012,-0.4366013500256495,-0.3761584245928343,-0.4036748163796295,-14.60802957007158,23.074818680063427,-37.66740926460286,-2.2999113768533,-1.217316398520234,0.4464621907626804,-1.0,12.027222222222225,0.0355555555555555,-179.77581391527946,10.797673501732875,58.23735600002434,1474.0,1435.0,1000.0,1528.0,1435.0,1021.47,244.0,294.13,1637232298.799575,1637232299.936326,0ff953eb-dd8e-4cd6-a990-529c3ef7355a
-0.3538741196482084,-0.4142759546033807,-0.0239376882330471,0.6558224765759345,0.0001545588362221,-0.4516812643025648,-0.3814726903054608,-0.409016475186658,-14.46078894682367,23.18109253636437,-37.804087575991296,-2.35518999701011,-1.1982502934678052,0.4582318380080235,-1.0,12.048222222222222,0.04,-179.77203302611892,10.78227000219842,58.344691663921175,1474.0,1435.0,1000.0,1528.0,1435.0,1021.47,244.0,294.13,1637232300.0446036,1637232300.9771678,0ff953eb-dd8e-4cd6-a990-529c3ef7355a
-0.3531432711494101,-0.419215482588782,-0.0282915504244131,0.6565714043254822,-0.0008633694190683,-0.448497635545051,-0.3838849286353181,-0.4065795828554961,-14.617198619041478,23.02584221884017,-37.96474763642357,-2.351075664791408,-1.2146164249752176,0.4681242229054458,-1.0,12.048777777777778,0.04,-179.77573802428867,10.78380451803195,58.51479676629045,1474.0,1435.0,1000.0,1528.0,1435.0,1021.47,244.0,294.13,1637232301.0896711,1637232302.190017,0ff953eb-dd8e-4cd6-a990-529c3ef7355a
-0.4854454807507271,-0.681558346620479,-0.0343399508432038,0.7723851097005725,0.047274008058318,-0.3010744257009776,-0.3280424058780463,-0.3537612603220699,-14.239204000873317,23.9063393418362,-38.2092859844589,-2.275356328926548,-2.2136973336793524,0.3001261766067019,-1.0,12.041111111111112,0.0344444444444444,-179.73003343400262,10.775027440357269,58.667006014124354,1423.0,1435.0,1000.0,1528.0,1394.0,1021.47,244.0,294.13,1637232303.1925125,1637232304.4386778,8c5a349e-f740-4f93-a0bc-18d26d9c21bf
-0.4831576070235179,-0.6646885629750097,-0.027016126847281,0.7557914566081898,0.0498380037858354,-0.3025470799398727,-0.3220728968506006,-0.349869245386872,-14.242019972112807,23.8344302551292,-38.18898334563149,-2.241344561339558,-2.1480792935671404,0.2801033640218733,-1.0,12.03322222222222,0.03,-179.7662197762253,10.758940257859642,58.72712761592854,1423.0,1435.0,1000.0,1528.0,1394.0,1021.47,244.0,294.13,1637232304.547294,1637232305.6729038,8c5a349e-f740-4f93-a0bc-18d26d9c21bf
-0.4651833348982339,-0.6538540334026547,-0.0163130878188723,0.7546738175354943,0.0580164928728105,-0.3128030646454459,-0.3132501202619375,-0.3381800524760701,-14.087757400395716,23.74858330229329,-38.20871785882585,-2.2618316523303865,-2.107545481414059,0.2432292504548298,-1.0,12.035,0.03,-179.7588401362821,10.77492109810644,58.82896801318314,1423.0,1435.0,1000.0,1528.0,1394.0,1021.47,244.0,294.13,1637232305.7811785,1637232306.9007733,8c5a349e-f740-4f93-a0bc-18d26d9c21bf
-0.6672788572055496,-1.0116516019205266,-0.0172948571571169,0.9289592230631144,0.1299294510687981,-0.1248813296983183,-0.2373711755022078,-0.2599705003192352,-13.678503539444796,25.329686999229853,-38.24979930797894,-2.222059695664362,-3.473530085105866,-0.0036020352323975,-1.0,12.029,0.03,-179.72674280064246,10.767010031500272,58.94529903621689,1372.0,1435.0,1000.0,1528.0,1354.0,1021.47,244.0,294.13,1637232308.8347952,1637232309.965128,c58f2ce0-2037-4b13-bd28-faababfb42e1
-0.6624713632849056,-1.0040500071006566,-0.000530269175165,0.929370119827312,0.1435164367947601,-0.1333047140473372,-0.2218666695538441,-0.2537385653377857,-13.436448889937992,25.337467094922104,-38.21180524564002,-2.240900807065042,-3.4460570992791264,-0.0658920273114486,-1.0,12.022777777777778,0.03,-179.7392526715623,10.767570676194644,58.97505741152074,1372.0,1435.0,1000.0,1528.0,1354.0,1021.47,244.0,294.13,1637232310.0732155,1637232311.0324764,c58f2ce0-2037-4b13-bd28-faababfb42e1
-0.6701277423984288,-1.0166782422088076,-0.0201574379594683,0.9274389051897312,0.1281625950574576,-0.1199779614770007,-0.2362617541013563,-0.2537111720481238,-13.512675718220557,25.20132710728928,-38.45788910621338,-2.2085548557805423,-3.4917089018674257,0.0003805216468247,-1.0,12.023,0.03,-179.74280740557035,10.7534780037984,59.00612338859568,1372.0,1435.0,1000.0,1528.0,1354.0,1021.47,244.0,294.13,1637232311.141775,1637232312.111984,c58f2ce0-2037-4b13-bd28-faababfb42e1
-0.8627425309887644,-1.3816507381369618,-0.0249512336464083,1.1087676330335334,0.1987546557294278,0.0823202140238667,-0.1599856118930891,-0.1864884552958141,-13.047005644088912,26.75436706006532,-36.54692531081388,-2.15240141276622,-4.903413395326256,-0.2380232185135788,-1.0,12.022333333333332,0.03,-179.6930001483228,10.743725442301006,59.03379096710358,1321.0,1435.0,1000.0,1528.0,1314.0,1021.47,244.0,294.13,1637232314.1598396,1637232315.184786,dc788fc7-bebb-4aad-b687-bc581b37f3d7
-0.8665090864440949,-1.3783772574780295,-0.0375657645007002,1.1090826537996203,0.1902764863033894,0.0781701568885482,-0.1764488767456581,-0.1956377574129419,-13.656078653233848,26.61982572873908,-36.74664877870281,-2.164296194016743,-4.885895601031126,-0.1860940297186294,-1.0,12.018999999999998,0.03,-179.70621580545685,10.751295853222322,59.023796882528046,1321.0,1435.0,1000.0,1528.0,1314.0,1021.47,244.0,294.13,1637232315.2931693,1637232316.4129293,dc788fc7-bebb-4aad-b687-bc581b37f3d7
-0.8471969290219171,-1.361105879798738,-0.0122134338268995,1.1033985822688517,0.2092325226229469,0.0669389789150737,-0.1536578013462522,-0.18269450808731,-13.34401436855102,26.635108528719467,-36.49823477519737,-2.175151905588556,-4.823220542531538,-0.2763181613114935,-1.0,12.016,0.03,-179.72601880059045,10.77237628345818,58.98356706831666,1321.0,1435.0,1000.0,1528.0,1314.0,1021.47,244.0,294.13,1637232316.5211766,1637232317.6429102,dc788fc7-bebb-4aad-b687-bc581b37f3d7
-0.1675756974090668,-0.0854489352025968,-0.0124079249210672,0.4759872271095702,-0.0594145154445684,-0.5912399208117013,-0.4348361370411255,-0.4540726840666856,-14.896237715577374,21.950480386548342,-35.52774823654068,-2.2705727730011374,0.0408094391767361,0.6412513251673582,-1.0,12.019444444444444,0.0311111111111111,179.88892640139431,10.712788195319172,58.99011418409108,1525.0,1435.0,1000.0,1528.0,1475.0,1021.47,244.0,294.13,1637232319.6887264,1637232320.715098,ea735374-8841-4b17-8e16-8f5f2a9a8710
-0.1775446014727251,-0.0972827624297805,-0.0277864213442332,0.4941209212183839,-0.0722728452448107,-0.5920162418899598,-0.452845472127743,-0.4855528620689224,-14.935377773104248,22.24217148267518,-35.04479446772947,-2.3119972486667884,-0.0107806048519881,0.704630054793788,-1.0,12.046600000000002,0.034,179.8840311289252,10.720026810828806,59.04574911052045,1525.0,1435.0,1000.0,1528.0,1475.0,1021.47,244.0,294.13,1637232320.8250988,1637232321.8501232,ea735374-8841-4b17-8e16-8f5f2a9a8710
-0.1663134224404817,-0.0826959267386086,-0.0123914890507249,0.4841635239946731,-0.0599459419535999,-0.5990699719751358,-0.438450385730823,-0.4565161507741748,-14.894636962460064,22.067958846001527,-35.2025398289943,-2.3057794228424515,0.0472376082362451,0.647915050152997,-1.0,12.046,0.0311111111111111,179.87641956611412,10.71739259659341,59.11017145477202,1525.0,1435.0,1000.0,1528.0,1475.0,1021.47,244.0,294.13,1637232321.959061,1637232323.0799758,ea735374-8841-4b17-8e16-8f5f2a9a8710
-0.1543837189682522,-0.1061992225650974,-0.0524676206744736,-0.0090221356101575,-0.1475080460143195,-0.1041721318495303,-0.3386846335798444,-0.3629960294295365,-14.747873659895106,21.221081482996443,-32.445471196301746,-0.0882680859064672,-0.0082218900138549,0.6769314188794667,-1.0,12.047666666666666,0.04,179.86141591723734,10.865023530681173,59.20290493313328,1525.0,1521.0,1000.0,1528.0,1475.0,1021.47,244.0,294.13,1637232325.1751049,1637232326.2468846,649bff55-be8f-4634-8d4e-a74a159c0c6e
-0.1672447885144422,-0.1220735349880044,-0.0604116249920848,0.0056057892124036,-0.1516854967514171,-0.1039940766080097,-0.3456972728197607,-0.3762679973149512,-14.699342280480488,21.327327474410605,-32.77534993120134,-0.1205843825250703,-0.0674828156615201,0.701166848745451,-1.0,12.045,0.04,179.83809309795146,10.862243643688975,59.15424438875638,1525.0,1521.0,1000.0,1528.0,1475.0,1021.47,244.0,294.13,1637232326.3598862,1637232327.4722393,649bff55-be8f-4634-8d4e-a74a159c0c6e
-0.1578456613570094,-0.1123774665744061,-0.0531294384488036,0.0114306616588815,-0.1448941946160887,-0.1215421085523779,-0.3425059741544447,-0.3727742787053024,-14.672037040760047,21.21371916604504,-33.115122304745825,-0.173587574342028,-0.0285559711505757,0.6782575000438216,-1.0,12.047333333333333,0.04,179.83304331142506,10.85917888089015,59.16486077945631,1525.0,1521.0,1000.0,1528.0,1475.0,1021.47,244.0,294.13,1637232327.580264,1637232328.814928,649bff55-be8f-4634-8d4e-a74a159c0c6e
-0.1529592767578245,-0.1377013093552646,-0.1114860945379119,-0.5662530072315144,-0.2604772726490643,0.4618244389261807,-0.240110487541307,-0.2643670963567784,-14.624996508166449,20.47117228134322,-29.15800845977611,2.4332540348864,-0.0915273894128438,0.7672324613289249,-1.0,12.041666666666666,0.03,179.79821086447782,11.044805018965832,59.04177773497305,1525.0,1607.0,1000.0,1528.0,1475.0,1021.47,244.0,294.13,1637232330.6357126,1637232331.773669,f13f8e03-5cdd-471f-a9cb-b4a9f6505a50
-0.1183206776562331,-0.1083632789780732,-0.0774090549274406,-0.5598567124637978,-0.232728041588921,0.432623378503602,-0.2146348857277019,-0.2464109052931587,-14.4061869553068,20.425439247246025,-28.157308903838583,2.3548701789417525,0.0094622129389633,0.6519035955330184,-1.0,12.042,0.03,179.79164629377556,11.054566782245857,58.90535077758131,1525.0,1607.0,1000.0,1528.0,1475.0,1021.47,244.0,294.13,1637232331.8817637,1637232332.9103966,f13f8e03-5cdd-471f-a9cb-b4a9f6505a50
-0.139577738053651,-0.1166086077131726,-0.0893387580273566,-0.559267760374537,-0.2408637983227985,0.4422246652489806,-0.2253182025565346,-0.2515334188822806,-14.736046503981589,20.416316808248936,-27.94912199943465,2.374329670606117,-0.0218022203023476,0.6935312286048315,-1.0,12.038,0.03,179.76041563325063,11.046709123924453,58.770922788886665,1525.0,1607.0,1000.0,1528.0,1475.0,1021.47,244.0,294.13,1637232333.0181837,1637232334.1398757,f13f8e03-5cdd-471f-a9cb-b4a9f6505a50
-0.1146390424663848,-0.1184127185153839,-0.1118515186986587,-1.078675482691598,-0.3231905361520832,0.9410960166189796,-0.1108785151165415,-0.1306278584132122,-14.329485115656048,19.9289170968054,-24.919063051523693,4.663352418271776,0.0042131427670161,0.6733983357505808,-1.0,12.036888888888887,0.03,179.75105523844806,11.2232508258128,58.55772298740416,1525.0,1693.0,1000.0,1528.0,1475.0,1021.47,244.0,294.13,1637232336.2805855,1637232337.5207872,c7870076-bdd2-48e4-b1be-25464baee58c
-0.1297436082305294,-0.141892456559156,-0.1397010070337351,-1.0736148746743952,-0.3459027211696941,0.9549689858516338,-0.1347154593573357,-0.1584105076059113,-14.422481039114972,20.04919822156867,-25.75439044330913,4.682342012379395,-0.0781750009070193,0.7721445662183162,-1.0,12.031777777777778,0.03,179.71661742465287,11.224395261953733,58.354511199217946,1525.0,1693.0,1000.0,1528.0,1475.0,1021.47,244.0,294.13,1637232337.6297903,1637232338.7469032,c7870076-bdd2-48e4-b1be-25464baee58c
-0.1329622997378015,-0.1457274932899469,-0.1461520866670472,-1.0659995826485316,-0.3504225863737285,0.9492575213400598,-0.1419335462892233,-0.1596842877793399,-14.403069059866167,20.021207242109305,-26.15577679403008,4.651768367870605,-0.0904856806516034,0.7964330104653287,-1.0,12.03188888888889,0.03,179.70791879928993,11.229185121836682,58.19051076814685,1525.0,1693.0,1000.0,1528.0,1475.0,1021.47,244.0,294.13,1637232338.8560677,1637232339.8644686,c7870076-bdd2-48e4-b1be-25464baee58c
-0.111746329108023,-0.1450426653479571,-0.1652998770733429,-1.5713893752446346,-0.4320266983622895,1.4382794409320951,-0.0371137779889072,-0.0633015991709673,-14.517843486523931,20.274554979372585,-22.374860770605967,6.891972433352297,-0.0596002480316598,0.7852402562224734,-1.0,12.027,0.03,179.70505922675738,11.389946051102667,57.92501069036975,1525.0,1780.0,1000.0,1528.0,1475.0,1021.47,244.0,294.13,1637232340.6816432,1637232341.818435,04c4e7ef-0e12-4356-b3de-7eead20340c8
-0.1079386855810797,-0.1421800843311657,-0.1516991933399053,-1.560938888719681,-0.4179466331616524,1.4266921516281,-0.0262113170841322,-0.0569874853013557,-14.499518415392629,20.253955435080563,-22.160977263967577,6.842944494931639,-0.0513139903584288,0.7327616249198713,-1.0,12.0214,0.03,179.68387380133578,11.404389738304008,57.6725518722299,1525.0,1780.0,1000.0,1528.0,1475.0,1021.47,244.0,294.13,1637232341.9300194,1637232343.0477934,04c4e7ef-0e12-4356-b3de-7eead20340c8
-0.0985318886527906,-0.1352956456609175,-0.139279700876691,-1.5654669763115618,-0.4097878653348523,1.4243631887313553,-0.0156162068922727,-0.042071384612072,-14.372745121255388,20.412768144122587,-22.039925350099523,6.8496795678214415,-0.0261157824529554,0.6906222975606865,-1.0,12.017666666666663,0.03,179.67614779491063,11.411012346641495,57.47552277128037,1525.0,1780.0,1000.0,1528.0,1475.0,1021.47,244.0,294.13,1637232343.156318,1637232344.276555,04c4e7ef-0e12-4356-b3de-7eead20340c8
-0.2051809721347192,-0.1017796167797142,0.0146126463302209,1.1083211251441134,0.0342567987031496,-1.1808672264565674,-0.5771708112729363,-0.6034419148113579,-15.30604805935433,23.5782239213784,-39.3062014188157,-5.01060705116164,-0.0601649453111084,0.6767743715428474,-1.0,12.021333333333336,0.03,179.65512447264533,10.484559321477969,57.20852688207505,1525.0,1349.0,1000.0,1528.0,1475.0,1021.47,244.0,294.13,1637232345.1871035,1637232346.142739,57be0bcc-855a-45af-a295-cd38d0c20d88
-0.227967665100494,-0.1207137404971386,-0.0085816542553357,1.102391063413589,0.0134555610417276,-1.1511380011032009,-0.5913582590075752,-0.619115165976126,-15.180974760073356,23.63544940545232,-38.63924657931327,-4.9310310373896815,-0.1387151700276493,0.7555843317907412,-1.0,12.038111111111112,0.03,179.73734477205414,10.507633028586609,57.49415476842627,1525.0,1349.0,1000.0,1528.0,1475.0,1021.47,244.0,294.13,1637232346.2522876,1637232347.3537436,57be0bcc-855a-45af-a295-cd38d0c20d88
-0.212715175857202,-0.107170582558229,0.0031995777955713,1.0877697139049376,0.0210160614616137,-1.1478376758001845,-0.5794060903892162,-0.6047436364508743,-15.162010692986144,23.581011466561883,-38.10604928265754,-4.890312291738208,-0.0902338856405541,0.7145083536382256,-1.0,12.039777777777775,0.03,179.82238366286043,10.530704079510574,57.81950399935064,1525.0,1349.0,1000.0,1528.0,1475.0,1021.47,244.0,294.13,1637232347.484855,1637232348.5775058,57be0bcc-855a-45af-a295-cd38d0c20d88
-0.2321489510563926,-0.0868295483603695,0.0467349114897701,1.6697573341777423,0.1136749235311112,-1.7308383457973855,-0.7144038026559764,-0.738229250490252,-15.879282126356053,25.831315241998706,-42.338785119422845,-7.497164598470826,-0.0402083995490048,0.7213372764029742,-1.0,12.037222222222224,0.03,179.89603131595095,10.32262644558689,58.29168256577272,1525.0,1262.0,1000.0,1528.0,1475.0,1021.47,244.0,294.13,1637232349.6993573,1637232350.7240782,30c7f091-550b-4a7f-a056-dde2f0d59bce
-0.2259822117740373,-0.0829243853866975,0.0620662913102002,1.6647213825099845,0.1248644638153652,-1.7286425102135516,-0.698191453754154,-0.7295511077101571,-15.616237418109124,25.94664104363812,-42.0234457332243,-7.479159803614144,-0.0286243578652906,0.6631251787438669,-1.0,12.030111111111111,0.03,179.91950591721837,10.32702878709818,58.53707608445312,1525.0,1262.0,1000.0,1528.0,1475.0,1021.47,244.0,294.13,1637232350.8556073,1637232351.8546417,30c7f091-550b-4a7f-a056-dde2f0d59bce
-0.2291116018258153,-0.0835686715083147,0.0578324111459922,1.655806565068748,0.1204990967584987,-1.7212792302919695,-0.7001637589110007,-0.7263691214990776,-15.661930039065982,25.890043950849904,-42.25626092594812,-7.443150006985832,-0.0278257466623878,0.6771571381094296,-1.0,12.030333333333331,0.03,179.9526763514676,10.31313257750431,58.78346984639197,1525.0,1262.0,1000.0,1528.0,1475.0,1021.47,244.0,294.13,1637232351.9624202,1637232352.9725475,30c7f091-550b-4a7f-a056-dde2f0d59bce
-0.2434250550690542,-0.0938723191640232,0.0813066688333831,1.9579543675086344,0.166978640994325,-1.99606550263622,-0.7696195844572316,-0.7926435102413701,-16.26352958869874,27.92699667931796,-43.39955461944592,-8.728015877142669,-0.0877579065451665,0.6792759043430846,-1.0,12.023333333333332,0.03,179.94594178494597,10.163195980252974,59.189806907034914,1525.0,1176.0,1000.0,1528.0,1475.0,1021.47,244.0,294.13,1637232354.1986372,1637232355.336051,2aabf7c7-deee-4a26-a324-e310d37b567d
-0.2475592247960486,-0.091102874861352,0.0744260657364123,1.9655636302169857,0.1623513958175275,-2.005804321079759,-0.7801078658601416,-0.8067339885527456,-16.4713754049701,27.861771971962515,-43.467096673749104,-8.767955316370953,-0.0766752643085751,0.7100784544318879,-1.0,12.016,0.0377777777777777,179.9369320065208,10.163441867063094,59.35631325862149,1525.0,1176.0,1000.0,1528.0,1475.0,1021.47,244.0,294.13,1637232355.4445438,1637232356.5655077,2aabf7c7-deee-4a26-a324-e310d37b567d
-0.2473559678502773,-0.0847504106593964,0.0807725030688212,1.9738423808405567,0.1670882134746608,-2.0239928350091545,-0.7788921587472716,-0.8062715922245566,-16.3650814499572,27.931183490640603,-44.05610784092539,-8.826766407405785,-0.0489973765951191,0.6933012724752755,-1.0,12.016,0.04,179.94113788522972,10.175678720143605,59.50851719408605,1525.0,1176.0,1000.0,1528.0,1475.0,1021.47,244.0,294.13,1637232356.6747296,1637232357.79291,2aabf7c7-deee-4a26-a324-e310d37b567d
-0.2580913318557761,-0.0810178243784043,0.0960951168656331,2.259621209947058,0.20203415954572,-2.3067128386893776,-0.8586845127074508,-0.8829044237337799,-16.977057760003795,29.83843486169272,-46.58364463323258,-10.094027620948117,-0.0424467688637757,0.7366063016676978,-1.0,12.005444444444445,0.0655555555555555,179.9207505294671,10.078119713133727,59.85758918981771,1525.0,1090.0,1000.0,1528.0,1475.0,1021.47,244.0,294.13,1637232359.6215017,1637232360.6668234,c638dae5-d3bd-41b6-b55d-24e308bbd01c
-0.266722904132389,-0.0846408381851322,0.0894150314002128,2.271592008641327,0.1968919238218531,-2.311949865637484,-0.8681115848104937,-0.889163206994139,-17.02679802343015,29.958981633521944,-46.32909733752257,-10.132317074965956,-0.0598345692611138,0.7660793798127258,-1.0,11.947666666666668,0.25,179.8968145109758,10.066530020477078,59.81527009663023,1525.0,1090.0,1000.0,1528.0,1475.0,1021.47,244.0,294.13,1637232360.7813396,1637232361.7767785,c638dae5-d3bd-41b6-b55d-24e308bbd01c
-0.2441509727293836,-0.0677255875783792,0.0999202917238805,2.2288313281763585,0.1980972209240972,-2.283871857899998,-0.8492240207914078,-0.8792194998037223,-16.702523335183283,29.84563780869991,-45.46676119748084,-9.972692008934274,-0.0004012848164975,0.726387386663279,-1.0,11.9515,0.2324999999999999,179.85755458362655,10.06531787534281,59.76163489780783,1525.0,1090.0,1000.0,1528.0,1475.0,1021.47,244.0,294.13,1637232361.8856742,1637232362.9150565,c638dae5-d3bd-41b6-b55d-24e308bbd01c
-0.1866413086281734,-0.1215684058403574,-0.0392444147005388,0.4667305457705305,-0.0844364855094606,-0.5387766069990053,-0.4535598847263264,-0.4846960055476924,-15.199066655468496,22.65981878179339,-34.49545137531899,-2.12842176703283,-0.1022159732466511,0.7350733091755239,-1.0,12.003444444444446,0.1188888888888888,179.8171836121723,10.603707418089392,59.7507832450365,1525.0,1435.0,1000.0,1528.0,1475.0,1021.47,244.0,294.13,1637232363.8332005,1637232364.9581244,05938335-b0fd-49a2-9673-a82ec222738a
-0.177397774324166,-0.1028052151970412,-0.0285413755986005,0.4610108634225477,-0.078940330190469,-0.5519647532397647,-0.4462097617890499,-0.4698248258769388,-14.964056299853205,22.596447036758526,-34.43648148427062,-2.144914551193112,-0.0326469384066379,0.7050266439958124,-1.0,12.044222222222222,0.04,179.78302052376375,10.619638549737232,59.71861988423492,1525.0,1435.0,1000.0,1528.0,1475.0,1021.47,244.0,294.13,1637232365.0667164,1637232366.082219,05938335-b0fd-49a2-9673-a82ec222738a
-0.1780026143871894,-0.1068024190284588,-0.0167864409211311,0.4589465182697369,-0.0656995925560592,-0.5467184218112894,-0.4320749102423555,-0.459319015315725,-15.076524711146131,22.518272672696583,-34.41646895000015,-2.128455020730884,-0.0460221904087623,0.6503238897264056,-1.0,12.046,0.0333333333333333,179.78852413841494,10.60624559227596,59.71890295763051,1525.0,1435.0,1000.0,1528.0,1475.0,1021.47,244.0,294.13,1637232366.194163,1637232367.3124616,05938335-b0fd-49a2-9673-a82ec222738a
-0.0968855622073578,-0.0681638774359671,0.220559576077285,0.43276034407597,0.1460366035687473,-0.5731971646122104,-0.187515697046465,-0.2150046931095549,-13.312208849912835,22.46087310653041,-34.37992802259505,-2.11655502306396,0.1043541542742909,-0.3040428331660414,-1.0,12.04811111111111,0.04,179.7575864171144,10.61522890371808,59.66769323487339,1525.0,1435.0,1000.0,1439.0,1475.0,1021.47,244.0,294.13,1637232368.217075,1637232369.154475,f9911866-0bc0-4507-a7c1-b8ed09e65e6e
-0.108048258061879,-0.0710812445391161,0.2105336956364314,0.4335821375199777,0.1357504883182887,-0.5715535769681419,-0.1979935653571346,-0.219825882233878,-13.282721397064428,22.573970048183764,-34.525434903976915,-2.114473266867084,0.0937583230983913,-0.2620249583442717,-1.0,12.042333333333334,0.0344444444444444,179.74579143932772,10.61784344321412,59.64272737563718,1525.0,1435.0,1000.0,1439.0,1475.0,1021.47,244.0,294.13,1637232369.2641551,1637232370.380968,f9911866-0bc0-4507-a7c1-b8ed09e65e6e
-0.0955569959260766,-0.0534537729324139,0.2227921150357701,0.4225564087755207,0.1438040645807965,-0.5773883128238458,-0.1872006761167816,-0.2145664031716453,-13.201556423969045,22.43872760201216,-34.253099410889575,-2.1029152375100035,0.1590162187085206,-0.3025379468813024,-1.0,12.043333333333331,0.0311111111111111,179.7256833624112,10.619382417643358,59.60707910053907,1525.0,1435.0,1000.0,1439.0,1475.0,1021.47,244.0,294.13,1637232370.4895144,1637232371.7257493,f9911866-0bc0-4507-a7c1-b8ed09e65e6e
-0.005531156670141,-0.0138674302339956,0.5112520272881784,0.4071143620256684,0.4047870429859709,-0.617248050342793,0.1058645980710309,0.0845111154985753,-11.34855647414378,22.51245713158603,-34.19881007236406,-2.1418583689578328,0.3140821461093767,-1.4624746055536513,-1.0,12.046,0.03,179.70950340317737,10.618453701643713,59.54257707074718,1525.0,1435.0,1000.0,1351.0,1475.0,1021.47,244.0,294.13,1637232373.620942,1637232374.5725214,23838b68-3d0a-4711-b1c6-3ceccb2e445a
0.0167295864450785,0.0085773946755207,0.5321716010792791,0.3977393423361036,0.4202367598162423,-0.632776665859922,0.1221952784966842,0.1019331376272236,-11.287520399931422,22.41965480817199,-34.36291401803803,-2.1551744717290773,0.4017652178082551,-1.5328018268110604,-1.0,12.044666666666664,0.03,179.67830613468834,10.606443572898153,59.51911840658782,1525.0,1435.0,1000.0,1351.0,1475.0,1021.47,244.0,294.13,1637232374.6809394,1637232375.9087913,23838b68-3d0a-4711-b1c6-3ceccb2e445a
-0.0039954984562304,-0.0168428706801262,0.5177885723085689,0.4122155078735467,0.4107362796922988,-0.6212173143870837,0.1127950565994918,0.0851690981143594,-11.12717328859307,22.55795314602234,-34.459479915149295,-2.161587809239516,0.303452943302074,-1.489902014586771,-1.0,12.045,0.03,179.72399706459612,10.610715951087734,59.56718624232675,1525.0,1435.0,1000.0,1351.0,1475.0,1021.47,244.0,294.13,1637232376.0177794,1637232377.136956,23838b68-3d0a-4711-b1c6-3ceccb2e445a
0.0991669810744921,0.039997848242056,0.816510486622608,0.4024224692838491,0.6772028024513922,-0.6850159073406452,0.4070382091466542,0.3805353703002257,-9.20658289643738,22.80408650891504,-34.62370392443547,-2.265414467563739,0.5246495281190499,-2.67116711672015,-1.0,12.040111111111113,0.03,179.6626027708766,10.609006411656724,59.46546878847718,1525.0,1435.0,1000.0,1262.0,1475.0,1021.47,244.0,294.13,1637232379.184368,1637232380.3217127,eefb17db-dc09-4a05-b2d1-aec2dc735d99
0.0896478729373696,0.036902425975384,0.8081692832051189,0.4060520570252894,0.6697381787469626,-0.6842899893114968,0.3981080536750075,0.369632910549722,-9.241516886022298,22.867696946780665,-34.5436638300764,-2.27196917450764,0.5116030845060365,-2.637195781769258,-1.0,12.040333333333333,0.03,179.66494021339255,10.616902964110905,59.46049185730198,1525.0,1435.0,1000.0,1262.0,1475.0,1021.47,244.0,294.13,1637232380.430262,1637232381.5315516,eefb17db-dc09-4a05-b2d1-aec2dc735d99
0.1035087900605629,0.0425043184791193,0.8070735586147239,0.3957111560376746,0.6687246335097651,-0.6768253622218078,0.3999844820470153,0.3770564447188548,-9.2964965253541,22.64005134275105,-34.0501526044527,-2.233381278440264,0.5298286045784071,-2.635655142417652,-1.0,12.039888888888887,0.03,179.66372443972028,10.617130257628284,59.42369231587376,1525.0,1435.0,1000.0,1262.0,1475.0,1021.47,244.0,294.13,1637232381.6402285,1637232382.7808387,eefb17db-dc09-4a05-b2d1-aec2dc735d99
0.1806017855547146,0.0938729873022518,1.0593159366933973,0.4059572768235658,0.8913676513973533,-0.746815352306843,0.6398462643303,0.619584125375232,-7.6201025668467715,23.26833391745148,-33.625489301731974,-2.396134374258442,0.7216034202950564,-3.61643029172708,-1.0,12.038333333333334,0.03,179.6208080844354,10.613823402568876,59.29515802152292,1525.0,1435.0,1000.0,1173.0,1475.0,1021.47,244.0,294.13,1637232384.6209247,1637232385.7409103,89901351-c6ef-4655-be39-913ed31c8de4
0.1784716968294957,0.0834197739051317,1.05211045154406,0.4103620897118876,0.8878043550041643,-0.7424499834139945,0.6341791767995602,0.6042921931238856,-7.7731642367308975,23.25059194328604,-33.93267886581234,-2.3968634000576823,0.6852040438082527,-3.5954455986213265,-1.0,12.029,0.03,179.64880578875318,10.599371860649988,59.30083618545294,1525.0,1435.0,1000.0,1173.0,1475.0,1021.47,244.0,294.13,1637232385.874854,1637232387.0809257,89901351-c6ef-4655-be39-913ed31c8de4
0.1654150419419114,0.0703894159898872,1.0354116082849154,0.412689408780903,0.8747214033428573,-0.7314050738266292,0.620741210540224,0.5960085152817223,-7.863601901428433,23.2567453400227,-33.988486056915505,-2.378138994401932,0.6361219364678464,-3.5374317336184924,-1.0,12.03,0.03,179.6301821396163,10.620551423492552,59.22285136223945,1525.0,1435.0,1000.0,1173.0,1475.0,1021.47,244.0,294.13,1637232387.1885898,1637232388.3128183,89901351-c6ef-4655-be39-913ed31c8de4
-0.2900618431237099,-0.1671626091391861,-0.3620509665718556,0.5282253489677995,-0.3764734454095293,-0.5359014246965352,-0.7988754468292972,-0.828309365833304,-17.334037570450434,23.23715814828541,-34.95519024837741,-2.2740723919456367,-0.2820622526092435,2.057158733178845,-1.0,12.035777777777778,0.03,179.78341212127614,10.607860267968498,59.50955158829035,1525.0,1435.0,1000.0,1617.0,1475.0,1021.47,244.0,294.13,1637232389.2193344,1637232390.1545093,5ab95c0a-f347-41a9-adff-5fdefe023d26
-0.3043199627288228,-0.1756133865162878,-0.3762953901632995,0.5334437373153141,-0.389457785457505,-0.5324498908782385,-0.812065238970266,-0.8351713450838316,-17.234999997219948,23.32964900950712,-35.06572408098127,-2.2781516510410804,-0.3150230580450538,2.111938656224593,-1.0,12.045333333333332,0.04,179.7956685162868,10.60670577627129,59.522487207668455,1525.0,1435.0,1000.0,1617.0,1475.0,1021.47,244.0,294.13,1637232390.262084,1637232391.38567,5ab95c0a-f347-41a9-adff-5fdefe023d26
-0.3006629810216119,-0.1760516764494984,-0.3652833550331202,0.5397852433331245,-0.3751859687054404,-0.5399966968309617,-0.8018612980059386,-0.8302268848868702,-17.43894642315526,23.145051198816244,-35.28435161488695,-2.310228122870671,-0.3133715402637576,2.062588424723917,-1.0,12.045,0.03,179.80284476837474,10.629687939872303,59.4783861940175,1525.0,1435.0,1000.0,1617.0,1475.0,1021.47,244.0,294.13,1637232391.4943097,1637232392.4977589,5ab95c0a-f347-41a9-adff-5fdefe023d26
-0.4080127909799815,-0.2299662671612221,-0.6879354666902843,0.6186900141199131,-0.6646359682008955,-0.542813258046925,-1.1525843586133668,-1.1759627591557946,-19.8891865838626,24.05328203819691,-35.45581296993363,-2.505853012620763,-0.526876066591883,3.3878351169457432,-1.0,12.043888888888889,0.03,179.8092772887531,10.600022341304694,59.43790062716721,1525.0,1435.0,1000.0,1706.0,1475.0,1021.47,244.0,294.13,1637232393.7249367,1637232394.8627732,89e6872b-0bcc-41a3-a20e-ac23f3447f1e
-0.4043048579141572,-0.222126904042038,-0.6848515483828619,0.6141712459468508,-0.6653750347927225,-0.5475982889994873,-1.1491651470250612,-1.176503499531614,-19.51788637715396,24.023257283149466,-35.612116027969385,-2.5062958739151164,-0.4979649982710881,3.3807302764415468,-1.0,12.036666666666669,0.03,179.81289425337354,10.590125207469868,59.40259082588796,1525.0,1435.0,1000.0,1706.0,1475.0,1021.47,244.0,294.13,1637232394.9708693,1637232396.0911105,89e6872b-0bcc-41a3-a20e-ac23f3447f1e
-0.4103176483720608,-0.2237020084650584,-0.6773184384273359,0.6185815373861889,-0.6552669709859297,-0.5481872412149468,-1.1412622267820784,-1.1733121990966486,-19.68145145112165,23.90660385006105,-35.27640292850763,-2.517994896143232,-0.5057577614967551,3.3456972630240904,-1.0,12.037,0.03,179.8317045943478,10.596607910765856,59.38308987689767,1525.0,1435.0,1000.0,1706.0,1475.0,1021.47,244.0,294.13,1637232396.1992347,1637232397.3216476,89e6872b-0bcc-41a3-a20e-ac23f3447f1e
-0.5082206721187628,-0.2657915380002364,-0.9685485053594122,0.6997747288116122,-0.9209392399323284,-0.5671295872324648,-1.46555594443723,-1.4910178753956576,-21.71674077546427,25.111076289698435,-35.576563677718866,-2.7513019041264197,-0.6749921187811875,4.559534349471605,-1.0,12.0368,0.03,179.84168259003326,10.570049090146842,59.37548468892983,1525.0,1435.0,1000.0,1795.0,1475.0,1021.47,244.0,294.13,1637232399.1426475,1637232400.18692,7ac0b144-c7bf-48a5-afe5-1372518d899a
-0.5050019799338763,-0.267133800921502,-0.9801494975640233,0.7102115054554975,-0.930376174135372,-0.5765117329944619,-1.4787457448798265,-1.5058923548875969,-21.65624251878839,25.035577886971435,-35.82576123795739,-2.7970150597066024,-0.680267692966086,4.606631609150512,-1.0,12.018888888888888,0.03,179.84341153858517,10.567012321637238,59.33333346661394,1525.0,1435.0,1000.0,1795.0,1475.0,1021.47,244.0,294.13,1637232400.2949898,1637232401.416509,7ac0b144-c7bf-48a5-afe5-1372518d899a
-0.503632323814185,-0.2631481018990458,-0.9619604566656208,0.7162516872008226,-0.9140635635463732,-0.5868800308842403,-1.462446822134516,-1.488470312627965,-21.46433431858433,25.076187543463192,-35.82257312699051,-2.8326671706023574,-0.6662953322994257,4.537070652227188,-1.0,12.026666666666664,0.03,179.86491145627258,10.569943231701082,59.28171165577689,1525.0,1435.0,1000.0,1795.0,1475.0,1021.47,244.0,294.13,1637232401.5252345,1637232402.644665,7ac0b144-c7bf-48a5-afe5-1372518d899a
-0.5882814631517175,-0.3087927115464199,-1.1701378819345338,0.8214560395690979,-1.0975438751988478,-0.6283192564914586,-1.7033049374197384,-1.732968438151235,-23.007348832524862,26.24371723996827,-36.03409321987017,-3.1665384695743266,-0.8508250412233646,5.407219717327352,-1.0,12.016,0.04666666666666666,179.88018983053593,10.555664341786217,59.229278570248425,1525.0,1435.0,1000.0,1883.0,1475.0,1021.4699999999999,244.0,294.13,1637232403.647823,1637232404.8977032,d6866967-bced-48be-8f58-9c1cd315267f
-0.5839423919859178,-0.3131975254387322,-1.1849170288646274,0.8257162167506646,-1.109351413567351,-0.6275171856010718,-1.7182155805219386,-1.7467877379127086,-23.156508005073615,26.193964247553893,-36.088822104637806,-3.1754955536364573,-0.8672672806251189,5.464020483654542,-1.0,11.993333333333332,0.07,179.8770509791574,10.57333214389427,59.14036316763319,1525.0,1435.0,1000.0,1883.0,1475.0,1021.4699999999999,244.0,294.13,1637232405.006169,1637232406.126805,d6866967-bced-48be-8f58-9c1cd315267f
-0.5881105299899192,-0.3072674625899717,-1.1794340178568006,0.8169854832451918,-1.1065638875517516,-0.6258210034267188,-1.7138370580724576,-1.73558503242759,-23.221752134343742,26.272241108745874,-36.12719538864229,-3.1512366451100275,-0.8428001947866093,5.4470248530015555,-1.0,11.995444444444443,0.07,179.8787585264499,10.56278377049483,59.04736407080421,1525.0,1435.0,1000.0,1883.0,1475.0,1021.4699999999999,244.0,294.13,1637232406.2347577,1637232407.2389581,d6866967-bced-48be-8f58-9c1cd315267f
