raw_voltage_G-,raw_voltage_G0,raw_voltage_G1,raw_voltage_G2,raw_voltage_G3,raw_voltage_G4,raw_voltage_G5,raw_voltage_G6,load_x,load_y,load_z,load_l,load_m,load_n,rpm,voltage,current,roll,pitch,yaw,aileron1_pwm,elevator_pwm,throttle_pwm,rudder_pwm,aileron2_pwm,pbaro,pdiff,Tt,sample_start_time,sample_end_time,uid
-0.2514133103921647,-0.0607066277891528,-0.5535046682415743,0.0081217417125819,-0.6430043323400383,0.2224707727046349,-0.9142089579367878,-0.9441349021052114,-24.604972591121346,27.79802363169934,18.36821779362861,0.6288589752622202,-0.25195363549145,2.921938481658417,5324.602810329861,11.970333333333334,0.1322222222222222,179.11859338168324,1.0191977211618677,93.57009609013946,1553.0,1435.0,1200.0,1528.0,1471.0,994.0,160.0,293.7,1649258497.9604275,1649258498.939983,4b6568ec-8dd8-4855-a948-0e33a611afd3
-0.2833747608345457,-0.0673947629989342,-0.5650224238574365,0.0061241512596901,-0.6521452080793827,0.2295761255132618,-0.9232107628655024,-0.947712866534877,-24.691975762522897,27.729097890891843,18.10766435486262,0.6482159730916965,-0.2745985303506457,2.961678483017543,5330.4892578125,11.968888888888891,0.13,179.11345556160757,0.99354088631259,93.3435242960819,1553.0,1435.0,1200.0,1528.0,1471.0,994.0,160.0,293.7,1649258499.047704,1649258500.1746385,4b6568ec-8dd8-4855-a948-0e33a611afd3
-0.2628172772275388,-0.0620214974867015,-0.5612168866114533,0.0039116302434389,-0.6505521924085536,0.228691117168076,-0.9212637432486984,-0.9432372501968264,-24.69984695968761,27.83014648737333,18.46142624011202,0.6521299297466739,-0.2570098168460047,2.952631970142125,5329.753526475694,11.968444444444446,0.1311111111111111,179.10822515452315,1.0042443974983326,93.08907774111158,1553.0,1435.0,1200.0,1528.0,1471.0,994.0,160.0,293.7,1649258500.2864296,1649258501.3982725,4b6568ec-8dd8-4855-a948-0e33a611afd3
-0.0496976285539513,0.3170457993831785,-0.5363572462503035,-0.2601556775046516,-0.7224508081234993,0.1131358269785853,-0.956195297829655,-0.9862795334341388,-24.27486849287924,26.702843872138423,20.23837112016126,0.9823949104316546,1.1800352946410635,3.113227051293754,5327.17578125,11.957333333333334,0.13,178.98521344757123,1.0297343907475722,92.74817161598764,1631.0,1435.0,1200.0,1528.0,1531.0,994.0,160.0,293.7,1649258502.5120394,1649258503.6503625,5f0b674c-bbb7-4835-bfe3-f8a90c1e9de4
-0.0513543643915927,0.3078943073905233,-0.5439308975777946,-0.2576179788468984,-0.7274473148696766,0.1193814575815413,-0.9630326243058852,-0.9934718745579372,-24.4633682655366,26.77564409333807,20.128435681132824,0.9906983237547822,1.1472288061962796,3.138689254681252,5327.17578125,11.946,0.13,178.95916614171642,1.0229549773935769,92.55013559337247,1631.0,1435.0,1200.0,1528.0,1531.0,994.0,160.0,293.7,1649258503.7594483,1649258504.8783348,5f0b674c-bbb7-4835-bfe3-f8a90c1e9de4
-0.0485799893687447,0.3068818578515422,-0.5436810722246112,-0.2550539826420425,-0.7253829686810611,0.118842361044157,-0.9601136118425484,-0.9848726220435656,-24.340762616099006,26.55760619350453,20.26050426853829,0.9823529637095252,1.1410896686589778,3.1316424231386883,5325.337944878473,11.936,0.12,178.96923991183226,1.018611878286964,92.3638444604901,1631.0,1435.0,1200.0,1528.0,1531.0,994.0,160.0,293.7,1649258504.9865117,1649258506.1025522,5f0b674c-bbb7-4835-bfe3-f8a90c1e9de4
0.1833367142413225,0.7228539756644732,-0.5135048060136514,-0.5426554736130068,-0.8054717127922468,-0.0141961477080097,-1.001808153324905,-1.0273034917383526,-23.91750806871061,25.817129800474987,21.60185309251844,1.3291769152583663,2.723664342686105,3.3092594624716867,5315.4306640625,11.925777777777776,0.12,178.733317588801,1.0671460641642132,92.0420454101143,1712.0,1435.0,1200.0,1528.0,1591.0,994.0,160.0,293.7,1649258508.04154,1649258509.175647,8225ac96-17e4-48f7-8833-9dd60c2dd847
0.2045192630796091,0.7348324367894427,-0.5059574523473042,-0.5629307691765341,-0.8038938684648123,-0.0074377177105077,-0.9922358964364346,-1.0138260692305388,-23.698042872053016,25.8030280922944,21.641849815949143,1.3904992839754966,2.7696575897635665,3.284680949491184,5313.599934895833,11.91877777777778,0.12,178.73059158441225,1.0690488054565903,91.96185140015928,1712.0,1435.0,1200.0,1528.0,1591.0,994.0,160.0,293.7,1649258509.2859485,1649258510.4143074,8225ac96-17e4-48f7-8833-9dd60c2dd847
0.2031123526640373,0.7375805140451012,-0.4985810317481005,-0.5544893035513733,-0.7967541230017067,-0.0191269088674994,-0.9880020134191144,-1.007514690922022,-23.65190841422281,25.83556145464369,21.51208795124328,1.3457757346079668,2.780216950448596,3.259115763682575,5313.9658203125,11.916666666666666,0.1144444444444444,178.7311349639062,1.0666039178988431,91.86211773680868,1712.0,1435.0,1200.0,1528.0,1591.0,994.0,160.0,293.7,1649258510.5272996,1649258511.6365798,8225ac96-17e4-48f7-8833-9dd60c2dd847
0.4417480250727966,1.1589173063380158,-0.464447007960492,-0.849730245886716,-0.8762906261679012,-0.1529017512372956,-1.02892078250367,-1.0518521242515435,-23.343598256932346,25.309875376944625,22.51242486810968,1.7096864983102713,4.387943466942621,3.429413875259584,5313.9658203125,11.90022222222222,0.12,178.40870601830693,1.1120396169182374,91.59115502551536,1796.0,1435.0,1200.0,1528.0,1650.0,994.0,160.0,293.7,1649258513.571503,1649258514.7174263,e3b0cf3b-7fec-41eb-a776-e681997ff846
0.445035198848918,1.170908916941925,-0.4548353085757254,-0.858842297759899,-0.871267821300612,-0.1582927173056645,-1.0195852017698446,-1.0425033948089064,-23.068154070822647,25.250936139880466,22.29587456012595,1.7183188496539292,4.434619270761408,3.397461431539653,5312.869140625,11.876,0.12,178.42546426689054,1.116871537011231,91.499458976998,1796.0,1435.0,1200.0,1528.0,1650.0,994.0,160.0,293.7,1649258514.8300202,1649258516.1407297,e3b0cf3b-7fec-41eb-a776-e681997ff846
0.4479673578584137,1.180744141497629,-0.4436852117830797,-0.8623530008417472,-0.8644304959239668,-0.1656428389196376,-1.010578339246823,-1.0392425158720064,-22.85881101369052,25.31966519014473,22.237073879411984,1.7108282493606206,4.471687077838151,3.361320623584346,5326.441026475694,11.877111111111113,0.12,178.43306854416647,1.1498561331967767,91.41553492484626,1796.0,1435.0,1200.0,1528.0,1650.0,994.0,160.0,293.7,1649258516.249531,1649258517.3726938,e3b0cf3b-7fec-41eb-a776-e681997ff846
0.6087101546352308,1.4460716881962563,-0.409419702533232,-1.0403733047762582,-0.9067561724687022,-0.2661514839576255,-1.0334570862337031,-1.0572299447686926,-22.726233980410345,25.640546898456023,21.642358765365344,1.890347386365975,5.495255095424542,3.4345025122188293,5327.17578125,11.856333333333332,0.1066666666666666,178.13201657284955,1.1763567217099298,91.22508344784944,1886.0,1435.0,1200.0,1528.0,1710.0,994.0,160.0,293.7,1649258519.510327,1649258520.651143,8199c2c5-8a8b-4cea-8865-8e807ed5bd0c
0.6063433895261308,1.4334883850031388,-0.4141795313145573,-1.0281187119664044,-0.9062828186592472,-0.2673348666164403,-1.0376383741724753,-1.0587025993600474,-22.8933762289927,25.597519013172946,21.29278548185463,1.8593827046375029,5.450530028645021,3.4442918198837527,5327.17578125,11.821,0.1,178.1501575552851,1.186075582864231,91.1376114918788,1886.0,1435.0,1200.0,1528.0,1710.0,994.0,160.0,293.7,1649258520.759599,1649258521.8809102,8199c2c5-8a8b-4cea-8865-8e807ed5bd0c
0.597375979551595,1.440154774523957,-0.4167172303778392,-1.035718663390884,-0.910437809400932,-0.264323814948955,-1.040281264065956,-1.063567620782056,-22.93142280032756,25.567440507948213,21.63493434100274,1.8830022025070223,5.473544200040571,3.4583814481553423,5317.26171875,11.822888888888889,0.1055555555555555,178.12882307995764,1.167170698316661,91.0272455007202,1886.0,1435.0,1200.0,1528.0,1710.0,994.0,160.0,293.7,1649258521.9896667,1649258523.103202,8199c2c5-8a8b-4cea-8865-8e807ed5bd0c
-0.5211836465334341,-0.5259171784134316,-0.5598539733076815,0.3565839262072988,-0.5324257850387606,0.3490891699136793,-0.8518734846149616,-0.8804193189103673,-24.804982973098824,29.471326088382742,17.381309432140874,0.1378604777692823,-2.02989076510753,2.6357751230940614,5320.56298828125,11.881555555555556,0.1133333333333333,179.37762602922626,1.0324464501667596,90.9048879741088,1475.0,1435.0,1200.0,1528.0,1408.0,994.0,160.0,293.7,1649258524.0158908,1649258525.1497078,3a25d575-e410-4d59-8b0e-bfbaaf4277e0
-0.5226563008844154,-0.5261801524583349,-0.5630885534964114,0.3571230227002542,-0.5353053502941618,0.3486026682049105,-0.8562914486938554,-0.8778684705470852,-24.910709691955827,29.51564887433271,17.31669697476948,0.1356204147300181,-2.0298267891256683,2.650186172077584,5323.50048828125,11.962222222222222,0.13,179.37201920282757,1.0224990622664785,90.83002227061628,1475.0,1435.0,1200.0,1528.0,1408.0,994.0,160.0,293.7,1649258525.2581832,1649258526.3835218,3a25d575-e410-4d59-8b0e-bfbaaf4277e0
-0.5265614647248346,-0.532123364772054,-0.5709909223437379,0.3553085027708404,-0.5413537522832442,0.3579513905570686,-0.8605910746194742,-0.8878088903203806,-24.90377779238338,29.431745282708388,17.534195167707438,0.1598098220728457,-2.054373176778081,2.674928870108987,5323.86767578125,11.964222222222222,0.13,179.37161546275664,1.039652572474371,90.724681780867,1475.0,1435.0,1200.0,1528.0,1408.0,994.0,160.0,293.7,1649258526.4915545,1649258527.6116507,3a25d575-e410-4d59-8b0e-bfbaaf4277e0
-0.7645918915498959,-0.9292920380629404,-0.5848592611675706,0.6605498959919903,-0.4560146458804589,0.4572508423376024,-0.8249747786902698,-0.8420048775412625,-25.50906255019193,31.31227349192155,16.35139203608349,-0.2943183822126534,-3.567659002201147,2.4786435791687094,5322.21533203125,11.934,0.12,179.4909031987911,1.0116172902581788,90.49385591732135,1396.0,1435.0,1200.0,1528.0,1340.0,994.0,160.0,293.7,1649258529.5553029,1649258530.6810763,2f034bd1-9c9f-42c4-b4f7-78e3460bde3f
-0.7649474123460763,-0.938352506402624,-0.5940537427571304,0.6656308551576867,-0.4624615543034209,0.4611949451591991,-0.8313746569029992,-0.8504402759109795,-25.433347732200783,31.248119310222563,16.255552559925345,-0.2977771296589174,-3.6025372791466044,2.507961993791416,5323.86767578125,11.912,0.12,179.50585448288425,1.0327765759766434,90.33027630179411,1396.0,1435.0,1200.0,1528.0,1340.0,994.0,160.0,293.7,1649258530.7902782,1649258531.9133537,2f034bd1-9c9f-42c4-b4f7-78e3460bde3f
-0.7397676481680722,-0.9265581191573988,-0.5837583103425383,0.6627644396563648,-0.4551640261787919,0.4529638620164813,-0.8256549711635566,-0.8504008299053152,-25.543065609162515,31.32995554171569,16.41421649304926,-0.3087823325885469,-3.5579238538186395,2.477360530326651,5323.86767578125,11.914666666666667,0.12,179.50741631947446,1.0332141705442492,90.1790012720567,1396.0,1435.0,1200.0,1528.0,1340.0,994.0,160.0,293.7,1649258532.0243776,1649258533.153683,2f034bd1-9c9f-42c4-b4f7-78e3460bde3f
-1.0334702340302588,-1.4288650157227492,-0.6318036622899501,1.0461803898994229,-0.3800060627658655,0.5867912801146465,-0.8104550711737982,-0.8304542481719787,-26.051968147965773,33.87334761535326,15.509710007226063,-0.8588789380620372,-5.480471005693822,2.358749522423865,5323.13330078125,11.905888888888889,0.11,179.64317467723745,0.998844800936353,89.84017000662061,1314.0,1435.0,1200.0,1528.0,1268.0,994.0,160.0,293.7,1649258534.871313,1649258536.0161984,d9d92726-cf70-4151-bd18-9f5c8822cd86
-1.0437525213797088,-1.4271819808071182,-0.6350250938778124,1.043616394258568,-0.3835693599865553,0.5877905809344719,-0.8143865332171959,-0.8439316680740125,-26.131846350145864,33.89769908002822,15.523145009563097,-0.8508866737277203,-5.473600443148621,2.3737258520671443,5316.164876302083,11.882333333333332,0.1166666666666666,179.66358631811707,0.9876605084660648,89.66334475701795,1314.0,1435.0,1200.0,1528.0,1268.0,994.0,160.0,293.7,1649258536.1245615,1649258537.2367983,d9d92726-cf70-4151-bd18-9f5c8822cd86
-1.0348771454909094,-1.4250124437304612,-0.6296867213235432,1.0425907960921523,-0.3785991518195658,0.5888556252232193,-0.8098896767673435,-0.8336493826774094,-26.241107452587872,33.93168772931001,15.880314176220477,-0.8456868130635435,-5.467390344267734,2.3539438128166896,5313.9658203125,11.883333333333333,0.1166666666666666,179.66516181508564,0.999282751242978,89.51886121204524,1314.0,1435.0,1200.0,1528.0,1268.0,994.0,160.0,293.7,1649258537.3512487,1649258538.6702309,d9d92726-cf70-4151-bd18-9f5c8822cd86
-1.2769185337547595,-1.8665988383562373,-0.6718283079413742,1.3878755548825978,-0.3158404139574628,0.6942424154072927,-0.8056163486426468,-0.8314798463933465,-26.83498370911311,36.738911191234735,14.37724970851276,-1.3717739301533145,-7.151218761261779,2.2657315569575065,5320.56298828125,11.881999999999998,0.11,179.8150844673674,0.9500990570643432,89.15866663270516,1227.0,1435.0,1200.0,1528.0,1189.0,994.0,160.0,293.7,1649258540.868041,1649258541.8093936,0e9a20a9-8e97-470f-8582-4e9e178772f6
-1.3090539767591391,-1.862904048907236,-0.6686594708499726,1.3821690205277426,-0.313894406551552,0.6951891214438741,-0.8016322917777186,-0.8209871820218106,-26.785085280026205,36.67972875732608,14.307493290751408,-1.3569945544387778,-7.136193493658314,2.253446936610332,5317.266276041667,11.803666666666668,0.0933333333333333,179.81748869395526,0.956492647736004,88.916085634143,1227.0,1435.0,1200.0,1528.0,1189.0,994.0,160.0,293.7,1649258541.918357,1649258542.9811056,0e9a20a9-8e97-470f-8582-4e9e178772f6
-1.2998453292939265,-1.8624837956998035,-0.6698200965329414,1.384866020421613,-0.3138190543556601,0.6954318665782997,-0.8030139167501626,-0.8204991624874801,-26.873783335231145,36.63031491417027,14.744605320359996,-1.362893176605268,-7.138270092397928,2.257542762215041,5307.384765625,11.794666666666666,0.09,179.82257946161664,0.9553662357053828,88.77604474777041,1227.0,1435.0,1200.0,1528.0,1189.0,994.0,160.0,293.7,1649258543.088958,1649258544.2008064,0e9a20a9-8e97-470f-8582-4e9e178772f6
-0.2341738504657148,-0.0181802027216501,-0.5390264323148597,0.0194119204986641,-0.6333683574628063,0.1750530359700007,-0.9181955437742536,-0.9502915303392256,-24.93839236989824,27.752518980363647,19.07115172900883,0.4972005926348691,-0.0967968995804394,2.9007761840258954,5312.136393229167,11.898,0.1122222222222222,179.21689346421803,1.101098223050308,88.43715884082096,1553.0,1435.0,1200.0,1528.0,1471.0,994.0,160.0,293.7,1649258546.5442283,1649258547.68085,97ef6b16-9651-4f9a-b998-9eff2f50c7fd
-0.2420499204302546,-0.0291593643690119,-0.5514782513321943,0.0225807562967685,-0.6424278124182742,0.1820875881515294,-0.9280570716428568,-0.9494500130176676,-25.01054011360942,27.72637504852323,18.87160909705074,0.5049985991396543,-0.1368762195504302,2.942507546590929,5322.403428819444,11.971666666666668,0.13,179.21190287266452,1.0962400375597248,88.54543403518363,1553.0,1435.0,1200.0,1528.0,1471.0,994.0,160.0,293.7,1649258547.7905283,1649258548.8358748,97ef6b16-9651-4f9a-b998-9eff2f50c7fd
-0.2408928350266963,-0.0252147553830022,-0.5468762062984144,0.0191489465136248,-0.6404818046884084,0.1812855177547675,-0.9251512081231263,-0.9588644856974228,-24.98686370819188,27.865640772084248,18.88488835341203,0.5121039572521052,-0.1216501708324981,2.9298719263903434,5338.605034722223,11.968777777777778,0.1244444444444444,179.2066633586612,1.0933272701858645,88.6609575780755,1553.0,1435.0,1200.0,1528.0,1471.0,994.0,160.0,293.7,1649258548.944018,1649258550.135295,97ef6b16-9651-4f9a-b998-9eff2f50c7fd
-0.2359094785990352,-0.0496581824765362,-0.5960786425895997,-0.3630573901803622,-0.7212148302171016,0.5759567554401438,-0.859973085550295,-0.8841009560096142,-24.919736987339537,26.840587176610285,21.62500134893095,2.2523722029626687,-0.1941673182466178,3.0121252576779303,5337.865993923611,11.962777777777776,0.1144444444444444,179.2146653047288,1.227198918628278,88.75259746725968,1553.0,1522.0,1200.0,1528.0,1471.0,994.0,160.0,293.7,1649258550.9317389,1649258552.1886528,3aade725-10b3-4caf-8ccc-a1cf51ce05ea
-0.2384603259963783,-0.0509599034571594,-0.592765170112543,-0.3651348843551431,-0.718571941189386,0.5805587986956274,-0.8558706902951931,-0.8842455916470604,-24.915337536780743,26.90535143347253,21.853558743634885,2.2680328933349907,-0.2006394611706967,2.998291115028873,5343.7822265625,11.966,0.12,179.19718457391303,1.2568588609454832,88.81200038138117,1553.0,1522.0,1200.0,1528.0,1471.0,994.0,160.0,293.7,1649258552.2976522,1649258553.4161637,3aade725-10b3-4caf-8ccc-a1cf51ce05ea
-0.2273628250104544,-0.0503550634055185,-0.5823251019591387,-0.3599542971658104,-0.708710415038501,0.5728405147381976,-0.8456672966738279,-0.8757252318042495,-24.713010199145028,26.874498440080696,21.59768036385291,2.2393791186802496,-0.1975116425346868,2.9560128100549146,5338.605034722223,11.961,0.12,179.20323915715733,1.249529131186642,88.86280029278811,1553.0,1522.0,1200.0,1528.0,1471.0,994.0,160.0,293.7,1649258553.5248778,1649258554.6458156,3aade725-10b3-4caf-8ccc-a1cf51ce05ea
-0.2357648428882601,-0.0721161565941282,-0.6362479230122191,-0.7789770775411465,-0.8018689682526464,0.998805640263656,-0.7799632303429717,-0.8107574914419231,-24.60472371515458,26.142450970553767,24.320755949895617,4.134743117939154,-0.2558701093112546,3.0607619831930446,5300.8564453125,11.947666666666668,0.12,179.22389972048666,1.4229960977256575,88.90020544432271,1553.0,1613.0,1200.0,1528.0,1471.0,994.0,160.0,293.7,1649258555.5555563,1649258556.6938546,734d477f-a2a8-4cd4-bd48-51a88cb9330a
-0.2388679355989091,-0.0781645571494162,-0.6441765896920104,-0.7701805958583406,-0.8059845121586175,0.994085258612002,-0.7888386043646963,-0.8144522766596225,-24.767785875867503,26.0784829264168,23.8959357886572,4.103324435877082,-0.2752227597512467,3.088470110009005,5258.5439453125,11.949,0.12,179.2159402733739,1.4101304403546848,88.80575075829061,1553.0,1613.0,1200.0,1528.0,1471.0,994.0,160.0,293.7,1649258556.8026035,1649258557.8781536,734d477f-a2a8-4cd4-bd48-51a88cb9330a
-0.2377634449989162,-0.075271843827084,-0.6352223243596645,-0.7685238594883093,-0.7987395770555934,0.9906008543581748,-0.7794241335382784,-0.8036308943475895,-24.523927778043333,26.06307715711266,24.089888735831725,4.092254728028776,-0.2674548820886428,3.0538073538997152,5248.8828125,11.947,0.12,179.21032585787617,1.406170495887762,88.77018824001208,1553.0,1613.0,1200.0,1528.0,1471.0,994.0,160.0,293.7,1649258557.9860685,1649258559.044689,734d477f-a2a8-4cd4-bd48-51a88cb9330a
-0.2058859445756821,-0.0855880080115415,-0.6680753649523627,-1.1604563882356729,-0.8735491212502438,1.3798214722866655,-0.705574449604091,-0.7376370529871199,-24.3379523159442,25.653950045732707,26.83801516838738,5.847172854358742,-0.2856539967169761,3.0948259562204936,5242.46240234375,11.91288888888889,0.1144444444444444,179.19423089655191,1.5386328249154948,88.68235580183527,1553.0,1710.0,1200.0,1528.0,1471.0,994.0,160.0,293.7,1649258560.0609868,1649258561.1970663,7871dffe-78ba-40b0-920c-15fe8b866c6d
-0.2393149912384053,-0.0845811212257462,-0.6854635109551651,-1.1766070455606512,-0.891122363256315,1.392872059547694,-0.7207546256383661,-0.7408721392242706,-24.54266304845749,25.602297731787047,26.59577956023688,5.911581309530349,-0.2773964388855467,3.163593251241041,5242.46240234375,11.914,0.11,179.20223891389884,1.5664212835421496,88.55262394764993,1553.0,1710.0,1200.0,1528.0,1471.0,994.0,160.0,293.7,1649258561.3055656,1649258562.4281366,7871dffe-78ba-40b0-920c-15fe8b866c6d
-0.2450346748580737,-0.0911028748921289,-0.6944966687880364,-1.1720312958380843,-0.8979333916060888,1.3971979807781372,-0.7283019802891977,-0.7577287748813442,-24.55481613426516,25.59159828160628,26.83752711745853,5.910492161336813,-0.3050497744984562,3.195516975088773,5257.4755859375,11.916333333333334,0.11,179.18176200676714,1.5688395618212554,88.45020753777531,1553.0,1710.0,1200.0,1528.0,1471.0,994.0,160.0,293.7,1649258562.536052,1649258563.876248,7871dffe-78ba-40b0-920c-15fe8b866c6d
-0.2043263067973794,-0.0854094891024096,-0.6548927811848705,-1.4192796094423386,-0.8976046744568675,1.6291541548680633,-0.6302389669920281,-0.6582588484781493,-24.11536768617212,26.141094688899205,28.75889282960639,6.9956024463551865,-0.2708738862664777,3.0027766700524023,5279.0556640625,11.862333333333334,0.1,179.172677855171,1.6816164437453325,88.29205678427338,1553.0,1814.0,1200.0,1528.0,1471.0,994.0,160.0,293.7,1649258564.9759848,1649258566.024609,62f11e63-133f-407e-af52-7f2081b96c57
-0.2183954132243359,-0.0917077149212194,-0.6690933782492837,-1.4289702059238791,-0.9100827938749472,1.6458924465998528,-0.6397060315500093,-0.667660169724157,-24.22739829502562,26.05991861145856,28.90291353059109,7.053796577687902,-0.2946880880868636,3.0519194244484127,5280.1396484375,11.868333333333332,0.1,179.1777185347785,1.667697656581708,88.15233615788189,1553.0,1814.0,1200.0,1528.0,1471.0,994.0,160.0,293.7,1649258566.1338851,1649258567.347927,62f11e63-133f-407e-af52-7f2081b96c57
-0.2109795478133619,-0.090208763486268,-0.6623086485686784,-1.417662316873345,-0.9031008325142772,1.634150659694698,-0.6371025887296267,-0.654432576910023,-24.25935022023916,26.15958465833702,28.95785472601723,7.002894594140311,-0.2902873406295566,3.0297494214943423,5279.4169921875,11.869555555555555,0.1,179.19027394029283,1.6815197420219272,87.96509411088508,1553.0,1814.0,1200.0,1528.0,1471.0,994.0,160.0,293.7,1649258567.4610112,1649258568.7719777,62f11e63-133f-407e-af52-7f2081b96c57
-0.2471910613101509,-0.0098044830310234,-0.4728358781122063,0.4592489382656028,-0.5310977662932757,-0.2641923276182221,-0.9751688781939551,-1.0035174849167854,-24.50630401301178,29.03980265020675,15.392275459446484,-1.4705464649563644,-0.0857706774222973,2.7518279280387308,5287.73974609375,11.968111111111112,0.1277777777777777,179.16620283583788,1.0086375253690223,87.80379312235596,1553.0,1349.0,1200.0,1528.0,1471.0,994.0,160.0,293.7,1649258569.418143,1649258570.628462,f96ab502-a7bb-4ceb-85c9-b0ed58452d87
-0.2584989414383689,-0.0197317489189933,-0.4878253954791758,0.4734626776667426,-0.5413011574148243,-0.263482297984815,-0.9919203273200312,-1.017678640005682,-24.78701834258593,29.124531281856207,15.849087012569726,-1.501266834864177,-0.1277646765626715,2.809344807187477,5301.916341145833,11.969,0.1222222222222222,179.1757377799192,1.0178687513336735,88.05087445667125,1553.0,1349.0,1200.0,1528.0,1471.0,994.0,160.0,293.7,1649258570.7365637,1649258571.8483346,f96ab502-a7bb-4ceb-85c9-b0ed58452d87
-0.2573944508354479,-0.0235448709392218,-0.4887195071796454,0.4624046250823695,-0.5419322951526371,-0.2509121427797477,-0.9870816043251855,-1.0131028907864683,-24.69705775271703,28.972689858513085,15.673992413417492,-1.4491094834878364,-0.1398488365087098,2.803853830178942,5297.54443359375,11.970666666666666,0.12,179.19136069928075,1.006595464818731,88.24738507037178,1553.0,1349.0,1200.0,1528.0,1471.0,994.0,160.0,293.7,1649258571.957122,1649258573.0014637,f96ab502-a7bb-4ceb-85c9-b0ed58452d87
-0.253055380549034,0.0062895215070279,-0.4444609849822615,0.8605734074139071,-0.4700352050964403,-0.663544625981207,-1.0717724123961163,-1.0982933514926607,-25.094545183343413,30.74858529954581,13.119468880046202,-3.26115187637257,-0.0486849568940862,2.76867120461462,5309.581271701389,11.955666666666666,0.12,179.18414043041813,0.8797183095413642,88.53116652891738,1553.0,1264.0,1200.0,1528.0,1471.0,994.0,160.0,293.7,1649258574.0891752,1649258575.1360433,b54c97ae-1203-4979-a3f8-d62b78eb0cc2
-0.2571183281735989,-0.0024806590797801,-0.4385046242068544,0.84934442179553,-0.4630795431256999,-0.6436111953309852,-1.0559282224748,-1.085578553021339,-24.857066352209745,30.514947573668724,13.34697892770168,-3.192125374208613,-0.0835195312762721,2.727942612909156,5313.9658203125,11.945666666666666,0.1188888888888888,179.1967519952656,0.8682424177969792,88.72796476947298,1553.0,1264.0,1200.0,1528.0,1471.0,994.0,160.0,293.7,1649258575.24484,1649258576.4575465,b54c97ae-1203-4979-a3f8-d62b78eb0cc2
-0.2523716482496708,0.0079857033181843,-0.441121215460098,0.8363535110728251,-0.4689701605449441,-0.6416388902914215,-1.0608852845966417,-1.092126608539566,-25.023157176643423,30.587604065341644,13.355492507044666,-3.158119918529587,-0.0417294009619614,2.7476089111211275,5312.136393229167,11.932444444444446,0.1155555555555555,179.19821365574796,0.8586374702056324,88.86930490960766,1553.0,1264.0,1200.0,1528.0,1471.0,994.0,160.0,293.7,1649258576.5660915,1649258577.6860783,b54c97ae-1203-4979-a3f8-d62b78eb0cc2
-0.2452182508336753,0.0155558124368634,-0.4008406815703345,1.2078896243201198,-0.4025221978411092,-1.007627971840751,-1.133476254150387,-1.1664491642523536,-25.04424215733201,32.42893984475073,10.87259213546747,-4.80483496035758,-0.0343410204950242,2.7054529272480377,5308.480794270833,11.916,0.11,179.1554156904087,0.7293470407113648,89.17917313732326,1553.0,1178.0,1200.0,1528.0,1471.0,994.0,160.0,293.7,1649258579.62629,1649258580.7566576,ac4c6606-2fad-4439-a75b-e12df35d7d4f
-0.2524753206256754,0.0137857955735217,-0.4107148487412723,1.2077631946392648,-0.4095643376017882,-1.004568369671783,-1.1456135216374563,-1.1746671056935225,-25.52155859384698,32.45942322105463,10.961824540931852,-4.7981900657684085,-0.0390020824211751,2.7453492995981867,5299.729600694444,11.923,0.11,179.15771518742926,0.7095296500054613,89.29325095684082,1553.0,1178.0,1200.0,1528.0,1471.0,994.0,160.0,293.7,1649258580.8659904,1649258581.9876573,ac4c6606-2fad-4439-a75b-e12df35d7d4f
-0.2682284721390287,0.0290964411101491,-0.3957582038264642,1.2054242438050862,-0.4001073888018009,-1.022369692767361,-1.132856748008223,-1.1592426612834177,-25.03228730228485,32.377750225169365,10.363096315394433,-4.832561748729653,0.0215004796920499,2.6952814199996222,5293.910807291667,11.919444444444444,0.11,179.1736614024115,0.7072663197851828,89.35137966122717,1553.0,1178.0,1200.0,1528.0,1471.0,994.0,160.0,293.7,1649258582.0964365,1649258583.1040895,ac4c6606-2fad-4439-a75b-e12df35d7d4f
-0.2617072237528239,0.0230015146242761,-0.3704075127682785,1.3793551995448956,-0.3649508027826133,-1.1805779554247693,-1.164102626246767,-1.1845357161848264,-25.391003033283987,33.91131908925395,9.753100648583816,-5.569271758803736,-0.013195438852718,2.6563755167922096,5319.463704427083,11.879333333333332,0.1,179.18055534001377,0.6228504821552124,89.53807453418048,1553.0,1088.0,1200.0,1528.0,1471.0,994.0,160.0,293.7,1649258584.9440165,1649258586.0826254,26d4b805-5212-489f-8e75-1e0523126cc3
-0.2637452719653242,0.0271696513429668,-0.3677514756471861,1.3755815238339246,-0.3642013270211031,-1.1781717426411944,-1.1616701153550986,-1.181879677612046,-25.3565141761279,33.96203649965919,10.200277383363984,-5.55479508142091,-0.0011359527462343,2.649376119448805,5323.13330078125,11.879666666666669,0.1,179.18904905970163,0.6412217937477772,89.57372584491821,1553.0,1088.0,1200.0,1528.0,1471.0,994.0,160.0,293.7,1649258586.190152,1649258587.3160746,26d4b805-5212-489f-8e75-1e0523126cc3
-0.2589065511094629,0.0281952496860693,-0.3685666948432622,1.3581332031663282,-0.3654504532050848,-1.1656541732888772,-1.1578175443371093,-1.1842595933060485,-25.41841352591817,33.78527338228073,9.852897580059777,-5.488606204590241,0.0083211748130367,2.646213887294358,5322.399685329861,11.878555555555558,0.1077777777777777,179.19226531989085,0.6726721883359271,89.5840750993306,1553.0,1088.0,1200.0,1528.0,1471.0,994.0,160.0,293.7,1649258587.4290292,1649258588.5396912,26d4b805-5212-489f-8e75-1e0523126cc3
-0.2472962508540054,-0.0406907713229202,-0.5520173480269925,0.0140735497458988,-0.6424541098550282,0.2004563161422564,-0.92100936643056,-0.9487662803067792,-24.81974738349968,27.686080822324257,18.787601642541155,0.5652544474855656,-0.1797192747608986,2.931805367161453,5311.08447265625,11.97325,0.12,179.21443080156735,1.0306274009254035,89.61284176911246,1553.0,1435.0,1200.0,1528.0,1471.0,994.0,160.0,293.7,1649258589.4480765,1649258590.5947082,33ebb8b2-90c5-4f9c-989e-71e5fa644491
-0.2430755188575181,-0.0293302974467645,-0.5419585926643993,0.015519906329818,-0.6344071050684552,0.1896612369364832,-0.915513208537982,-0.9490687008271848,-24.89964606650389,27.71041465935506,19.08457347458453,0.538403127906966,-0.1387171345471767,2.901048797941387,5325.706271701389,11.970222222222224,0.12,179.22833630780755,1.065537779916054,89.56312083786692,1553.0,1435.0,1200.0,1528.0,1471.0,994.0,160.0,293.7,1649258590.7076366,1649258591.815582,33ebb8b2-90c5-4f9c-989e-71e5fa644491
-0.2591958224260272,-0.0537605758456046,-0.5568166235818081,0.0266962982594358,-0.64229632547312,0.2031780961359585,-0.9267027552903034,-0.9534209223443614,-25.15227333257996,27.79343021293332,18.9663876276678,0.5432305971189155,-0.2298265852703453,2.9447433626662423,5333.443250868056,11.97011111111111,0.12,179.23255129343536,1.068982329691856,89.55545053542899,1553.0,1435.0,1200.0,1528.0,1471.0,994.0,160.0,293.7,1649258591.9244473,1649258593.0482624,33ebb8b2-90c5-4f9c-989e-71e5fa644491
-0.150298309199098,0.0078936624483443,-0.2757500332758939,-0.0045713017995706,-0.3944564825651213,0.1557244531147013,-0.6399821541386611,-0.6604415328799917,-22.79817937388044,27.5513066957886,18.89164945015196,0.5206912211837049,0.0070787256836358,1.8246490386690333,5350.082682291667,11.962555555555555,0.1111111111111111,179.19364198246353,1.08032664543098,89.47536960305023,1553.0,1435.0,1200.0,1435.0,1471.0,994.0,160.0,293.7,1649258594.9802668,1649258596.1174688,f6272fdd-97be-45ee-abd6-f38a2a122b78
-0.1603044678098281,0.0038833100283866,-0.2816406500118985,-0.0065699037549705,-0.3987166610453709,0.1637188601764371,-0.6429669092081802,-0.6691591222674438,-22.82675699696984,27.46457455636645,19.17474373420692,0.5423265480341254,-0.0103981602030298,1.842642884051393,5352.310546875,11.965555555555556,0.1177777777777777,179.20641595403129,1.069065216883346,89.45058967674142,1553.0,1435.0,1200.0,1435.0,1471.0,994.0,160.0,293.7,1649258596.22579,1649258597.2746952,f6272fdd-97be-45ee-abd6-f38a2a122b78
-0.1677597791842165,-0.0078321785590575,-0.2849278244918867,-0.0058467255390587,-0.3991900141571908,0.1743167089605493,-0.6428354221348574,-0.6719203487134234,-22.921374588738683,27.47333964286217,19.13240490297536,0.564350064758333,-0.0535907167164283,1.8460404638505512,5350.824869791667,11.965,0.12,179.1864581412765,1.0704088787330366,89.46497936750282,1553.0,1435.0,1200.0,1435.0,1471.0,994.0,160.0,293.7,1649258597.3836384,1649258598.3252385,f6272fdd-97be-45ee-abd6-f38a2a122b78
-0.0653708751034301,0.0456435696835789,-0.0008896668294192,-0.0115532596613728,-0.1448547485573865,0.1126493252329541,-0.359375754411684,-0.3879741739996478,-20.771327512134093,27.472901542740523,19.24091135603048,0.4538876376452035,0.1495057512245691,0.7169425273067276,5337.865993923611,11.964,0.12,179.17792951173288,1.0616675765457262,89.37030915105692,1553.0,1435.0,1200.0,1330.0,1471.0,994.0,160.0,293.7,1649258599.8865106,1649258601.046244,4b18631f-a2c5-4595-8a5c-45279c35b913
-0.0562325308175917,0.0537957613854393,0.0016348828579607,-0.0165892104311211,-0.1447627076898753,0.1076791181570198,-0.3577716132726802,-0.384765891817271,-20.652024358596343,27.422855158494045,19.02663598348614,0.453898629461937,0.1819153729893736,0.7118359853750537,5338.605034722223,11.958,0.11,179.1886255879731,1.0698560010072522,89.36276406875375,1553.0,1435.0,1200.0,1330.0,1471.0,994.0,160.0,293.7,1649258601.1550467,1649258602.257798,4b18631f-a2c5-4595-8a5c-45279c35b913
-0.0722607922056998,0.0606725294948277,0.0028051168610674,-0.0236895066503851,-0.1459460904411477,0.105036230259266,-0.3584684942005532,-0.3847527428383836,-20.694234330750938,27.460470987719155,18.68113420830257,0.4642075434712784,0.2120173827370976,0.7130824247722732,5349.712348090277,11.960333333333333,0.11,179.18310072384446,1.0642948396406866,89.38526119405998,1553.0,1435.0,1200.0,1330.0,1471.0,994.0,160.0,293.7,1649258602.3663204,1649258603.5132313,4b18631f-a2c5-4595-8a5c-45279c35b913
-0.0007187337457952,0.0789229197894139,0.2479099585795146,-0.0058598741601989,0.0787914327568903,0.0600545407956938,-0.1138895668658003,-0.1326133116967352,-19.036941690527048,27.893884840360656,19.033771535317182,0.3388765874427177,0.2789625978682998,-0.2715082669496254,5337.126953125,11.958000000000002,0.11,179.14395007952194,1.050260472869701,89.27172675403638,1553.0,1435.0,1200.0,1210.0,1471.0,994.0,160.0,293.7,1649258605.4092426,1649258606.365827,42a3759b-f546-43ba-9d8b-3b98cd836d92
0.0025815890799244,0.0791595963234214,0.2496324377272129,-0.0060045097976487,0.0788966223769847,0.0578455598080718,-0.1108127717460991,-0.1338887351222394,-18.73266197736007,27.88010771156671,18.75096993282657,0.334341498935218,0.2803298953127381,-0.2785332208780716,5313.241753472223,11.959333333333332,0.1155555555555555,179.14287546309254,1.0443682726297685,89.29449253344994,1553.0,1435.0,1200.0,1210.0,1471.0,994.0,160.0,293.7,1649258606.47799,1649258607.7903795,42a3759b-f546-43ba-9d8b-3b98cd836d92
0.013324074074313,0.0885083192744498,0.2573244245705977,-0.0070169595084767,0.0847214946702096,0.0513764012685612,-0.1071442853320865,-0.1300361669195596,-18.880227765661854,27.94432130018119,19.04455376612491,0.3228694817465258,0.3144490728208863,-0.3007682327437213,5297.54443359375,11.963,0.12,179.13709256959524,1.064102598274672,89.32662781458495,1553.0,1435.0,1200.0,1210.0,1471.0,994.0,160.0,293.7,1649258607.8984544,1649258609.020605,42a3759b-f546-43ba-9d8b-3b98cd836d92
0.0929525785874156,0.1189869966916349,0.4846653658607682,0.0179524151714256,0.2884473868250446,-0.0158002886396516,0.1098092067889313,0.0812107925901739,-17.21778361697302,28.62036319499987,18.702617434502933,0.1321736481022461,0.4313762502668244,-1.19272682365724,5300.0013427734375,11.9455,0.11,179.09564015152245,1.0425771237032448,89.20844334382893,1553.0,1435.0,1200.0,1071.0,1471.0,994.0,160.0,293.7,1649258610.9638257,1649258612.0881555,f7eb922d-5e2c-47c9-bdd4-d98da7e574a5
0.0696925351245364,0.1217482228559822,0.4809048390633998,0.0150071071795717,0.2838321947133999,-0.0152743407716574,0.1056279214505009,0.0787651353496056,-17.21933025909389,28.629852025202755,18.74573242850649,0.1398811641251402,0.4414857408761219,-1.1749973759658263,5300.092339409723,11.938555555555556,0.1077777777777777,179.10044481014862,1.0275046897225824,89.22027190337906,1553.0,1435.0,1200.0,1071.0,1471.0,994.0,160.0,293.7,1649258612.1964028,1649258613.3176658,f7eb922d-5e2c-47c9-bdd4-d98da7e574a5
0.0839543189581603,0.1292920343083676,0.4832953729374299,0.0164028918653741,0.2858373707040075,-0.0242316374815883,0.1060163135791034,0.0826394491876648,-17.209644254075073,28.518545154667567,18.717877764761848,0.1159859755661936,0.469935748879801,-1.1806018367534294,5300.410827636719,11.943375,0.10875,179.0936867174198,1.0327723204486254,89.21192417898469,1553.0,1435.0,1200.0,1071.0,1471.0,994.0,160.0,293.7,1649258613.4273045,1649258614.3832245,f7eb922d-5e2c-47c9-bdd4-d98da7e574a5
-0.3434132343621314,-0.0897485591112614,-0.8337151259080052,0.0917560471461998,-0.8953693944875226,0.1910681473765614,-1.2273742035625,-1.2499768317787705,-26.67318748096924,28.494496608266555,18.52496933874688,0.3592828745437942,-0.375678713936933,4.089215223868726,5291.00390625,11.932,0.11,179.214524147486,1.0655435903200354,89.47653908321811,1553.0,1435.0,1200.0,1613.0,1471.0,994.0,160.0,293.7,1649258616.483391,1649258617.636645,8608984a-9e45-4718-862d-a7b69cdf74f8
-0.3486069702593609,-0.085185961307726,-0.8330708393918471,0.0875090183433537,-0.8953825431652862,0.1906736865134939,-1.2260856301463512,-1.244993471376649,-26.63162041280896,28.3871685783952,18.556953486871137,0.3673233377178015,-0.358581950060007,4.08715331096211,5297.54443359375,11.940333333333331,0.11,179.20969292701304,1.063573898944231,89.38748935354921,1553.0,1435.0,1200.0,1613.0,1471.0,994.0,160.0,293.7,1649258617.7445724,1649258618.8491125,8608984a-9e45-4718-862d-a7b69cdf74f8
-0.3481467657634423,-0.0840683220429018,-0.8268909492081103,0.085102806916529,-0.8905438204010554,0.1903712665186863,-1.220970783110514,-1.254710366634917,-26.672293529567547,28.48432500573592,18.39728372092508,0.3729774359363105,-0.3519974239462705,4.064677090670006,5307.384765625,11.938666666666668,0.11,179.22576512103998,1.0622916495072343,89.30908409424683,1553.0,1435.0,1200.0,1613.0,1471.0,994.0,160.0,293.7,1649258618.9570754,1649258620.0793023,8608984a-9e45-4718-862d-a7b69cdf74f8
-0.4171116906493154,-0.1203324283356925,-1.085026307427629,0.1588932887402402,-1.122342334443842,0.1717658620069843,-1.5058112710120997,-1.534146744264984,-28.53380902760999,29.17777475784356,18.27182961960732,0.1555018666691444,-0.4991604578314685,5.132309809576338,5294.271484375,11.90877777777778,0.1,179.25528064517334,1.0305477168673325,89.20048939881298,1553.0,1435.0,1200.0,1694.0,1471.0,994.0,160.0,293.7,1649258622.0134037,1649258623.1526508,4aa271f9-a634-48ba-8923-907c4a6c3237
-0.430640184821592,-0.1292568536321866,-1.0760012382627226,0.1664371001317609,-1.1118567471813532,0.1706598543965166,-1.4951921695514607,-1.523158467055055,-28.4109093767096,29.203350125273232,17.933912128950894,0.136626458580221,-0.5308636076691058,5.089191695811055,5301.184787326389,11.894777777777778,0.1,179.25946831004447,1.0208703704565805,89.11105945528028,1553.0,1435.0,1200.0,1694.0,1471.0,994.0,160.0,293.7,1649258623.2608693,1649258624.3846524,4aa271f9-a634-48ba-8923-907c4a6c3237
-0.4142422399838223,-0.1216078519448184,-1.0773413947410893,0.1575617304538437,-1.1150427797383422,0.1728850182752699,-1.4977966259521571,-1.526066355155652,-28.54975708855569,29.21469658264308,18.139131467470264,0.1616186653789788,-0.5020033430061447,5.100101556473728,5287.73974609375,11.904111111111112,0.1,179.27353698191487,1.0247651553931396,89.02428797315451,1553.0,1435.0,1200.0,1694.0,1471.0,994.0,160.0,293.7,1649258624.4972622,1649258625.6166232,4aa271f9-a634-48ba-8923-907c4a6c3237
-0.4728884727895217,-0.1270777099296845,-1.2281631261944073,0.2530379498442335,-1.2528038041589469,0.0980411239336743,-1.691457946354119,-1.717466103302936,-29.865608742672613,30.393558855953323,17.902558657639894,-0.2223316898096088,-0.5324050897010411,5.76749372242987,5273.282280815973,11.855444444444446,0.09,179.2764466425013,1.0024765998739322,88.89364466816998,1553.0,1435.0,1200.0,1774.0,1471.0,994.0,160.0,293.7,1649258627.5503552,1649258628.6818924,a5cdcd5d-d1ce-4a9e-b911-adcb597cb398
-0.4853797372831071,-0.1418699942489885,-1.2404703159869523,0.2614399663070205,-1.2610348947483263,0.1030902231846064,-1.701450968808496,-1.7343096065877612,-29.895473141872586,30.416376337165293,17.57400019329195,-0.2304675434035098,-0.5865760625759744,5.807498903911291,5274.72412109375,11.847777777777775,0.0977777777777777,179.26295018870138,0.9897885037054448,88.77028462157035,1553.0,1435.0,1200.0,1774.0,1471.0,994.0,160.0,293.7,1649258628.7898667,1649258630.1143,a5cdcd5d-d1ce-4a9e-b911-adcb597cb398
-0.4754919152414505,-0.1372942476424506,-1.228176274884449,0.2583237254496916,-1.251028728516676,0.10227500405316,-1.6891174753855165,-1.7122197659956624,-29.7864432894648,30.434480621005587,17.78142868200267,-0.2244498489458662,-0.5708609910894937,5.7604394645371295,5274.72412109375,11.839777777777776,0.09,179.26548191215372,0.9842573429961714,88.70421316608919,1553.0,1435.0,1200.0,1774.0,1471.0,994.0,160.0,293.7,1649258630.2226353,1649258631.3395555,a5cdcd5d-d1ce-4a9e-b911-adcb597cb398
-0.5062335748639124,-0.1360582700862954,-1.356376180133844,0.3463936873487236,-1.3711947754220006,0.0263675809192144,-1.8583151473926045,-1.887005648452824,-30.69783621944661,31.62685187474532,17.537174677499483,-0.5926650546055972,-0.5765601575009481,6.339212510775493,5273.915893554688,11.78175,0.07,179.27829307030694,0.9575047430327824,88.60361643244596,1553.0,1435.0,1200.0,1856.0,1471.0,994.0,160.0,293.7,1649258632.4567966,1649258633.600207,6cf408b0-1b43-476e-8669-18459f68a74a
-0.5213019847374109,-0.1322188505098526,-1.3570204666095078,0.3489313855573995,-1.371129031637125,0.0190832031107971,-1.862522736515069,-1.8832188172774087,-30.92172611633908,31.63188911497505,17.351199011999153,-0.6148994843455141,-0.5592802683240621,6.346057788834466,5307.755425347223,11.783111111111111,0.0722222222222222,179.2703966127165,0.94262136358942,88.46300807118983,1553.0,1435.0,1200.0,1856.0,1471.0,994.0,160.0,293.7,1649258633.7091458,1649258634.8250844,6cf408b0-1b43-476e-8669-18459f68a74a
-0.5200791556924419,-0.133139259299419,-1.3768224227384038,0.3471563116552141,-1.3894846300021828,0.0210686562316702,-1.882429894368564,-1.9064000067665423,-31.02871363992965,31.584486786302083,17.12127337879724,-0.607824521499263,-0.5609748971604754,6.425887986869473,5327.912109375,11.79588888888889,0.08,179.2759002273677,0.9398206302906952,88.40198792005484,1553.0,1435.0,1200.0,1856.0,1471.0,994.0,160.0,293.7,1649258634.9329586,1649258636.0535252,6cf408b0-1b43-476e-8669-18459f68a74a
-0.2399066827054778,-0.0442540680921501,-0.544404250789648,0.0125088546610469,-0.6058349784361371,0.2118693839393982,-0.8843902271203004,-0.9091097895375024,-25.25093732543353,24.737292633673903,19.91631197559577,0.5752247846423448,-0.1994104111984879,2.82146920859639,7872.522677951389,11.66288888888889,7.084444444444444,179.15641896930677,0.8682054683708442,77.77242254413265,1553.0,1435.0,1350.0,1528.0,1471.0,994.0,160.0,293.7,1649258641.0136178,1649258641.9964116,6aa6dd33-b134-4ec2-ba31-8990398ed8df
-0.2580518856740432,-0.0507495242711442,-0.547270667573192,0.0122195833105417,-0.6091484512006191,0.2168395908947661,-0.8867438452802997,-0.9061907774175196,-25.226399847766093,24.91236172746412,19.65806744909432,0.5880350402248691,-0.2218003075733402,2.832033160338338,7878.1494140625,11.663222222222224,7.072222222222222,179.14114970196226,0.8352779979428101,73.33406089189107,1553.0,1435.0,1350.0,1528.0,1471.0,994.0,160.0,293.7,1649258642.1048298,1649258643.220852,6aa6dd33-b134-4ec2-ba31-8990398ed8df
-0.2722393307533858,-0.0623861208937607,-0.5534637050128643,0.0129033155983553,-0.6123041390453686,0.2235980204811486,-0.888321689360984,-0.9138433226511072,-25.15422817313261,24.797394122302983,19.058915411280275,0.6005501163998548,-0.2611239012808438,2.844870197519114,7883.786024305556,11.662777777777778,7.114444444444445,179.10761954441674,0.8318968052863401,69.0635215410162,1553.0,1435.0,1350.0,1528.0,1471.0,994.0,160.0,293.7,1649258643.328416,1649258644.6579826,6aa6dd33-b134-4ec2-ba31-8990398ed8df
-0.0505522938459767,0.3064742482861263,-0.538684566621997,-0.2346209066866528,-0.6893292296340343,0.1091386233239983,-0.9356175766063572,-0.9648208482262512,-25.063737139656887,23.79520033384932,21.64887126356198,0.8962492133545016,1.1301270134837316,3.04356416202035,7890.2373046875,11.635,7.136666666666667,179.07802054019356,0.8801633627704075,63.92424132268847,1631.0,1435.0,1350.0,1528.0,1531.0,994.0,160.0,293.7,1649258645.5642176,1649258646.5857775,c1b18344-c337-474f-8e23-1769fde4bda4
-0.0550885942906247,0.2975988788970238,-0.5461135818775937,-0.2352783413971789,-0.69345792158986,0.1120839313108274,-0.9410085448408058,-0.9634665316936708,-25.20768094083173,23.70044665422436,20.69838299582408,0.903128705377712,1.1058903118417192,3.064507705721612,7885.396484375,11.642888888888889,7.145555555555556,179.07429581036615,0.9066174087618726,61.52197499913578,1631.0,1435.0,1350.0,1528.0,1531.0,994.0,160.0,293.7,1649258646.6938124,1649258647.7397892,c1b18344-c337-474f-8e23-1769fde4bda4
-0.0542996724389366,0.2927207128971416,-0.5437073697548594,-0.2328589809484582,-0.6920773079241169,0.1169358001171391,-0.9384708449459888,-0.9646893607430294,-25.1410640628,23.90982931453375,21.041292890401515,0.91017004930374,1.0839417407671377,3.055609435088308,7886.203287760417,11.649444444444445,7.097777777777778,179.07990415458465,0.9642703833577484,59.581689010664405,1631.0,1435.0,1350.0,1528.0,1531.0,994.0,160.0,293.7,1649258647.8482325,1649258648.957056,c1b18344-c337-474f-8e23-1769fde4bda4
0.199430717860939,0.736752146252965,-0.5293095435381843,-0.5391973656754401,-0.7960440935821622,-0.0246493614378225,-0.9989680332850808,-1.028802444037665,-24.35863797280032,23.061118643786937,22.489478408553573,1.27874904170466,2.7695716973157194,3.3177051191941915,7892.65771484375,11.610333333333331,7.136666666666666,178.82771232095035,1.1118960880819289,55.607470966196296,1712.0,1435.0,1350.0,1528.0,1591.0,994.0,160.0,293.7,1649258651.0940197,1649258652.2322896,9c060953-a778-410b-984a-38b814ef7b27
0.1908183221386303,0.734792990701961,-0.5230376132814385,-0.5365939233875429,-0.7875894775666704,-0.0230057744618684,-0.991183999765088,-1.0227671883089848,-24.44409749416952,22.929913620469048,22.84697645858598,1.276026168552426,2.759734880442048,3.286841563797556,7892.65771484375,11.614,7.15,178.84035727783376,1.1790672040194652,54.38932570047222,1712.0,1435.0,1350.0,1528.0,1591.0,994.0,160.0,293.7,1649258652.3402894,1649258653.641597,9c060953-a778-410b-984a-38b814ef7b27
0.1949601612790588,0.7355161689243114,-0.5168840219087457,-0.5367517077982984,-0.7832241085501811,-0.0257144059282189,-0.9860823027266342,-1.005253113617433,-24.35794129920012,23.040287884455747,22.58370435221395,1.2713349287952298,2.7645822235260766,3.26497377195697,7892.65771484375,11.601333333333336,7.102222222222221,178.81974528473847,1.2177218532853753,53.45623306738926,1712.0,1435.0,1350.0,1528.0,1591.0,994.0,160.0,293.7,1649258653.7498963,1649258654.8943577,9c060953-a778-410b-984a-38b814ef7b27
0.4687554448307212,1.1844520736906652,-0.4836835553283777,-0.859184164227377,-0.8712941190907861,-0.1604885498078658,-1.0288418900100502,-1.047394712639541,-23.90845727431336,22.329272248831657,23.71747722087084,1.693154799257418,4.476925890285253,3.4542523695320706,7892.65771484375,11.565,7.143333333333334,178.530753909676,1.3178574305799668,51.758252593183535,1796.0,1435.0,1350.0,1528.0,1650.0,994.0,160.0,293.7,1649258657.034434,1649258658.1725795,859fc91f-576e-4853-b041-5a29a10229c8
0.459354127829244,1.1945108260770787,-0.4758469303199151,-0.8579350374185648,-0.8663370579007416,-0.1737687341302337,-1.0237138950335651,-1.0491960853311295,-23.68409303283146,22.29608094182838,23.44347578055841,1.6607341720955455,4.515835243399856,3.4305294515626708,7892.65771484375,11.572777777777778,7.1511111111111125,178.53728205270272,1.3634182430124386,51.25604699735029,1796.0,1435.0,1350.0,1528.0,1650.0,994.0,160.0,293.7,1649258658.2809584,1649258659.4014454,859fc91f-576e-4853-b041-5a29a10229c8
0.457881473980081,1.1848859806470835,-0.483657257852843,-0.8621952170542647,-0.870676129969625,-0.1608304158013745,-1.0260149185008829,-1.045724827106557,-23.761519437249927,22.12147118109887,23.34808051321163,1.6978176300363168,4.481156136997303,3.449042937260212,7888.623697916667,11.572666666666668,7.135555555555555,178.5365383209931,1.3761892026564817,50.82300389705259,1796.0,1435.0,1350.0,1528.0,1650.0,994.0,160.0,293.7,1649258659.5163257,1649258660.6360867,859fc91f-576e-4853-b041-5a29a10229c8
0.7046167357366068,1.579452074761532,-0.4414104868840367,-1.1324931357977854,-0.9426915790692704,-0.2870973596515838,-1.059662454978745,-1.0835273551024955,-23.15227780565128,22.37806280597204,24.999811399994588,2.028179385292201,5.978029603300937,3.5854734145526628,7892.65771484375,11.505333333333333,7.133333333333334,178.18370289102873,1.463541808186146,50.27316911540711,1886.0,1435.0,1350.0,1528.0,1710.0,994.0,160.0,293.7,1649258661.5404615,1649258662.6801784,a6efc184-15d3-4789-8596-313d33eaba3c
0.6776882084396434,1.5845537695490717,-0.4371240109510844,-1.1406321850674206,-0.9406140838504724,-0.2872945901717768,-1.053535158138721,-1.07800489860284,-22.94699147019284,22.26796734264263,24.657477510376435,2.045628250719498,6.000017154711579,3.568328744058705,7892.65771484375,11.502111111111113,7.12,178.1857109666447,1.490230665646265,50.00758214244557,1886.0,1435.0,1350.0,1528.0,1710.0,994.0,160.0,293.7,1649258662.789085,1649258663.826434,a6efc184-15d3-4789-8596-313d33eaba3c
0.6802390552627334,1.5750604096636651,-0.4339288772783658,-1.1320460799846033,-0.9354203462380504,-0.2855458134201551,-1.0493933163600773,-1.0750201425904211,-22.93181048391108,22.34558849330277,24.734898674945235,2.030883475536064,5.9627643916384265,3.550016807827565,7892.65771484375,11.50711111111111,7.124444444444445,178.18711039651467,1.4813035372532548,49.80876216589567,1886.0,1435.0,1350.0,1528.0,1710.0,994.0,160.0,293.7,1649258663.9348755,1649258665.1435935,a6efc184-15d3-4789-8596-313d33eaba3c
-0.5344638333553839,-0.5548837644045785,-0.5746199636517585,0.3744398543545422,-0.5112037835729303,0.3621063782577814,-0.837633439219967,-0.8658768530828285,-25.4287562118426,26.71416323490551,17.56885610910402,0.1075363748814658,-2.1389616736044963,2.604334361437655,7892.65771484375,11.673444444444446,7.190000000000001,179.41426468175402,1.3241032946948914,49.338138226419694,1475.0,1435.0,1350.0,1528.0,1408.0,994.0,160.0,293.7,1649258667.0698233,1649258668.20922,dcdc675a-e5ab-452a-ad65-04dabd3be4c5
-0.5270216692581122,-0.5507419238909494,-0.5641930442997761,0.3775297977136314,-0.5007111211266516,0.3533756445800554,-0.8247871565946703,-0.8499274763254202,-25.0734916925024,26.41846765510046,17.400486130496635,0.0796580765922348,-2.1241739114023104,2.558200156768313,7899.9326171875,11.672555555555554,7.192222222222223,179.40778814460103,1.3377684992276118,49.21405076467349,1475.0,1435.0,1350.0,1528.0,1408.0,994.0,160.0,293.7,1649258668.3181326,1649258669.4339936,dcdc675a-e5ab-452a-ad65-04dabd3be4c5
-0.5340562236967166,-0.5596567425825009,-0.5752905473163553,0.3787131803151555,-0.5106515381548775,0.3630530843132742,-0.8352403753669936,-0.8544637788364322,-25.197115720433995,26.60296623230248,17.604720153209822,0.0993759633030676,-2.1593911354390243,2.600807199754466,7896.699327256944,11.672,7.194444444444445,179.43802615096658,1.3345716979627975,49.07666264788354,1475.0,1435.0,1350.0,1528.0,1408.0,994.0,160.0,293.7,1649258669.5421464,1649258670.6645162,dcdc675a-e5ab-452a-ad65-04dabd3be4c5
-0.7537710156339841,-0.9584174285828252,-0.5968281185845496,0.6620807075140243,-0.4324036279206443,0.4858750458209125,-0.7984108594409446,-0.8228542973813191,-25.80627456999463,28.182125924095004,16.659331022204675,-0.2548957280718523,-3.678522909246604,2.422978419303872,7892.65771484375,11.606000000000002,7.17,179.64319592671487,1.3652713231377258,48.97102656272517,1396.0,1435.0,1350.0,1528.0,1340.0,994.0,160.0,293.7,1649258671.581786,1649258672.7144794,4fa8fb15-6e9e-411b-b70b-2d98c1175bb9
-0.7505627323890931,-0.953236839171968,-0.594632285435258,0.6621464509919346,-0.4302866872324024,0.482377492938666,-0.7963728104831169,-0.8270750308535681,-25.771385089862605,28.057747717123483,16.909796852618044,-0.2635611897311267,-3.6614303603726768,2.4152562942463227,7892.65771484375,11.603555555555555,7.180000000000001,179.64492320566495,1.354854110714693,48.94709737442298,1396.0,1435.0,1350.0,1528.0,1340.0,994.0,160.0,293.7,1649258672.823228,1649258673.9416685,4fa8fb15-6e9e-411b-b70b-2d98c1175bb9
-0.75821527682808,-0.9607053031200112,-0.5966571853963835,0.6675637133184472,-0.4333108880909623,0.4828376972696459,-0.7998572167133406,-0.8308618573057233,-25.69514007180406,28.35985954892777,16.619002891096738,-0.2728531308278254,-3.688194210100643,2.4257595813067714,7892.65771484375,11.606,7.176666666666667,179.67618574040603,1.3796111274306582,48.92892983014066,1396.0,1435.0,1350.0,1528.0,1340.0,994.0,160.0,293.7,1649258674.0495548,1649258675.1772835,4fa8fb15-6e9e-411b-b70b-2d98c1175bb9
-1.055441720303236,-1.4568191738112075,-0.6338811569743094,1.042748580461211,-0.3494879332520735,0.6158367473183811,-0.7742961396119857,-0.8049063183566995,-26.24035220804761,30.88679088058335,15.463973987842932,-0.8058723828662415,-5.58333722419378,2.2661489103893824,7892.65771484375,11.559,7.139999999999999,179.88441088744307,1.375539054024861,48.94090087502597,1314.0,1435.0,1350.0,1528.0,1268.0,994.0,160.0,293.7,1649258676.904981,1649258677.843694,a73de96d-37b1-45af-b5ef-82613972fe49
-1.0423850560438206,-1.4494953420617145,-0.6329738965068552,1.0395928935295944,-0.3474498849087135,0.6132333057157813,-0.7745985596799185,-0.7944531000573596,-26.48761745585606,30.70738611064745,15.70657777843723,-0.8058341221566863,-5.555825505423209,2.263668299531981,7892.65771484375,11.559333333333331,7.17111111111111,179.8959174794648,1.3158341293339584,48.97970621534044,1314.0,1435.0,1350.0,1528.0,1268.0,994.0,160.0,293.7,1649258677.952561,1649258679.2668514,a73de96d-37b1-45af-b5ef-82613972fe49
-1.0399262482242693,-1.446997087188581,-0.6252950552925791,1.037817819710933,-0.340507372077203,0.6121419640231022,-0.7657889291975528,-0.7850386290972646,-26.37268871313168,30.622214127699152,15.730930269116747,-0.8044029072282303,-5.546780900914983,2.231638604246989,7892.65771484375,11.561666666666666,7.186666666666667,179.90811771514225,1.3101973615678302,48.99002093935202,1314.0,1435.0,1350.0,1528.0,1268.0,994.0,160.0,293.7,1649258679.3751354,1649258680.496885,a73de96d-37b1-45af-b5ef-82613972fe49
-1.1772776294238314,-1.6682373165918238,-0.612540815705713,1.193524674038588,-0.28024688807464,0.6474462100219377,-0.732378077900854,-0.7598194185431385,-26.62021457412254,32.17216046610413,10.479514106570896,-1.0663579143334676,-6.346607187615258,2.0509855554068284,7885.396484375,11.389,7.110000000000001,179.96962432752812,1.2905261440249456,49.02862440963102,1227.0,1435.0,1350.0,1528.0,1189.0,994.0,160.0,293.7,1649258681.404607,1649258682.5499618,7f7ef2c4-dd11-41cc-aaa9-28c1358a7e09
-1.1634320415304316,-1.663122466924967,-0.6020744500657228,1.1952471532035984,-0.2700697957703869,0.6430150998178094,-0.7226743360349842,-0.7490243342707221,-26.61846998390008,32.09189488463466,10.865905495496332,-1.0801491655005728,-6.330410240007724,2.010254252192641,7878.1494140625,11.403,7.096666666666666,179.9815862654945,1.2553933584816923,49.15218253171656,1227.0,1435.0,1350.0,1528.0,1189.0,994.0,160.0,293.7,1649258682.6619527,1649258683.7720244,7f7ef2c4-dd11-41cc-aaa9-28c1358a7e09
-1.1477754720166815,-1.6676931621999196,-0.6123324593340178,1.193565131689539,-0.2786083579951081,0.650005654068305,-0.7307971992441864,-0.7550717256101789,-26.678410578497285,32.040254243733074,10.932964129966916,-1.0615188237263284,-6.348167306469753,2.046938158817436,7878.1494140625,11.405111111111111,7.134444444444445,179.97468322097336,1.2526782515649064,49.19681288502819,1227.0,1435.0,1350.0,1528.0,1189.0,994.0,160.0,293.7,1649258683.8801384,1649258685.001694,7f7ef2c4-dd11-41cc-aaa9-28c1358a7e09
-0.245402838367397,-0.0491190858839014,-0.5470865855957767,0.0079199596898518,-0.6064266699529373,0.2159586283037122,-0.8819971631547368,-0.9015755825144536,-25.124615337747905,24.4688984086676,19.22113533213201,0.5928052774871392,-0.2119995350692796,2.82111332334306,7878.954644097223,11.666666666666666,7.206666666666667,179.45341077261708,1.2712972523786226,49.41872421334209,1553.0,1435.0,1350.0,1528.0,1471.0,994.0,160.0,293.7,1649258686.9377851,1649258687.9251275,a1f4e8aa-51e5-43d4-b98a-591b4526ce4d
-0.2379738241656989,-0.0372326640656118,-0.5410118862472405,-0.0017443322891826,-0.6044280675952912,0.2143413387648722,-0.8768165741643287,-0.8955797742868263,-25.009458653136104,24.45740394233592,19.42451689699476,0.611287955293992,-0.1684610529452413,2.804460237903433,7892.65771484375,11.666222222222224,7.201111111111112,179.4802093992806,1.2957207756219882,49.45021442105547,1553.0,1435.0,1350.0,1528.0,1471.0,994.0,160.0,293.7,1649258688.0325737,1649258689.0976613,a1f4e8aa-51e5-43d4-b98a-591b4526ce4d
-0.2437461024571227,-0.0497107772597691,-0.5465606375836003,0.0053559638179446,-0.605532558311592,0.2194956274208492,-0.8808400772010226,-0.905138881183043,-25.211660909898303,24.456093974181115,19.3129351777511,0.6064492567342846,-0.2140674621123626,2.817510923706489,7898.315972222223,11.668,7.199999999999999,179.46288652172564,1.2915653999958452,49.49746187518409,1553.0,1435.0,1350.0,1528.0,1471.0,994.0,160.0,293.7,1649258689.2066069,1649258690.330301,a1f4e8aa-51e5-43d4-b98a-591b4526ce4d
-0.2211960857921938,-0.0547072819949716,-0.6023637215587917,-0.3962710032878261,-0.6991907554029697,0.6103668902106097,-0.826115175668585,-0.8498222867699821,-25.16300717651135,23.48606758042102,21.613401652905505,2.381943368353672,-0.2076459211299122,2.94277658702286,7899.9326171875,11.651666666666666,7.193333333333334,179.46701802726358,1.396766143600399,49.609164306690296,1553.0,1522.0,1350.0,1528.0,1471.0,994.0,160.0,293.7,1649258691.4420426,1649258692.5784044,f974eaf0-7d13-444c-84fd-81c9ec860fc5
-0.2354887202448247,-0.0687237927585212,-0.5923707092360445,-0.3780863527910998,-0.6852268345005847,0.6146665134654343,-0.8172003553163322,-0.8441026013218982,-25.42086991341856,23.72331464533054,22.72337486148629,2.352702539015297,-0.2698303263919328,2.897194106075588,7899.9326171875,11.6485,7.1875,179.43597481748589,1.415101857575102,49.66924236603851,1553.0,1522.0,1350.0,1528.0,1471.0,994.0,160.0,293.7,1649258692.6874278,1649258693.8103237,f974eaf0-7d13-444c-84fd-81c9ec860fc5
-0.2555799304599068,-0.067290584796903,-0.585441344073304,-0.3827409921756561,-0.6807825735160005,0.6112478527726437,-0.8083512784823209,-0.8367787734599229,-25.07301883918769,23.671695264857952,21.88771888180652,2.3555648140188232,-0.2584990365730046,2.868314607647652,7899.9326171875,11.65277777777778,7.191111111111111,179.4469463780226,1.3922454002855291,49.70193762782171,1553.0,1522.0,1350.0,1528.0,1471.0,994.0,160.0,293.7,1649258693.9183702,1649258694.969394,f974eaf0-7d13-444c-84fd-81c9ec860fc5
-0.2440748199062004,-0.0921810679986036,-0.6682387124946603,-0.8686906759855155,-0.805958214803641,1.1075190547057234,-0.7537973130716564,-0.7841182203615041,-25.304107042897414,22.738658397712985,25.25815658785608,4.5570488693564535,-0.3255239287465759,3.0716994928359185,7899.9326171875,11.625,7.176666666666667,179.46414024089324,1.5468834918474264,49.82785330353576,1553.0,1613.0,1350.0,1528.0,1471.0,994.0,160.0,293.7,1649258696.9721792,1649258698.1079414,f96c0e2d-eee8-47b0-9750-bfd63e460edf
-0.2467308568589141,-0.0930225845856345,-0.6675155339561815,-0.868453999119377,-0.80545856411594,1.1067564303342077,-0.7545993839229171,-0.7800026762826947,-25.40639711672604,22.84049281325684,25.062645664066803,4.555429691860183,-0.3262049024842274,3.0706863286252326,7899.9326171875,11.63811111111111,7.184444444444444,179.4863747833714,1.5528447528889664,49.83011485506094,1553.0,1613.0,1350.0,1528.0,1471.0,994.0,160.0,293.7,1649258698.2164996,1649258699.3366616,f96c0e2d-eee8-47b0-9750-bfd63e460edf
-0.2337136460857898,-0.0850807716336733,-0.6625453248791037,-0.8720041490671905,-0.804104247754093,1.1029170112209732,-0.7497343641867095,-0.7800947171127618,-25.10373675092383,22.83669716021844,25.19454174393461,4.555205970860226,-0.2989773028003147,3.056469082612184,7899.9326171875,11.634,7.180000000000001,179.45475100751423,1.554980823404084,49.84575636771522,1553.0,1613.0,1350.0,1528.0,1471.0,994.0,160.0,293.7,1649258699.444687,1649258700.5651934,f96c0e2d-eee8-47b0-9750-bfd63e460edf
-0.2256929404163787,-0.092207365365059,-0.7309974642576349,-1.351576901157395,-0.9205097157407236,1.5708396777047264,-0.6916171031642563,-0.7160210930268783,-25.2790799078296,22.153783411127137,27.91015010816396,6.6808983563389805,-0.2938391067424707,3.224499270365905,7892.65771484375,11.595666666666666,7.16,179.41763120610494,1.6949299053937643,49.85156089014488,1553.0,1710.0,1350.0,1528.0,1471.0,994.0,160.0,293.7,1649258701.4765282,1649258702.621626,0f693ee5-fdab-4996-982a-a4d468affa55
-0.2101972002192726,-0.0925290027382537,-0.7301397643296266,-1.3412131900806257,-0.916029547758839,1.5711982325867024,-0.6924257482657552,-0.7245515666823411,-25.60154326626025,22.10069029643257,29.274706466946093,6.658072029359039,-0.3060796761268616,3.220152140804634,7897.507649739583,11.602666666666666,7.166666666666667,179.40796421169964,1.701812139182297,49.8434614241541,1553.0,1710.0,1350.0,1528.0,1471.0,994.0,160.0,293.7,1649258702.740609,1649258703.849858,0f693ee5-fdab-4996-982a-a4d468affa55
-0.2218929667778298,-0.0906426704469154,-0.7309185719489639,-1.3401638218807297,-0.9202204441163556,1.5603996116287109,-0.6938786797592559,-0.7174148555746157,-25.129264450453324,22.16695473070252,28.128491159943305,6.6318944839487175,-0.2923660272997038,3.2279144500370087,7894.476440429687,11.60325,7.175,179.36951366176703,1.6891403595768266,49.81828819278559,1553.0,1710.0,1350.0,1528.0,1471.0,994.0,160.0,293.7,1649258703.95737,1649258705.0693865,0f693ee5-fdab-4996-982a-a4d468affa55
