raw_voltage_G-,raw_voltage_G0,raw_voltage_G1,raw_voltage_G2,raw_voltage_G3,raw_voltage_G4,raw_voltage_G5,raw_voltage_G6,load_x,load_y,load_z,load_l,load_m,load_n,rpm,voltage,current,roll,pitch,yaw,aileron1_pwm,elevator_pwm,throttle_pwm,rudder_pwm,aileron2_pwm,pbaro,pdiff,Tt,sample_start_time,sample_end_time,uid
-0.4483398510924104,-0.203629425855002,-1.0484729067645842,0.0341647577275741,-1.0497483310153382,0.3639997903152043,-1.4140990146988373,-1.4465763286187387,-32.630425102100546,27.512992072540687,18.20519707816184,0.8575454943200036,-0.7643436297260124,4.839580971750789,4777.84130859375,11.958000000000002,0.16,179.11962094569833,0.8235082242656211,93.12631441464669,1553.0,1435.0,1200.0,1528.0,1471.0,994.0,160.0,293.7,1649259910.9832351,1649259911.9583626,2195d4c6-9c51-4959-b24d-c04af01bd2c9
-0.4461308696789651,-0.2054176486749386,-1.0502611303762497,0.0339280812579441,-1.0497351822382053,0.3668267598349152,-1.4130076717385305,-1.4377535443100706,-32.58347602011682,27.32520123582656,18.326262876608457,0.8631409582411212,-0.7725432584210361,4.840508976178981,4798.038899739583,11.956333333333331,0.16,179.1206576166324,0.8364588261854125,92.91158313297028,1553.0,1435.0,1200.0,1528.0,1471.0,994.0,160.0,293.7,1649259912.0667984,1649259913.4006348,2195d4c6-9c51-4959-b24d-c04af01bd2c9
-0.4538491561116436,-0.2076529272990698,-1.0480521480333571,0.0404892807206331,-1.0504189150780967,0.3627638130087696,-1.4149536810494463,-1.4368199856585488,-32.50117022091151,27.73072541364736,18.291936448302884,0.8420447358993418,-0.781866127208656,4.840829631191835,4797.14208984375,11.95688888888889,0.16,179.1115218591625,0.8306278486306967,92.746958877955,1553.0,1435.0,1200.0,1528.0,1471.0,994.0,160.0,293.7,1649259913.509741,1649259914.8275387,2195d4c6-9c51-4959-b24d-c04af01bd2c9
-0.2211960858466299,0.1887802743421151,-1.001295353548509,-0.2837181441908285,-1.1081154345139388,0.2866460155857607,-1.414427732304408,-1.4470496831818505,-32.00903192004623,26.175047210492743,20.446891390692613,1.3949370406147668,0.725271484609486,4.90407867439662,4801.91943359375,11.95022222222222,0.1555555555555555,179.00040530610514,0.9043629364431742,92.35931225052084,1637.0,1435.0,1200.0,1528.0,1535.0,994.0,160.0,293.7,1649259916.971472,1649259918.1125972,89ca2882-f325-47d2-ba26-e3deb0adf26a
-0.2268105797681084,0.1914889056161369,-0.99632514322546,-0.2726995353448546,-1.1044995408014078,0.2759298287253981,-1.4154927783170783,-1.435281587151812,-32.073595121079286,26.446574591373857,20.755100581551897,1.348065157870564,0.7321188740712813,4.894597619526114,4809.105197482639,11.923,0.1411111111111111,179.0057267823785,0.9177220394077787,92.19033716500428,1637.0,1435.0,1200.0,1528.0,1535.0,994.0,160.0,293.7,1649259918.2210026,1649259919.3395402,89ca2882-f325-47d2-ba26-e3deb0adf26a
-0.2212618293345355,0.1898321700013517,-0.998573571838292,-0.2759341149918199,-1.1083652600409797,0.2804398312929817,-1.4180436276179935,-1.4444988324506896,-32.065656988155155,26.620373834222573,20.721452998135373,1.3665349667123388,0.7264057968825428,4.906217528133051,4799.83740234375,11.932333333333334,0.1455555555555555,179.0019914278124,0.9252482201110288,92.06435356685348,1637.0,1435.0,1200.0,1528.0,1535.0,994.0,160.0,293.7,1649259919.4487183,1649259920.698243,89ca2882-f325-47d2-ba26-e3deb0adf26a
0.0482601602088294,0.6359805480126242,-0.9489635109015616,-0.608241190466159,-1.1756997851709683,0.1581043670416708,-1.4332961316500437,-1.4521908283951674,-31.50355397310977,25.237329214063188,22.11898505199668,1.8350417935917085,2.4274044235463417,5.006024042813622,4793.86279296875,11.928999999999998,0.14,178.87037368250623,0.999033733929488,91.914675283562,1723.0,1435.0,1200.0,1528.0,1599.0,994.0,160.0,293.7,1649259921.343056,1649259922.408357,f54d60dd-aacd-4e48-af35-00df4f822fd2
0.0355322221592403,0.6377424731379123,-0.9432306756787904,-0.6114889195875133,-1.1740298991112608,0.1601555635670287,-1.4286020419314998,-1.4613686280788716,-31.332373427729,25.49445610934129,22.2669010435946,1.8490769160301943,2.432257821343545,4.989659248811797,4796.54541015625,11.897333333333332,0.14,178.8640838371906,1.0269935638996932,91.73894362313646,1723.0,1435.0,1200.0,1528.0,1599.0,994.0,160.0,293.7,1649259922.517378,1649259923.648208,f54d60dd-aacd-4e48-af35-00df4f822fd2
0.0342173526308627,0.6387154765659513,-0.9361698218303296,-0.5982613266822149,-1.1634057442223935,0.1420498094197307,-1.4233688553273691,-1.4547153804353798,-31.334292696884862,25.22721615065936,21.61106524332399,1.7770271674030067,2.440547904505172,4.957530155834486,4804.611328125,11.892,0.14,178.8700185126694,1.032901547094114,91.61669462064184,1723.0,1435.0,1200.0,1528.0,1599.0,994.0,160.0,293.7,1649259923.7571304,1649259924.8663104,f54d60dd-aacd-4e48-af35-00df4f822fd2
0.281347091287882,1.0583823792650884,-0.8879535257747899,-0.9117921251356036,-1.2342641263102063,0.0312851932531159,-1.446563180211083,-1.4742149184496716,-30.970371812163098,25.02726758944464,23.37344197375468,2.236912439192767,4.0380139190671605,5.072194400790938,4792.077311197917,11.882333333333332,0.14,178.6070334623267,1.0974173084121344,91.26496036895372,1813.0,1435.0,1200.0,1528.0,1662.0,994.0,160.0,293.7,1649259927.0028782,1649259928.3473113,824a21ab-4209-4165-a46b-16495da079b1
0.3157966732921379,1.0847718112255798,-0.8836144537015329,-0.9294508339486356,-1.233830218819564,0.0214499684452758,-1.4428683926454722,-1.4648398885559617,-30.86591566681569,24.58825192833436,23.3751166019646,2.252003712972829,4.1386779700884135,5.063722061566396,4802.219835069444,11.869999999999996,0.1444444444444445,178.62816606761874,1.1035967441941938,91.13517842671448,1813.0,1435.0,1200.0,1528.0,1662.0,994.0,160.0,293.7,1649259928.456198,1649259929.5725725,824a21ab-4209-4165-a46b-16495da079b1
0.2981116779823745,1.0760410773725926,-0.9114502590241544,-0.9285172763255896,-1.2606667313380282,0.0326263602751012,-1.4733602528756753,-1.5032998682902203,-31.213243032812585,24.96559596152007,23.642616397278644,2.275995907620968,4.104146680629556,5.1805628278200455,4824.141493055556,11.86477777777778,0.1311111111111111,178.63259203020093,1.1349730561315805,91.04602169074856,1813.0,1435.0,1200.0,1528.0,1662.0,994.0,160.0,293.7,1649259929.6811197,1649259931.008144,824a21ab-4209-4165-a46b-16495da079b1
-0.7447115600041408,-0.6933132856953418,-1.0928103413835348,0.4672433448906088,-0.9622174046702466,0.4351079340294536,-1.4107592428947335,-1.4364123761462475,-33.458204959007915,29.66390991614856,16.619438552791394,0.0517973236185844,-2.637137991734598,4.716889606609522,4839.87890625,11.896999999999998,0.1433333333333333,179.3660723847902,1.016968636751178,90.76756550302586,1470.0,1435.0,1200.0,1528.0,1403.0,994.0,160.0,293.7,1649259932.945195,1649259934.0831194,2b6faf66-3b71-4ad4-9d39-5aaad7f6c5dd
-0.7469205419896033,-0.701307695931931,-1.1084967472141578,0.4541603932517597,-0.9763128151537668,0.4550019097333846,-1.420344651626735,-1.4454849857825562,-33.5384988246385,29.56999754518116,16.525678842101584,0.1245546784037709,-2.6651078362927616,4.7698860578893,4851.759602864583,11.949333333333334,0.15,179.39640297816453,1.0103267402440654,90.65865813671002,1470.0,1435.0,1200.0,1528.0,1403.0,994.0,160.0,293.7,1649259934.1914508,1649259935.311325,2b6faf66-3b71-4ad4-9d39-5aaad7f6c5dd
-0.7551647780655055,-0.7006108148968963,-1.1107320269866665,0.4499265133948523,-0.97875847416439,0.4595776556442546,-1.4214096973799486,-1.442592269345801,-33.55556371985052,29.53991712110076,16.706628098962064,0.1440971316292076,-2.6635980100066483,4.778083288745745,4856.33544921875,11.946333333333332,0.1566666666666666,179.39144881428652,1.020919438725305,90.58775621966583,1470.0,1435.0,1200.0,1528.0,1403.0,994.0,160.0,293.7,1649259935.4193947,1649259936.539929,2b6faf66-3b71-4ad4-9d39-5aaad7f6c5dd
-1.0058448053152451,-1.134084129052923,-1.142210029472024,0.8362614702353643,-0.8979202428901744,0.5245190605626739,-1.4133100921142798,-1.4456427707852324,-34.121415038663294,31.866262513695347,16.018603492061203,-0.5679881503715529,-4.328805772892034,4.647970784111183,4841.094401041667,11.925222222222224,0.1455555555555555,179.57864153213936,0.9697801878678984,90.34475478501471,1385.0,1435.0,1200.0,1528.0,1331.0,994.0,160.0,293.7,1649259938.474403,1649259939.6117716,fa186f7c-f094-412e-b994-79575b50913c
-1.012563793440746,-1.1475747014721596,-1.1480743526432506,0.8464254115216889,-0.8983672991447834,0.5240588562395837,-1.4187536583105005,-1.4448012528860277,-34.36386105122034,31.83723680967764,15.363091800443334,-0.5926606048383432,-4.37350152259895,4.661698467935369,4842.917914496527,11.905111111111111,0.1477777777777777,179.58310695803672,0.9721671373973736,90.2114203854972,1385.0,1435.0,1200.0,1528.0,1331.0,994.0,160.0,293.7,1649259939.719567,1649259940.8459656,fa186f7c-f094-412e-b994-79575b50913c
-1.0008614462927738,-1.1308232497726558,-1.133413545312651,0.8250587820752231,-0.8899784263941762,0.5282269925110367,-1.4016471869851248,-1.4197003658488248,-34.09795192167832,31.69470145410883,15.614392056214578,-0.5351373280904769,-4.31122501208848,4.608370730973008,4844.134494357639,11.902,0.14,179.59415213283452,0.9897373247185391,90.09549310253438,1385.0,1435.0,1200.0,1528.0,1331.0,994.0,160.0,293.7,1649259940.9590862,1649259942.0663834,fa186f7c-f094-412e-b994-79575b50913c
-1.2756957041024992,-1.6007055254670366,-1.1800520073979066,1.277597437556268,-0.8123747819909498,0.5658980037147999,-1.4198318533981933,-1.4490877330364982,-35.025152532799126,34.6154819582692,14.480120607008836,-1.4549094859621818,-6.115578004632064,4.53580136107923,4809.104166666667,11.886333333333331,0.1366666666666666,179.73578597110358,0.9542812316966048,89.86856234409044,1297.0,1435.0,1200.0,1528.0,1253.0,994.0,160.0,293.7,1649259942.9793394,1649259943.9272337,f8080346-206e-4c00-a842-3a2401b74e1e
-1.2940907465759233,-1.608344927458428,-1.1972242179374586,1.2682224167272858,-0.8248923464188203,0.584700637585066,-1.426590289369593,-1.4574503122511775,-34.916738489556444,34.11959626122102,14.774812377463586,-1.395550506186921,-6.14755235124051,4.585569326874068,4793.86279296875,11.850222222222222,0.1344444444444444,179.73295068368807,0.9432721051194058,89.67663326950317,1297.0,1435.0,1200.0,1528.0,1253.0,994.0,160.0,293.7,1649259944.0362756,1649259945.1468306,f8080346-206e-4c00-a842-3a2401b74e1e
-1.284465892305945,-1.6049788570399224,-1.1835758603156463,1.2658950977078276,-0.8197906499043612,0.5775871935777694,-1.4211730210039155,-1.4521250848418403,-34.83754673642906,34.87640001201409,13.992128589386937,-1.4006738637819975,-6.127386522935168,4.551331138741846,4785.83251953125,11.851000000000004,0.13,179.7441461226477,0.9619779299697588,89.53431337667752,1297.0,1435.0,1200.0,1528.0,1253.0,994.0,160.0,293.7,1649259945.2547066,1649259946.3716314,f8080346-206e-4c00-a842-3a2401b74e1e
-0.4638947624318167,-0.2139905995131417,-1.0390452852121934,0.0996452648740073,-1.028460577722165,0.3161253906959763,-1.4170443257727734,-1.4386476562903387,-32.931115000588164,27.45208480428939,18.55506141480333,0.602227426507861,-0.8116423840745489,4.801557498374544,4777.8291015625,11.854,0.14,179.29667310936344,1.07919454157605,89.33548656993845,1553.0,1435.0,1200.0,1528.0,1471.0,994.0,160.0,293.7,1649259947.485182,1649259948.6188917,b46455e8-2857-4967-a379-4c8102d549ee
-0.4655252010963813,-0.222524104294271,-1.0536797938868647,0.1002238074492221,-1.0427795172457706,0.3259869122135487,-1.4348608277090087,-1.4605534078546183,-33.315959210762394,27.87837137762085,18.715944595517595,0.6250116610896993,-0.8433420374360004,4.86513110300471,4791.18310546875,11.953222222222225,0.1577777777777777,179.27492730486594,1.107690849703251,89.36963220341916,1553.0,1435.0,1200.0,1528.0,1471.0,994.0,160.0,293.7,1649259948.726812,1649259949.850715,b46455e8-2857-4967-a379-4c8102d549ee
-0.4629349073071866,-0.215884012061951,-1.0464085599880004,0.1026168701160106,-1.0421878256621944,0.3142714246252587,-1.434058756887978,-1.4608821259408609,-33.06331289559441,28.34245119965233,18.31304867863761,0.5967886850239862,-0.8164807758760486,4.853514127476245,4811.353759765625,11.9575,0.155,179.26230359745995,1.1004820000631583,89.39628549883533,1553.0,1435.0,1200.0,1528.0,1471.0,994.0,160.0,293.7,1649259949.9585826,1649259951.0782146,b46455e8-2857-4967-a379-4c8102d549ee
-0.4867876595367392,-0.2339786429663328,-1.1225527136494131,-0.2973452530031469,-1.1441216489004993,0.7250290732552707,-1.3880301802912716,-1.4112553534452867,-33.303396971632466,26.566921611599906,21.73278443575564,2.4068951280278976,-0.868569765882343,5.030297349288323,4812.7041015625,11.945444444444442,0.1522222222222222,179.28076787551623,1.2649199545540444,89.40085072138555,1553.0,1522.0,1200.0,1528.0,1471.0,994.0,160.0,293.7,1649259953.015201,1649259954.3577032,4fafb253-d656-47b0-bef5-7f91f2089cdb
-0.4573335614496299,-0.2313994752687311,-1.109154182270614,-0.2957229055922869,-1.1318357001999806,0.7221570948303802,-1.3761255411883446,-1.4021468375093746,-33.32907232905566,26.63722930750667,21.992689425094746,2.3979435324114284,-0.860367284265322,4.978996166891225,4816.00927734375,11.938444444444444,0.15,179.26574145934217,1.2550953321893137,89.31444351601554,1553.0,1522.0,1200.0,1528.0,1471.0,994.0,160.0,293.7,1649259954.465997,1649259955.58821,4fafb253-d656-47b0-bef5-7f91f2089cdb
-0.4664061639569646,-0.2386838537923429,-1.1146371928344545,-0.2965249762654949,-1.1368716547413342,0.7253127816298018,-1.3805829539100067,-1.40824783877005,-33.30789063978355,26.726122512786432,21.28263327522124,2.4070577986785806,-0.8817921756362632,4.997764086609656,4821.427897135417,11.942777777777778,0.15,179.2509457517801,1.2533605590038692,89.28069934587604,1553.0,1522.0,1200.0,1528.0,1471.0,994.0,160.0,293.7,1649259955.6974232,1649259956.8155353,4fafb253-d656-47b0-bef5-7f91f2089cdb
-0.4646047921443011,-0.2514380907136099,-1.180643698572134,-0.7417268049199157,-1.2475969156069546,1.1715926491308797,-1.323557002649946,-1.34989386638768,-33.12891603013875,26.061617636310256,24.639704115012545,4.4071079609379264,-0.9100305469200912,5.157043127546827,4842.61376953125,11.936777777777776,0.1422222222222222,179.24232301740793,1.404865479153532,89.13874448871606,1553.0,1613.0,1200.0,1528.0,1471.0,994.0,160.0,293.7,1649259958.9548657,1649259960.0024898,30a4b457-a224-4138-976a-0acd19de67ae
-0.4636975318833016,-0.2521218229526915,-1.1738326685237304,-0.7365067702196,-1.2348558181163574,1.16996221082369,-1.3127882102831672,-1.3440689881900576,-33.25626741003987,25.54331903837503,25.070357242131035,4.388576851949234,-0.9157301695820532,5.115766738502996,4843.222059461806,11.928888888888888,0.14,179.25530037683097,1.4069838931553265,89.03748238081117,1553.0,1613.0,1200.0,1528.0,1471.0,994.0,160.0,293.7,1649259960.1104648,1649259961.164796,30a4b457-a224-4138-976a-0acd19de67ae
-0.463631788460061,-0.2490713250834192,-1.175857569732019,-0.7370984619171483,-1.2429817199603042,1.1635062011946864,-1.3221763889708933,-1.3461727818963154,-33.22901808366306,26.13597174072847,24.449187748229505,4.379146686211066,-0.8990218693909607,5.142225078088432,4838.969563802083,11.925888888888888,0.1411111111111111,179.26770096472407,1.4112224405641751,88.96387722667548,1553.0,1613.0,1200.0,1528.0,1471.0,994.0,160.0,293.7,1649259961.273733,1649259962.344485,30a4b457-a224-4138-976a-0acd19de67ae
-0.4600027473429249,-0.2741984868573032,-1.2462031528058974,-1.1348993487719703,-1.3444371524287282,1.5790839113963724,-1.2753275407704354,-1.2964312172157408,-33.47043728311041,25.11878125222352,27.873849329605186,6.200525196398777,-0.9774069687351564,5.308147522671757,4835.633029513889,11.912555555555556,0.1377777777777778,179.28273193435754,1.545637290631049,88.82931111637761,1553.0,1710.0,1200.0,1528.0,1471.0,994.0,160.0,293.7,1649259963.4600236,1649259964.5940254,7445181a-cada-4757-a2db-9364a011e36b
-0.4650518479432282,-0.2667957699364239,-1.2379063189312955,-1.1255374701764853,-1.3380994751034927,1.5620957936822508,-1.2740915627601637,-1.2993502305200544,-33.51792347069342,25.310338623077417,27.750217915271023,6.142871896157235,-0.94883386572219,5.287137727043747,4837.451388888889,11.9,0.14,179.28953176713125,1.5500559131314529,88.64963160661182,1553.0,1710.0,1200.0,1528.0,1471.0,994.0,160.0,293.7,1649259964.7018998,1649259965.8251984,7445181a-cada-4757-a2db-9364a011e36b
-0.4559135019242538,-0.2640082458599949,-1.2285970335264011,-1.128745754676786,-1.3312884433041563,1.558230076727882,-1.2633227707115144,-1.2936305422808,-33.19127144937652,25.260634794698728,27.24543136673448,6.141640227791828,-0.935232683295381,5.249684847653529,4833.516438802083,11.899,0.14,179.29680060622795,1.5545072991955315,88.5215488636561,1553.0,1710.0,1200.0,1528.0,1471.0,994.0,160.0,293.7,1649259965.9331,1649259967.050184,7445181a-cada-4757-a2db-9364a011e36b
-0.461659483508378,-0.2885042703131686,-1.274827889929834,-1.469731207850677,-1.4141779074107834,1.915322444689148,-1.2188538417321777,-1.243665452169382,-33.404083290852064,25.529249092028056,29.94975007106293,7.713056747414149,-1.0105133735321317,5.359888081363821,4838.063639322917,11.894333333333332,0.1333333333333333,179.30423640550438,1.686261043528745,88.24199605111666,1553.0,1814.0,1200.0,1528.0,1471.0,994.0,160.0,293.7,1649259968.9889455,1649259970.1055176,3d1f1877-98c7-448c-98cb-9bbb8d21f8ca
-0.4562553680368916,-0.2903187906191253,-1.2711594001726068,-1.4718875965659504,-1.4091945462680318,1.920174315160727,-1.2139625227106172,-1.233751326675912,-33.55915490474379,25.47388044091297,30.13879244776963,7.728591528986962,-1.0173997256729357,5.341078253956877,4835.026475694444,11.861333333333334,0.13,179.30953359666069,1.6819742104770137,88.04525245207444,1553.0,1814.0,1200.0,1528.0,1471.0,994.0,160.0,293.7,1649259970.217755,1649259971.3553588,3d1f1877-98c7-448c-98cb-9bbb8d21f8ca
-0.4711396957002218,-0.2849935679705106,-1.274591213757124,-1.4763450102889644,-1.415098317499962,1.9184781330379936,-1.2177756485269204,-1.2469526305893472,-33.39598597035662,25.489424253120863,30.027035214821,7.734831295306706,-0.9972597631353344,5.359781796405674,4834.419921875,11.867777777777777,0.1255555555555555,179.3059788626526,1.735954025545336,87.87412433914947,1553.0,1814.0,1200.0,1528.0,1471.0,994.0,160.0,293.7,1649259971.4641163,1649259972.5857754,3d1f1877-98c7-448c-98cb-9bbb8d21f8ca
-0.4772669896951839,-0.2066536262592629,-0.9797577757210504,0.5244796144840695,-0.9335269322654388,-0.0997547174608894,-1.4768315118038131,-1.5040098976315293,-32.71666290800599,28.768616809809256,16.05182287254671,-1.2792444225513169,-0.8119813347715106,4.677255060437393,4838.059244791667,11.904,0.1366666666666666,179.24948560911753,1.0702471716328432,87.56287489540172,1553.0,1349.0,1200.0,1528.0,1471.0,994.0,160.0,293.7,1649259974.5226085,1649259975.6906345,cb967d62-164f-4438-80a7-cb92a846b38d
-0.4812773429751232,-0.206351206245554,-0.9816906352575026,0.5140264019073806,-0.93380305508526,-0.0879208903741491,-1.4753851536033518,-1.5052984716989526,-32.95129395649108,28.582383744527128,16.409249162486713,-1.230464282955013,-0.8111929523287449,4.678567950862661,4839.272352430556,11.95611111111111,0.151111111111111,179.24135161272596,1.052294339564582,87.78291854643258,1553.0,1349.0,1200.0,1528.0,1471.0,994.0,160.0,293.7,1649259975.7989452,1649259976.881025,cb967d62-164f-4438-80a7-cb92a846b38d
-0.4617120783048389,-0.2058647044025257,-0.9843072274830262,0.5065710918417465,-0.941442451959014,-0.0846337160639507,-1.4788827107096756,-1.5111233504067227,-32.72383741044291,28.900796016835017,15.940072247385157,-1.2042399995039257,-0.8060624226715011,4.696879713663414,4838.361707899306,11.95388888888889,0.1544444444444444,179.25507725731805,1.036172946831269,87.95960946898155,1553.0,1349.0,1200.0,1528.0,1471.0,994.0,160.0,293.7,1649259976.9890232,1649259978.1119206,cb967d62-164f-4438-80a7-cb92a846b38d
-0.479699499204998,-0.1948723932770681,-0.9301345667929468,0.9345874124793244,-0.85303057051865,-0.5059574523184026,-1.5545666944485563,-1.581876569423633,-33.178324411965136,30.75082105324811,13.504879070406592,-3.1021661304357946,-0.7892671070035536,4.610945316221296,4839.87890625,11.943888888888887,0.15,179.25567983178482,0.8957137884488061,88.26991786444367,1553.0,1264.0,1200.0,1528.0,1471.0,994.0,160.0,293.7,1649259979.0240033,1649259980.159175,01746a76-d236-4c85-a266-4f6608b4a7dc
-0.4782136960502642,-0.18665445738223,-0.9270314727901964,0.92736877878286,-0.8502693428331787,-0.5091920323696632,-1.550845608411075,-1.583204589751377,-33.19400377979484,30.51304170316263,13.274138774407731,-3.094617623262942,-0.7552073754554701,4.598348794625741,4834.419921875,11.926333333333334,0.14,179.25927858256753,0.8903728710380552,88.43134938547692,1553.0,1264.0,1200.0,1528.0,1471.0,994.0,160.0,293.7,1649259980.268199,1649259981.5917091,01746a76-d236-4c85-a266-4f6608b4a7dc
-0.4666926960698156,-0.1801332512706575,-0.9216651578681976,0.9200838537862374,-0.8489911791204999,-0.5111928261206559,-1.5464205187832023,-1.5737451866306766,-33.02102809991536,30.611300201567914,12.980186302814444,-3.081721880054482,-0.7281290813331637,4.5833838633402415,4831.997612847223,11.929222222222222,0.14,179.2685843358567,0.9035429698617208,88.58777741348817,1553.0,1264.0,1200.0,1528.0,1471.0,994.0,160.0,293.7,1649259981.6999977,1649259982.82492,01746a76-d236-4c85-a266-4f6608b4a7dc
-0.4824344285698664,-0.1788704284743387,-0.8746733355982386,1.3040789113111968,-0.7740463143364247,-0.8819577170423979,-1.61632619675538,-1.6437807099537798,-33.299556401759226,32.68975863837679,10.605394134964037,-4.765479394288615,-0.744637380485169,4.515904463931828,4826.25341796875,11.916888888888888,0.14,179.25529126991205,0.7492671273431483,88.82673689397043,1553.0,1178.0,1200.0,1528.0,1471.0,994.0,160.0,293.7,1649259983.9388835,1649259985.080983,76873aad-731a-4208-a547-6eb2754e4fbe
-0.4818427370994627,-0.1754912132171404,-0.8811030514193746,1.298674797138174,-0.7815805206733215,-0.8786836898546828,-1.622953148198097,-1.647725323923527,-33.33444441049521,32.70980628088636,10.783657188407124,-4.746108264734236,-0.73303818849933,4.544946402577593,4815.40771484375,11.906666666666668,0.14,179.2727583403495,0.7302409061450883,88.96234195193205,1553.0,1178.0,1200.0,1528.0,1471.0,994.0,160.0,293.7,1649259985.1896522,1649259986.232816,76873aad-731a-4208-a547-6eb2754e4fbe
-0.4781479525970498,-0.1675362513002659,-0.8753439194242355,1.2935073593910411,-0.7725210649513863,-0.8813265791199751,-1.6129469774642464,-1.645845057649123,-33.35964832444296,32.09979593701366,10.907653192618282,-4.744140703544784,-0.7031318560114329,4.511834972367919,4813.381103515625,11.90675,0.14,179.27933296660808,0.7159699707029182,89.07507707009526,1553.0,1178.0,1200.0,1528.0,1471.0,994.0,160.0,293.7,1649259986.3410091,1649259987.547804,76873aad-731a-4208-a547-6eb2754e4fbe
-0.4720732534416673,-0.1629473559682532,-0.8048537236961946,1.486214660305607,-0.7006239635426834,-1.072903201260237,-1.609935922003055,-1.6364305788856424,-33.244664338229256,34.1833014023546,9.796983001482491,-5.592136827175601,-0.6961130510198688,4.313439255387155,4808.804416232639,11.890555555555556,0.1355555555555555,179.2587018110376,0.6533650518923156,89.21112324444078,1553.0,1088.0,1200.0,1528.0,1471.0,994.0,160.0,293.7,1649259988.4456956,1649259989.589319,e0b5ba45-dde2-47ca-bbe3-859212569b37
-0.4764517703156066,-0.1648539170615063,-0.8109678706774394,1.4834271363771203,-0.7063436490033237,-1.0709440440391054,-1.615405787004934,-1.6405198293563172,-33.27275206211609,34.17148054305887,9.40095909084603,-5.5819064410241,-0.6995996672959828,4.336523368312008,4804.948120117188,11.859125,0.12125,179.2485595493026,0.6574763173623149,89.27610063642612,1553.0,1088.0,1200.0,1528.0,1471.0,994.0,160.0,293.7,1649259989.7022772,1649259990.810118,e0b5ba45-dde2-47ca-bbe3-859212569b37
-0.4853928859651684,-0.1593577616019908,-0.8145706158830202,1.4714618220539382,-0.7115110892391447,-1.0635807695390471,-1.6175753257048942,-1.6452007712617336,-33.3223387524837,34.109320071813634,9.62560268517826,-5.538949975588952,-0.6793820535301164,4.352429304867336,4795.651204427083,11.868666666666664,0.1266666666666666,179.25879288022657,0.6618470914823811,89.36172815672964,1553.0,1088.0,1200.0,1528.0,1471.0,994.0,160.0,293.7,1649259990.918862,1649259992.037032,e0b5ba45-dde2-47ca-bbe3-859212569b37
-0.4507592117951937,-0.2134120568534631,-1.0512998783186984,0.0710205534109221,-1.0449884998899446,0.3427514987713252,-1.4235003424284791,-1.449048286433703,-32.8995482067416,27.54617316436739,18.600280818291896,0.726666806835201,-0.8073476633057802,4.849831734702363,4797.14208984375,11.891555555555556,0.1244444444444444,179.27730421069705,1.0866671242670636,89.44558390698971,1553.0,1435.0,1200.0,1528.0,1471.0,994.0,160.0,293.7,1649259992.9507463,1649259994.090539,9edf3057-4e85-4833-ba02-0b61b51d0113
-0.4862945832859967,-0.2251791297787281,-1.0566701127540747,0.0793902042466777,-1.0453925694825807,0.3508349120830938,-1.4261235097732483,-1.4463522949679537,-33.06971093377307,27.4777333744204,19.176603271212294,0.7252365502427982,-0.8567569905875755,4.860808655063173,4811.20703125,11.95611111111111,0.1488888888888888,179.265685300009,1.1092680305031586,89.42130562012994,1553.0,1435.0,1200.0,1528.0,1471.0,994.0,160.0,293.7,1649259994.1995342,1649259995.3241856,9edf3057-4e85-4833-ba02-0b61b51d0113
-0.4566366803137326,-0.2187635767871946,-1.0532458864937015,0.0784364180342728,-1.043502696158798,0.3451051152395733,-1.423119029958587,-1.445169416548754,-32.907014132102915,27.393875463739413,19.15573855337041,0.7142056105513371,-0.8333282837364376,4.850175929342045,4815.40771484375,11.955444444444446,0.14,179.25419085054577,1.0973311721376018,89.43935022100722,1553.0,1435.0,1200.0,1528.0,1471.0,994.0,160.0,293.7,1649259995.4358318,1649259996.5478213,9edf3057-4e85-4833-ba02-0b61b51d0113
-0.3811237018951093,-0.1741106000247175,-0.7860116336832459,0.0353875864919947,-0.802973459836752,0.3253820721946616,-1.1413685130754094,-1.173845818182221,-30.96624248845725,26.90622046883551,19.04559207872977,0.778026051117494,-0.6563793623536155,3.7635715862579615,4818.11474609375,11.959222222222222,0.1444444444444445,179.22323946886686,1.114879635662657,89.4092343991368,1553.0,1435.0,1200.0,1446.0,1471.0,994.0,160.0,293.7,1649259998.4808934,1649259999.6272924,b5bc49fd-0d33-4383-82d9-08ff8e74373d
-0.3815576089430875,-0.1715729014177817,-0.7829874317052501,0.037925284856484,-0.8030392027178047,0.3164146619803018,-1.145917964512827,-1.1694541490728705,-31.17615884915884,27.3402099653087,18.44686318723188,0.754977103724806,-0.6401825607413848,3.765176201087205,4824.44482421875,11.968777777777778,0.1422222222222222,179.23087865599862,1.1000472039758376,89.40691365263882,1553.0,1435.0,1200.0,1446.0,1471.0,994.0,160.0,293.7,1649259999.741355,1649260000.8517015,b5bc49fd-0d33-4383-82d9-08ff8e74373d
-0.3810448096817503,-0.1684303627872515,-0.7800684199603088,0.0468926958681549,-0.799041997451797,0.3125489455414231,-1.1421311376725185,-1.1674423973150576,-30.99261478436456,27.171700855947964,19.53513161244268,0.7253561882526631,-0.6402623938536103,3.75255259143808,4820.82470703125,11.96588888888889,0.15,179.2258349407515,1.0884426295702148,89.3964141340647,1553.0,1435.0,1200.0,1446.0,1471.0,994.0,160.0,293.7,1649260000.960436,1649260002.0728724,b5bc49fd-0d33-4383-82d9-08ff8e74373d
-0.293474478164906,-0.1284451744162526,-0.5042744186671085,0.0158486237882073,-0.5503606118198558,0.280610764383545,-0.8551343628372089,-0.8850345135902952,-28.92723702459315,26.884356817598896,18.66035080134529,0.7363427265930309,-0.4758575168423591,2.634174228765959,4823.53759765625,11.9705,0.15,179.2039396310022,1.100592136863525,89.36855493080508,1553.0,1435.0,1200.0,1354.0,1471.0,994.0,160.0,293.7,1649260002.986623,1649260004.121402,dfc6430c-64b3-4020-ab38-69090dfaaa5b
-0.2898322887935505,-0.1352956456628368,-0.509034247976589,0.0241585998991111,-0.5553702665135688,0.2821754591455023,-0.8612090635613237,-0.8844954172855987,-28.86226064773603,27.15112084885768,18.97093915591404,0.7227271547988086,-0.5060839322209314,2.655752777377799,4820.82470703125,11.973,0.15,179.1795642036742,1.1015586560629511,89.37798173022455,1553.0,1435.0,1200.0,1354.0,1471.0,994.0,160.0,293.7,1649260004.229632,1649260005.361881,dfc6430c-64b3-4020-ab38-69090dfaaa5b
-0.2853748801701788,-0.1276036578186682,-0.4936371206682059,0.0273537331038807,-0.5443122096883878,0.2729582235964294,-0.8514001310900225,-0.8731217885093069,-28.82896731266448,27.455024896671272,19.243357618938656,0.6976488330074028,-0.4792965206256583,2.606979018754663,4827.764105902777,11.971888888888888,0.15,179.2074237863888,1.1111727757920111,89.36350855937329,1553.0,1435.0,1200.0,1354.0,1471.0,994.0,160.0,293.7,1649260005.4761171,1649260006.5806992,dfc6430c-64b3-4020-ab38-69090dfaaa5b
-0.2199338109076317,-0.1036861778780927,-0.2744877582538921,0.0232907858788452,-0.3416907549315853,0.2409280012786465,-0.6239144418344301,-0.6513031856442549,-27.22487650148532,27.1430991662746,19.204421988788525,0.6444832939176693,-0.3862118573574198,1.7124386950679051,4824.74462890625,11.971222222222222,0.15,179.19250968888113,1.0894458017465931,89.33535603743432,1553.0,1435.0,1200.0,1252.0,1471.0,994.0,160.0,293.7,1649260007.4921565,1649260008.5424497,d7f4867f-f182-423f-ac0d-0de6ae98090e
-0.2188424689843204,-0.0925097854321328,-0.2636795285033069,0.0201088013884608,-0.3356029075634826,0.2316976169785343,-0.6181684595212772,-0.6478845232273369,-27.2030084629867,27.344283375118952,19.093736441508884,0.6327843813619114,-0.3423869973999247,1.6823340210940063,4825.047037760417,11.974444444444446,0.15,179.19827285072077,1.0962711054340746,89.34604224784577,1553.0,1435.0,1200.0,1252.0,1471.0,994.0,160.0,293.7,1649260008.651409,1649260009.860238,d7f4867f-f182-423f-ac0d-0de6ae98090e
-0.2223926173269815,-0.1087878723236957,-0.273659390214406,0.0266962982513362,-0.342847840374477,0.241598584752754,-0.6261497208549024,-0.6537225465500117,-27.25767432979412,27.53499981288483,19.025083741946368,0.6409022897533617,-0.4038848389791447,1.7150439254004195,4821.436577690973,11.972333333333331,0.15,179.20000316531053,1.0752631629523752,89.34422314079683,1553.0,1435.0,1200.0,1252.0,1471.0,994.0,160.0,293.7,1649260009.969012,1649260011.0856087,d7f4867f-f182-423f-ac0d-0de6ae98090e
-0.5427738116863017,-0.2584594953528192,-1.2957343352149768,0.1616150687574571,-1.2618106685527977,0.3165855950207125,-1.6967963238874222,-1.7254999676014342,-34.70770189682312,28.44047557920628,18.47083811504355,0.4563359188200135,-0.9889928298514274,5.8609871889802365,4822.331868489583,11.930666666666667,0.1388888888888889,179.26409766048195,1.080230086003182,89.43333130652861,1553.0,1435.0,1200.0,1604.0,1471.0,994.0,160.0,293.7,1649260011.9978263,1649260013.1319797,fb50a631-0de4-42eb-ae42-a30576c627ad
-0.5231428027459173,-0.2459024889086672,-1.2922893738190782,0.154396434788247,-1.2617580738903265,0.3106949795007423,-1.6959811037915349,-1.7296418136290543,-34.68577902115474,28.431581701332703,18.45395409347576,0.4595033103717675,-0.9407949334600172,5.856510265241817,4826.25341796875,11.89,0.13,179.252222238245,1.082357879657118,89.36143445859534,1553.0,1435.0,1200.0,1604.0,1471.0,994.0,160.0,293.7,1649260013.2404013,1649260014.363465,fb50a631-0de4-42eb-ae42-a30576c627ad
-0.557723883668633,-0.247388291750849,-1.2890679403161298,0.1545147730802216,-1.25660378040688,0.31287766291283,-1.6893673006068275,-1.7082883009172605,-34.615154465439886,28.199063358233232,18.612965570066805,0.4628210608852406,-0.9480910670569028,5.835872462466639,4819.92138671875,11.898666666666664,0.13,179.25663909390826,1.08238911354301,89.26609640143059,1553.0,1435.0,1200.0,1604.0,1471.0,994.0,160.0,293.7,1649260014.471865,1649260015.5933664,fb50a631-0de4-42eb-ae42-a30576c627ad
-0.605466814605263,-0.2769202673330231,-1.4666938558026343,0.2181939065279524,-1.4168996902730129,0.2886577659858789,-1.892751637872806,-1.923808909386941,-36.05421366672113,29.1241101927932,17.92234535359361,0.2612043829241971,-1.0616327859653851,6.580525810917529,4826.25341796875,11.860777777777775,0.1244444444444444,179.2820823074765,1.0648261358659683,89.10615462054629,1553.0,1435.0,1200.0,1676.0,1471.0,994.0,160.0,293.7,1649260017.527872,1649260018.5827036,9b22271d-1b8f-40fd-99d7-141d4730010a
-0.5974198099155761,-0.2702144313580106,-1.4563195232035533,0.2169973752092713,-1.4086160026768249,0.2834245851564912,-1.8820222841039072,-1.9123169303558711,-35.818295119547926,29.03087916309189,18.03687602813586,0.2521793533393937,-1.038363265059138,6.540991156231754,4819.02294921875,11.830666666666666,0.11,179.2720980887297,1.062305298027607,88.98814412988663,1553.0,1435.0,1200.0,1676.0,1471.0,994.0,160.0,293.7,1649260018.6939442,1649260019.686639,9b22271d-1b8f-40fd-99d7-141d4730010a
-0.5892018721719482,-0.2646919781727294,-1.4589624142397577,0.21773370211194,-1.4108381348326846,0.2794799765004978,-1.888057545592685,-1.9204691347182856,-36.079554484364095,29.04160528737361,18.309419380346743,0.2415057580264287,-1.0184751441793118,6.557085223173718,4818.11474609375,11.807555555555556,0.0988888888888889,179.27130882242565,1.065765630757897,88.82793217707518,1553.0,1435.0,1200.0,1676.0,1471.0,994.0,160.0,293.7,1649260019.7943509,1649260020.9222438,9b22271d-1b8f-40fd-99d7-141d4730010a
-0.6021927882033434,-0.2769071185921323,-1.4679561323291503,0.2274637369706066,-1.4173204486046118,0.2843975886189177,-1.894066509500962,-1.925676027135072,-35.89226495090561,29.071886308365773,18.521503927635223,0.2304887080120491,-1.0692622525387971,6.58575423622504,4817.21337890625,11.703,0.06,179.27128757294824,1.1002627581055815,88.49821010726217,1553.0,1435.0,1200.0,1747.0,1471.0,994.0,160.0,293.7,1649260023.0595157,1649260024.190657,e2f42a0e-e95e-48ec-ab70-ec1b0fd1b913
-0.5955132484090169,-0.2762628324211266,-1.4572793789179586,0.2275557777797708,-1.408655448784137,0.2811630095440758,-1.885401504398972,-1.915827637173792,-35.882462602906585,29.24359708264496,18.235995441151427,0.2246419004839658,-1.0637162826291788,6.546673944969881,4810.303493923611,11.648666666666664,0.0488888888888889,179.26347535435755,1.0858805378635847,88.23632092282628,1553.0,1435.0,1200.0,1747.0,1471.0,994.0,160.0,293.7,1649260024.2987812,1649260025.427961,e2f42a0e-e95e-48ec-ab70-ec1b0fd1b913
-0.6035865504498221,-0.2784060702233872,-1.4661416102478482,0.2296332717824037,-1.4145986658331102,0.2823989869476062,-1.895013217442364,-1.9212449091145007,-36.16479969542988,29.184355305937867,18.31616725795858,0.2217696469598019,-1.0712855826107388,6.580232877402995,4810.00341796875,11.660333333333334,0.0422222222222222,179.26959520385387,1.0563043246535486,87.95415138892481,1553.0,1435.0,1200.0,1747.0,1471.0,994.0,160.0,293.7,1649260025.536464,1649260026.6800926,e2f42a0e-e95e-48ec-ab70-ec1b0fd1b913
-0.4663272718362321,-0.2419841769270565,-1.0376646718324396,0.0510608323119202,-0.9936428083221464,0.3900473556235572,-1.3628584942063904,-1.387144160351558,-33.48156005823407,23.965654825461844,19.063024965394828,0.8546952006027381,-0.9112312931553236,4.673052606427777,7722.00537109375,11.631444444444444,7.34111111111111,179.1990211358899,0.9681712514315374,77.37495789922154,1553.0,1435.0,1350.0,1528.0,1471.0,994.0,160.0,293.7,1649260029.8443224,1649260030.9531353,95fcaefb-d8a5-4551-b1ed-baf273ff0154
-0.477188097415317,-0.236961374367479,-1.024542264121762,0.0588580090137683,-0.981283026036218,0.3823948149928266,-1.353391423036407,-1.3737456247821864,-33.54529952070708,24.058036171362,19.781236728053205,0.8212586173863572,-0.8984336321440375,4.626458368595442,7722.00537109375,11.633666666666668,7.346666666666668,179.19774009596554,0.9827301791023734,72.57132683708659,1553.0,1435.0,1350.0,1528.0,1471.0,994.0,160.0,293.7,1649260031.0612476,1649260032.177807,95fcaefb-d8a5-4551-b1ed-baf273ff0154
-0.4773853279571423,-0.2334243746853148,-1.0416487290990524,0.0497328138167574,-1.0005458780469023,0.3871283453076407,-1.369616930387163,-1.3918908442799351,-33.41576883298076,24.07256308884152,19.623179303864003,0.8517642168381738,-0.884644365711343,4.699324391954567,7722.779079861111,11.62811111111111,7.297777777777778,179.242174271066,1.01123778787242,68.74528177810788,1553.0,1435.0,1350.0,1528.0,1471.0,994.0,160.0,293.7,1649260032.2863047,1649260033.4126673,95fcaefb-d8a5-4551-b1ed-baf273ff0154
-0.2201178926302282,0.1817062760314663,-1.0005195804048652,-0.2964723818574046,-1.0727454169524906,0.3215689505583928,-1.3787947290940743,-1.4059994094263906,-33.0100868402182,22.895310031295544,22.94002695753341,1.4803743428352092,0.6852921903319552,4.807306729734986,7728.96875,11.615777777777778,7.3244444444444445,179.10003803443803,1.0760523818245962,63.28042693261315,1637.0,1435.0,1350.0,1528.0,1535.0,994.0,160.0,293.7,1649260034.5254288,1649260035.6603887,3fa26259-b0c0-4603-b8db-52790926414f
-0.2107428712402393,0.1889117613052117,-0.9920649639023836,-0.2993519469929488,-1.0656845626555802,0.316243728932019,-1.3732328255315136,-1.4010423459248622,-33.15553454478192,22.918484654455124,22.864216213701187,1.4753927637464903,0.7149093995462781,4.778874517817206,7735.9443359375,11.603777777777776,7.354444444444444,179.1106794691649,1.1405408579598388,60.8168004662868,1637.0,1435.0,1350.0,1528.0,1535.0,994.0,160.0,293.7,1649260035.772112,1649260036.9107664,3fa26259-b0c0-4603-b8db-52790926414f
-0.2133989081308818,0.1843097177928874,-0.9929459270447698,-0.2906738060641427,-1.062870739569017,0.3150340489597685,-1.3719836981372406,-1.397715722464113,-33.12973610624258,22.712429863131447,23.190804869638324,1.4517539097578946,0.693443988517446,4.774546825225936,7742.9326171875,11.601555555555557,7.354444444444444,179.16579454230748,1.1980645569961113,58.90575072310271,1637.0,1435.0,1350.0,1528.0,1535.0,994.0,160.0,293.7,1649260037.019459,1649260038.1235018,3fa26259-b0c0-4603-b8db-52790926414f
0.0730586013481414,0.6463285709501955,-0.9232052005459576,-0.6091747488956016,-1.115820577099277,0.1725547837059629,-1.3795442060414955,-1.4111668526831542,-32.67768162714839,21.844350837897903,25.843375978590306,1.84841248016686,2.4432071430482285,4.819891992263426,7738.273763020833,11.589666666666666,7.33,178.95957139960717,1.2790644106935274,56.63930954138488,1723.0,1435.0,1350.0,1528.0,1599.0,994.0,160.0,293.7,1649260039.039058,1649260040.1722803,19be9ebc-39b0-4d4a-ac9a-05930cc3b7bd
0.0614614512830397,0.6399251565023721,-0.9169201201053108,-0.6020481530296441,-1.1087334245057343,0.1689651897440493,-1.374573993752357,-1.3975973838546087,-32.70910050464961,21.98237156521252,25.41615951085768,1.8254143238802871,2.422722574330051,4.793201757904191,7735.9443359375,11.568333333333335,7.35,178.98701661751213,1.3383445237055835,55.37391378589257,1723.0,1435.0,1350.0,1528.0,1599.0,994.0,160.0,293.7,1649260040.280179,1649260041.397874,19be9ebc-39b0-4d4a-ac9a-05930cc3b7bd
0.0489044463032617,0.6389915991591861,-0.9317124118547137,-0.6154203814387128,-1.1261817573797317,0.17596029592762,-1.3864735761932667,-1.4148353426933633,-32.47111365380296,22.008811534833224,24.426286830055066,1.8706984540240017,2.4270190743857083,4.852602250762882,7742.9326171875,11.565555555555555,7.322222222222223,179.02274609597035,1.3920323007550186,54.21174495605638,1723.0,1435.0,1350.0,1528.0,1599.0,994.0,160.0,293.7,1649260041.5055702,1649260042.6261566,19be9ebc-39b0-4d4a-ac9a-05930cc3b7bd
0.3242907305172505,1.0918984042370905,-0.8895708168179649,-0.947872168756855,-1.2072566820943402,0.0587396710949276,-1.4140727175614236,-1.4327833320851409,-31.80302829911617,21.16176875279273,27.38911967571664,2.3545096504989886,4.138296019718703,5.001761359543684,7735.9443359375,11.544666666666664,7.312222222222221,178.74506854981303,1.4843307695855492,52.89711529975183,1813.0,1435.0,1350.0,1528.0,1662.0,994.0,160.0,293.7,1649260043.536956,1649260044.681651,7f44b45c-0154-4bfe-89f0-2b8bd6ec6859
0.3165987437389102,1.0944755485861335,-0.8866123587688484,-0.9705931308779446,-1.2094656652137017,0.0666551861168153,-1.407406322198237,-1.438621359489483,-31.53523976163448,21.19100286015067,25.935212773894577,2.4237939381789086,4.161937959681071,4.989483124323897,7742.9326171875,11.499777777777776,7.313333333333333,178.71597042612893,1.499773056531073,52.2835411927718,1813.0,1435.0,1350.0,1528.0,1662.0,994.0,160.0,293.7,1649260044.7902362,1649260045.9039218,7f44b45c-0154-4bfe-89f0-2b8bd6ec6859
0.3009912422899086,1.0893738546858338,-0.8638519542326637,-0.9654914325788784,-1.1836547539022575,0.0622898189315969,-1.381437621486933,-1.4067225896274569,-31.488454240229643,20.926138918135763,25.46269885626449,2.4018019241089457,4.14747051636726,4.8852313074428375,7735.9443359375,11.521333333333333,7.300000000000001,178.7445115099407,1.5314578653459716,51.79799518723412,1813.0,1435.0,1350.0,1528.0,1662.0,994.0,160.0,293.7,1649260046.0124142,1649260047.134802,7f44b45c-0154-4bfe-89f0-2b8bd6ec6859
-0.7316569219643931,-0.6965726462555732,-1.0147839023010916,0.4421804146712231,-0.8541927138746543,0.4541912420940402,-1.2866207635605778,-1.3124503893635018,-33.37375984235275,25.746610751258142,16.422599792103163,0.129143971581038,-2.640249871815978,4.2874257291294136,7694.2783203125,11.592999999999998,7.430000000000001,179.49130162649269,1.3920073515918006,50.52414669318895,1470.0,1435.0,1350.0,1528.0,1403.0,994.0,160.0,293.7,1649260049.4765844,1649260050.7425678,7a621c16-54b8-4c88-b67f-8dc056aecb25
-0.7080524740486431,-0.7088995538208912,-1.0347218903201527,0.4363772887127318,-0.8712101698816213,0.4678962281647611,-1.2995545409600449,-1.3266484659751354,-33.23426683408711,25.57152221403116,15.769396985645,0.1708439667532426,-2.682233689606105,4.353902420963086,7701.19189453125,11.62,7.4544444444444435,179.52099473554443,1.4129866689404156,50.19541234462091,1470.0,1435.0,1350.0,1528.0,1403.0,994.0,160.0,293.7,1649260050.8505232,1649260051.8425725,7a621c16-54b8-4c88-b67f-8dc056aecb25
-0.7042722223464964,-0.6977358006195171,-1.0339253820927443,0.4478697539321794,-0.8747754912438034,0.4523453675722662,-1.3074690520891323,-1.3354732728105307,-33.149072529828004,25.937139190765723,16.58538378861218,0.1126112583144597,-2.6495561558395124,4.371453348808459,7702.730740017361,11.620888888888889,7.430000000000001,179.57682318400032,1.3944762989652175,49.973194416704274,1470.0,1435.0,1350.0,1528.0,1403.0,994.0,160.0,293.7,1649260051.9506943,1649260053.076641,7a621c16-54b8-4c88-b67f-8dc056aecb25
-0.975957800088336,-1.131914592240867,-1.0608458390317543,0.8296345279314592,-0.7875763296022437,0.5207322363767873,-1.2963391764700185,-1.3281459021336908,-34.19318735387148,28.28013112835078,15.722307582454768,-0.581353756105428,-4.311621484992746,4.221436508783791,7708.11669921875,11.631,7.430000000000001,179.731223404738,1.4628036852950597,49.52302082251323,1385.0,1435.0,1350.0,1528.0,1331.0,994.0,160.0,293.7,1649260054.8405912,1649260055.9413197,140079cf-286e-4254-b9f4-87e62a4ca01b
-0.9794816528153364,-1.129245404927307,-1.0674333399358358,0.8285957810719031,-0.7938219627092771,0.5167481817604327,-1.3008360343451195,-1.3324455304242315,-33.95608230158345,28.046301983094736,15.35085285598217,-0.5897812549745882,-4.30029007316614,4.245377084234146,7711.20068359375,11.574555555555555,7.404444444444445,179.72308181924734,1.4335253679397617,49.40302957699426,1385.0,1435.0,1350.0,1528.0,1331.0,994.0,160.0,293.7,1649260056.049144,1649260057.1677463,140079cf-286e-4254-b9f4-87e62a4ca01b
-0.9799287088325832,-1.128864092444705,-1.0596230091821912,0.8329742965555001,-0.7847493582328133,0.5185758504040847,-1.294156490446582,-1.3214795064720948,-34.17445752368214,28.07361232066157,16.29300869438553,-0.5949408912676235,-4.305708109292591,4.214112715229304,7708.11669921875,11.568666666666664,7.396666666666667,179.75176406030195,1.432766790055067,49.32006402805602,1385.0,1435.0,1350.0,1528.0,1331.0,994.0,160.0,293.7,1649260057.275918,1649260058.6025274,140079cf-286e-4254-b9f4-87e62a4ca01b
-1.2843212565641529,-1.648698328161777,-1.12274994479808,1.30499932050977,-0.7116425759391012,0.584805827152757,-1.3166933769504998,-1.337442039010997,-35.13173120136791,31.040674441740617,14.7312948473522,-1.4950911976691674,-6.296853746936785,4.169824243098646,7722.00537109375,11.55425,7.385,179.9151860122958,1.32663204476194,49.18330428866972,1297.0,1435.0,1350.0,1528.0,1253.0,994.0,160.0,293.7,1649260060.5343072,1649260061.6701934,6546057f-7867-4d4a-b35e-071c4104edbc
-1.2898700112472503,-1.6525903473750956,-1.132414243855542,1.2993585298349353,-0.7212016818922669,0.5848847193297676,-1.3261078522254357,-1.3503540711339108,-35.166012605230385,31.06703154759521,13.389204444878278,-1.4827273611417864,-6.299231352549224,4.206973716087696,7728.96875,11.517333333333331,7.364444444444445,179.94435718105854,1.3036376289162022,49.20356338865789,1297.0,1435.0,1350.0,1528.0,1253.0,994.0,160.0,293.7,1649260061.77786,1649260063.1073575,6546057f-7867-4d4a-b35e-071c4104edbc
-1.2821122734554462,-1.649802820048236,-1.1393830582065918,1.289102546714322,-0.7276313969900184,0.592234839796989,-1.327343830824058,-1.3518530241178774,-34.97574116386453,30.716884299567223,13.451370738952749,-1.4456381552345754,-6.28985909595156,4.227602065802045,7728.96875,11.52575,7.36875,179.9388082215403,1.3435635767862992,49.2213761899902,1297.0,1435.0,1350.0,1528.0,1253.0,994.0,160.0,293.7,1649260063.2153995,1649260064.3316562,6546057f-7867-4d4a-b35e-071c4104edbc
-0.4562816654503959,-0.2239047175227737,-1.024200397772672,0.0810267108565392,-0.9795605456941292,0.3507196081104456,-1.361070269496455,-1.39378425870677,-33.48495932151985,23.89430006174011,19.972290513932418,0.6990654631906378,-0.8542941546243001,4.636732424122657,7728.96875,11.536,7.389999999999999,179.55776392057635,1.4139970744768524,49.37040366060388,1553.0,1435.0,1350.0,1528.0,1471.0,994.0,160.0,293.7,1649260066.3389013,1649260067.4094918,50e40951-ae0d-4969-8980-0b7eedffbdab
-0.4559266505986443,-0.21800095230577,-1.018691090661136,0.0783312279793321,-0.9787847724141798,0.3418573874824813,-1.359216301213161,-1.381634850310747,-33.29584015149873,24.124831483338376,19.206966189140232,0.687006967120169,-0.8260218924225797,4.62517528570776,7735.9443359375,11.640555555555556,7.396666666666666,179.47039517635315,1.417533535357267,49.41645241653315,1553.0,1435.0,1350.0,1528.0,1471.0,994.0,160.0,293.7,1649260067.5177538,1649260068.642635,50e40951-ae0d-4969-8980-0b7eedffbdab
-0.4505356838228765,-0.2209988553401255,-1.0115644925407343,0.1009469852924528,-0.966056826469298,0.328261636452634,-1.3576779021641343,-1.3850272176849847,-33.7358922944529,24.115911620566425,19.852584426423128,0.6056170220141592,-0.8422062155171129,4.596376732966428,7737.497287326389,11.639111111111111,7.41,179.52446750728242,1.4353774875696963,49.3717382036767,1553.0,1435.0,1350.0,1528.0,1471.0,994.0,160.0,293.7,1649260068.7551005,1649260069.865281,50e40951-ae0d-4969-8980-0b7eedffbdab
-0.4303655792820598,-0.2364880212520369,-1.0756512811175838,-0.3283842724630478,-1.067275555692318,0.7599069981413801,-1.2973516268644938,-1.322294726422828,-33.63452430087281,22.91207352433665,22.85304818562642,2.533405749643384,-0.8788338071076014,4.734864135408091,7738.273763020833,11.632,7.413333333333333,179.52194640856882,1.5075518475119078,49.51256266452908,1553.0,1522.0,1350.0,1528.0,1471.0,994.0,160.0,293.7,1649260072.004139,1649260072.9377642,6098fcc9-7ebb-46d0-9351-c731c035ff01
-0.456189624599457,-0.238499771984763,-1.085775784113982,-0.335129554997185,-1.077610438117356,0.7650744352854723,-1.3056221641948935,-1.3326953556776278,-33.599109404948656,22.88948017348006,22.35399474356984,2.559517743911184,-0.882018389366219,4.773544516901455,7739.826714409723,11.616555555555555,7.41,179.51339501172794,1.5087762063525016,49.595848093993446,1553.0,1522.0,1350.0,1528.0,1471.0,994.0,160.0,293.7,1649260073.0479991,1649260074.1693604,6098fcc9-7ebb-46d0-9351-c731c035ff01
-0.4430277766115996,-0.2355544637130896,-1.074467897547157,-0.3318818262857411,-1.0668679459550874,0.7626813727970659,-1.2973253292843725,-1.3287901885646272,-33.78290839549064,23.0161361492177,22.923790862394043,2.5482151167859386,-0.8744017543740128,4.732694024181172,7736.720811631944,11.620666666666668,7.41,179.521928194731,1.5171348519347492,49.59089393011546,1553.0,1522.0,1350.0,1528.0,1471.0,994.0,160.0,293.7,1649260074.277132,1649260075.4028523,6098fcc9-7ebb-46d0-9351-c731c035ff01
-0.4590691897152624,-0.2557114174670999,-1.1471407952549797,-0.7739805713474343,-1.1818139347216663,1.2060159351676552,-1.2463872351635945,-1.2789039892432537,-33.63542166809003,22.302354005110587,25.18956191265935,4.533798572358704,-0.9213152940256958,4.913067187146416,7742.9326171875,11.617555555555557,7.394444444444446,179.47537817880766,1.6195609616266258,49.643773254669696,1553.0,1613.0,1350.0,1528.0,1471.0,994.0,160.0,293.7,1649260077.5342453,1649260078.6706655,4c77ef98-9080-40e8-ba1b-b5907b15d6a9
-0.4438824420699495,-0.2515564289214325,-1.1485082602088197,-0.7787666996040898,-1.1837204965944428,1.2121432275697972,-1.2479650795409265,-1.2757745965791747,-33.79159260386227,22.31522579820552,26.001675409811675,4.558431830417328,-0.9113211595700114,4.92126621919128,7742.9326171875,11.614555555555556,7.400000000000001,179.4198365982969,1.6039694065886154,49.71823863318585,1553.0,1613.0,1350.0,1528.0,1471.0,994.0,160.0,293.7,1649260078.7793014,1649260079.901624,4c77ef98-9080-40e8-ba1b-b5907b15d6a9
-0.4511536727726655,-0.2552117669514148,-1.145549801512205,-0.7611605874460166,-1.177803578624652,1.200348847216285,-1.2483726894605416,-1.274341387260812,-33.87309766163554,22.342689306689387,26.130431321146656,4.492522074718997,-0.9275748602186612,4.90958021246521,7742.9326171875,11.605,7.386666666666667,179.4151586776254,1.6111563901369907,49.81035891234163,1553.0,1613.0,1350.0,1528.0,1471.0,994.0,160.0,293.7,1649260080.0106394,1649260080.9709122,4c77ef98-9080-40e8-ba1b-b5907b15d6a9
-0.4487080146903494,-0.2610629375040298,-1.1894533323855832,-1.1864422790534364,-1.268937268618056,1.6196344960569855,-1.17951290985249,-1.2060601493750511,-33.691225550361665,22.015239086196765,29.34590338797797,6.390291518090533,-0.9297337253113096,4.995871101343563,7742.9326171875,11.604,7.389999999999999,179.43975191209688,1.7464986874010069,50.03094442504664,1553.0,1710.0,1350.0,1528.0,1471.0,994.0,160.0,293.7,1649260082.860181,1649260083.9967475,912e4041-f046-4c48-955f-d59745cb3c42
-0.463026948164959,-0.2662566732010968,-1.2141597533296675,-1.1913598956173386,-1.2904222580759106,1.6276683506807403,-1.203272624110864,-1.2313977082217604,-34.00184553872706,21.949349914545863,28.936902888654668,6.41754904294148,-0.94435184784186,5.091202173884418,7742.9326171875,11.575666666666669,7.376666666666667,179.43245727006328,1.7850113849402602,49.99543085645716,1553.0,1710.0,1350.0,1528.0,1471.0,994.0,160.0,293.7,1649260084.1050842,1649260085.221114,912e4041-f046-4c48-955f-d59745cb3c42
-0.4551245799656898,-0.2834157240907245,-1.2207735534930118,-1.1745295511038902,-1.289146833541946,1.6349001347880892,-1.2067044362363422,-1.236907016607081,-34.232367881638964,21.82572781505657,29.74160375976409,6.3946980996393386,-1.0167027361965182,5.102462316170158,7742.9326171875,11.565222222222223,7.354444444444444,179.44737136757098,1.785561962220387,50.03866747172315,1553.0,1710.0,1350.0,1528.0,1471.0,994.0,160.0,293.7,1649260085.328807,1649260086.4540794,912e4041-f046-4c48-955f-d59745cb3c42
-0.4422125573024446,-0.2739618102251767,-1.2600618914474968,-1.5662033049844015,-1.3803988726044796,1.9957924936417653,-1.1543068398246334,-1.1850616644054772,-33.94856129373434,22.065470666135504,31.13540802008727,8.089189474121833,-0.9498699592987204,5.205477817184495,7742.9326171875,11.565111111111111,7.376666666666667,179.44745788330044,1.916187160088863,50.12497791607993,1553.0,1814.0,1350.0,1528.0,1471.0,994.0,160.0,293.7,1649260088.3868515,1649260089.5273392,5b50affd-fb6b-47fa-8fda-06ecd67eb53b
-0.4358880330396535,-0.2758946687970984,-1.2482017567541446,-1.5526338348437612,-1.3665138354918849,1.984011257604173,-1.1434723057278842,-1.1718340653253572,-33.851893905966506,21.971682718202395,31.055730504930143,8.0321108463231,-0.9580177758116242,5.154851975886259,7742.9326171875,11.523444444444443,7.351111111111111,179.4189562628039,1.9239983588943537,50.17856454466822,1553.0,1814.0,1350.0,1528.0,1471.0,994.0,160.0,293.7,1649260089.6359336,1649260090.9605255,5b50affd-fb6b-47fa-8fda-06ecd67eb53b
-0.4465779253863801,-0.2836655493349538,-1.2436260061684532,-1.5457439094571408,-1.3556135550675985,1.991755842405548,-1.1391989759398693,-1.1631690677522766,-34.51037341096438,21.90872692153033,32.01396881210867,8.033603765978114,-0.9915548751503814,5.127720829558027,7742.9326171875,11.531555555555554,7.355555555555556,179.39628307039908,1.9541377306878311,50.21885165657764,1553.0,1814.0,1350.0,1528.0,1471.0,994.0,160.0,293.7,1649260091.069193,1649260092.189928,5b50affd-fb6b-47fa-8fda-06ecd67eb53b
-0.4614637701211784,-0.2296547441958729,-0.9571571765627211,0.5532868880712433,-0.8691620064057051,-0.0980286982623677,-1.4241764893557989,-1.4500693340838895,-33.622928801087184,25.45407907043808,17.198156828787738,-1.3614685494340302,-0.9041653602098289,4.483623891961488,7749.93359375,11.561,7.361111111111111,179.28183186720693,1.2609904969210737,50.18328041083515,1553.0,1349.0,1350.0,1528.0,1471.0,994.0,160.0,293.7,1649260093.8393528,1649260095.0520694,b43ff851-e5f4-4304-847f-61ee372e26a8
-0.491124201752808,-0.2298823177770244,-0.9768296610103716,0.5289112303674145,-0.8869127558288358,-0.0895831890097635,-1.4329886539011565,-1.4560368258139842,-33.30468307319831,24.75588983479945,15.074479543170453,-1.293291119601747,-0.8867070725746877,4.544436043517257,7749.155707465277,11.638,7.400000000000001,179.2812368818392,1.1841928696786386,50.25361124817373,1553.0,1349.0,1350.0,1528.0,1471.0,994.0,160.0,293.7,1649260095.1608574,1649260096.4908097,b43ff851-e5f4-4304-847f-61ee372e26a8
-0.4531826181315432,-0.2229286795780339,-0.9708621721181232,0.5314018966381666,-0.8862932496076918,-0.085638579924442,-1.4352138202460785,-1.463508833361327,-33.59368669201016,25.41653595105999,16.936726112736203,-1.2852173693431082,-0.8750033925730657,4.541642587481288,7742.9326171875,11.636333333333331,7.416666666666667,179.27187496921684,1.196151463698273,50.296993953596974,1553.0,1349.0,1350.0,1528.0,1471.0,994.0,160.0,293.7,1649260096.600066,1649260097.7184207,b43ff851-e5f4-4304-847f-61ee372e26a8
-0.4784372239717031,-0.2092833657626211,-0.9026406277174812,0.9273687789020544,-0.7909686942188595,-0.4841569084775029,-1.48783698292126,-1.5123067343129006,-33.59132967954311,27.255396291317155,14.05845292977005,-3.05881616070692,-0.8427277197003252,4.394048147759142,7742.9326171875,11.626111111111111,7.399999999999999,179.30015650584016,1.0267269967945851,50.492766906867146,1553.0,1264.0,1350.0,1528.0,1471.0,994.0,160.0,293.7,1649260099.3371365,1649260100.587844,93947799-e3fd-4050-ab59-b7b98bdb50fa
-0.4629480560224231,-0.2023014073550467,-0.899945143701911,0.924121051287636,-0.7907583150982239,-0.4858793879839265,-1.4885338646252304,-1.509821628316038,-33.71283544449449,27.408351234989627,14.367278994490166,-3.0542244846836644,-0.8178449222495885,4.392183739221795,7742.9326171875,11.606111111111112,7.38111111111111,179.3007287239106,1.0136986243961976,50.6045182880624,1553.0,1264.0,1350.0,1528.0,1471.0,994.0,160.0,293.7,1649260100.6961758,1649260101.814935,93947799-e3fd-4050-ab59-b7b98bdb50fa
-0.4585432416964516,-0.2034321953371122,-0.9029824944272996,0.9315763614627178,-0.7894434451632109,-0.4909810834350276,-1.4890072186731964,-1.51117594544844,-33.66066255288434,27.02609138658729,14.451215634952616,-3.085151672762428,-0.8243162028956875,4.395447338439048,7742.9326171875,11.6095,7.39,179.3070703648275,1.0122007645041122,50.69004316580088,1553.0,1264.0,1350.0,1528.0,1471.0,994.0,160.0,293.7,1649260101.9236422,1649260103.2439806,93947799-e3fd-4050-ab59-b7b98bdb50fa
-0.4912309085801911,-0.1917955980340572,-0.8464036247814316,1.3243936476449898,-0.7060806753190324,-0.8820760554507854,-1.557525154389744,-1.587399028685046,-34.130546843313034,29.21648758914792,11.828254662056374,-4.833410843470462,-0.7988391950462332,4.302261198368773,7742.9326171875,11.601,7.38,179.364469567065,0.8384900307666325,50.86260533386032,1553.0,1178.0,1350.0,1528.0,1471.0,994.0,160.0,293.7,1649260103.8413184,1649260104.8877647,c69a5747-a9ee-4b7f-af6f-1892b3271f79
-0.462601638368206,-0.1880972739932785,-0.8503366038432298,1.304469326767906,-0.7146015393617968,-0.8771397287422062,-1.5563210356011856,-1.5874733695621854,-33.65192603311716,29.092148575453603,10.426223265669474,-4.778376532665186,-0.7737279511227604,4.316194697728333,7742.9326171875,11.574555555555555,7.375555555555555,179.36796207046058,0.8346899020541176,50.94945915771106,1553.0,1178.0,1350.0,1528.0,1471.0,994.0,160.0,293.7,1649260104.9960597,1649260106.1174824,c69a5747-a9ee-4b7f-af6f-1892b3271f79
-0.4666559892943048,-0.191243352771438,-0.8544900778448867,1.3040657628714851,-0.7190058496078775,-0.8704000070736,-1.5635867117075366,-1.5893976335865403,-34.004693909992206,29.407020514934985,10.847157615421995,-4.76055110303783,-0.7869698662793146,4.338033492525036,7742.9326171875,11.58,7.38,179.33596035746936,0.8374762812834144,50.962906661821954,1553.0,1178.0,1350.0,1528.0,1471.0,994.0,160.0,293.7,1649260106.2273629,1649260107.2740524,c69a5747-a9ee-4b7f-af6f-1892b3271f79
-0.4709030191438604,-0.1795936068113096,-0.779266349968764,1.513748033255621,-0.6310410383160505,-1.0899702215710485,-1.5519632499083804,-1.5739873418885093,-33.88506817690593,30.27720392877434,9.028975009259048,-5.717661943900277,-0.7490412454536124,4.099544950757053,7742.9326171875,11.568555555555555,7.381111111111112,179.36455304715486,0.7361214677901066,51.00725849519744,1553.0,1088.0,1350.0,1528.0,1471.0,994.0,160.0,293.7,1649260108.4568818,1649260109.6022842,0f02c99c-2abd-4886-bfd9-0b0fd46e0cc8
-0.4746898446229587,-0.1870489182318763,-0.7748483855254364,1.5323534401634722,-0.6282929594456342,-1.092100311497426,-1.553383310127234,-1.5848087320572404,-33.89150553649183,30.880827036626343,10.12690202879621,-5.760024528854372,-0.7886889448766964,4.092358989140206,7735.9443359375,11.54111111111111,7.335555555555556,179.37247758441188,0.7275254672052177,51.09612646594342,1553.0,1088.0,1350.0,1528.0,1471.0,994.0,160.0,293.7,1649260109.7110088,1649260110.821756,0f02c99c-2abd-4886-bfd9-0b0fd46e0cc8
-0.485392885970067,-0.184655855300578,-0.7915998321993792,1.5078179704683403,-0.6459253671705051,-1.0794249590784843,-1.5643493360792258,-1.5942626565202105,-33.856436564658054,30.608438323668548,8.94741023721398,-5.679005484000633,-0.7675536379385235,4.153369496397513,7735.9443359375,11.547666666666666,7.386666666666666,179.38878504051024,0.6701135057948986,51.14393171885425,1553.0,1088.0,1350.0,1528.0,1471.0,994.0,160.0,293.7,1649260110.9305656,1649260112.0619538,0f02c99c-2abd-4886-bfd9-0b0fd46e0cc8
-0.4400971337960264,-0.2288961654484259,-1.032623154560257,0.0398429711651432,-0.9906737294551964,0.3912165780401875,-1.3569410686264216,-1.3822776197497235,-33.47107742875112,23.75224745166704,19.628160789970963,0.8815590390897744,-0.8655291258191874,4.656088600336188,7732.069010416667,11.580444444444444,7.397777777777778,179.46671446330046,1.1783399548844011,51.23129818634769,1553.0,1435.0,1350.0,1528.0,1471.0,994.0,160.0,293.7,1649260112.964782,1649260114.1031554,bf554fd2-0e09-4aaf-a9a0-6f1dac61ddcd
-0.4445530256622607,-0.2277967320311796,-1.0340224804492584,0.0398186968353211,-0.9926172094606216,0.3918881729595661,-1.359360937102808,-1.3863026422889604,-33.51674963143035,23.823416666946493,19.85813999039772,0.8835387415178664,-0.8632051394094767,4.664484537950604,7742.9326171875,11.632888888888887,7.392222222222222,179.48356985235222,1.1905783376426928,51.19723451513703,1553.0,1435.0,1350.0,1528.0,1471.0,994.0,160.0,293.7,1649260114.2118046,1649260115.2572677,bf554fd2-0e09-4aaf-a9a0-6f1dac61ddcd
