raw_voltage_G-,raw_voltage_G0,raw_voltage_G1,raw_voltage_G2,raw_voltage_G3,raw_voltage_G4,raw_voltage_G5,raw_voltage_G6,load_x,load_y,load_z,load_l,load_m,load_n,rpm,voltage,current,roll,pitch,yaw,aileron1_pwm,elevator_pwm,throttle_pwm,rudder_pwm,aileron2_pwm,pbaro,pdiff,Tt,sample_start_time,sample_end_time,uid
0.0798433285650341,0.2530248012361058,0.1371190484007318,-0.1243427809442279,-0.0749825725040465,0.1151344288200556,-0.1636705343248276,-0.1910461222896227,-12.076518338223469,23.81745907803625,34.988524567090074,0.7034240726304801,0.7487748627444641,0.208906065093686,5696.142306857639,11.967666666666666,0.1288888888888889,179.60248496362198,-4.30453647517303,102.09699987263176,1553.0,1435.0,1200.0,1528.0,1471.0,994.0,160.0,293.7,1649261223.8298042,1649261224.9450233,980a7431-f5b8-42e2-ad2e-921924fcbd42
0.0977650013458048,0.2657527384998185,0.1341342944464416,-0.1337309506740382,-0.0817278539805637,0.1107690617467027,-0.1693376228591514,-0.1978308502187596,-12.05462465490426,23.83459004941325,34.87830350331355,0.714750314045982,0.7983012520862742,0.2315412452663048,5699.0869140625,11.965333333333334,0.1266666666666666,179.62313793785225,-4.298691825382006,101.599077564318,1553.0,1435.0,1200.0,1528.0,1471.0,994.0,160.0,293.7,1649261225.053255,1649261226.0932112,980a7431-f5b8-42e2-ad2e-921924fcbd42
0.0980016778693756,0.2633596759179725,0.142641500653718,-0.1286818509813403,-0.0734704724207833,0.1103351547752919,-0.1608567131538875,-0.1817105472372049,-11.97619980888435,23.914852432710425,35.20806437266465,0.7034334492431928,0.7857670988529355,0.1968648381934477,5695.30029296875,11.964888888888888,0.12,179.64082357434313,-4.274770558201984,101.1526207314003,1553.0,1435.0,1200.0,1528.0,1471.0,994.0,160.0,293.7,1649261226.2020366,1649261227.4021826,980a7431-f5b8-42e2-ad2e-921924fcbd42
0.3303917251784776,0.6828030507806454,0.1890826943134944,-0.3042695593396765,-0.1261310037475919,-0.1363212439756184,-0.213635584748687,-0.2450609723807493,-11.23834797830314,23.13326420111012,35.56373715923894,0.5428057686669086,2.3751095952035346,0.3309833370919549,5702.87841796875,11.949333333333334,0.1233333333333333,179.27214817678365,-4.24700963377542,100.36122189046908,1637.0,1435.0,1200.0,1528.0,1535.0,994.0,160.0,293.7,1649261229.5412934,1649261230.6750157,6c2267e3-b919-4b82-b0a6-249993932802
0.3325744085947496,0.6798971891928441,0.1696226245877311,-0.3038882470872496,-0.1424090908241383,-0.1361108648187375,-0.2323593302026054,-0.2520955256943639,-11.366584470300625,22.971656283984657,35.094703121684056,0.5402387540214664,2.367992157590513,0.405306372000571,5699.508192274306,11.942444444444444,0.12,179.26249028929726,-4.229901290565008,100.14107958115022,1637.0,1435.0,1200.0,1528.0,1535.0,994.0,160.0,293.7,1649261230.7836664,1649261231.9106302,6c2267e3-b919-4b82-b0a6-249993932802
0.3338892781425981,0.6763207441628895,0.1882543264884207,-0.2924751770704994,-0.1238036843481579,-0.1361503109262398,-0.2134778003486966,-0.2390388687372036,-11.228457820817331,23.08345889183482,36.22662225038851,0.5163238748630884,2.34334637056356,0.3289993019971859,5699.0869140625,11.938444444444446,0.1144444444444444,179.2367419939461,-4.1947668923382,99.92846110465706,1637.0,1435.0,1200.0,1528.0,1535.0,994.0,160.0,293.7,1649261232.0186558,1649261233.1426404,6c2267e3-b919-4b82-b0a6-249993932802
0.5933393302169209,1.1301348112506115,0.2376539760939279,-0.4873651908553846,-0.1843928813852939,-0.4022273634208912,-0.2719632081837389,-0.2960121769517664,-10.309693123720432,22.4054253669841,36.06974019259415,0.3564398149278577,4.067427997317715,0.4813598362251142,5695.30029296875,11.940222222222223,0.12,178.74246700664915,-4.1680802048861,99.6591877268185,1723.0,1435.0,1200.0,1528.0,1599.0,994.0,160.0,293.7,1649261233.841132,1649261234.99067,b5d66b46-3c6c-4560-9035-cc92c1b44877
0.5825705490197944,1.12365250426165,0.2380747343258844,-0.4881146667750403,-0.1838800821994546,-0.3946405642003207,-0.2709902045742192,-0.2992730541684806,-10.404171480939054,22.57807126964076,36.15097729601854,0.3763098329984987,4.043185975405384,0.4778892140042683,5691.51806640625,11.912222222222224,0.12,178.7074493856844,-4.151918174898818,99.56912637024251,1723.0,1435.0,1200.0,1528.0,1599.0,994.0,160.0,293.7,1649261235.0982215,1649261236.1572368,b5d66b46-3c6c-4560-9035-cc92c1b44877
0.5879878113576743,1.1322123051762452,0.230803505632776,-0.4970031877191247,-0.1933471444521741,-0.3962710028359884,-0.2789583156235032,-0.3032571100148222,-10.361847976083958,22.514260068270367,35.88996823289936,0.391890972646931,4.077936522383896,0.512685530771053,5691.51806640625,11.914,0.12,178.68004059545507,-4.138685110268742,99.4781528039574,1723.0,1435.0,1200.0,1528.0,1599.0,994.0,160.0,293.7,1649261236.2657492,1649261237.4441807,b5d66b46-3c6c-4560-9035-cc92c1b44877
0.7986167562595062,1.4772998432282491,0.2980590832095208,-0.6807036809980687,-0.2206701379452409,-0.580063525322991,-0.2869527239672128,-0.317602339433797,-9.11213904851615,22.30439270129669,34.00751410526071,0.3955545803915655,5.40694116082603,0.5080559882534685,5698.666178385417,11.90688888888889,0.1288888888888889,178.45931772005673,-4.07160999643454,99.2110043738606,1813.0,1435.0,1200.0,1528.0,1662.0,994.0,160.0,293.7,1649261239.3714592,1649261240.515298,89454a1c-6c2f-43a4-a6cf-9c72aa79243c
0.7882687332900208,1.478719902571055,0.2906169215985502,-0.6851084959185875,-0.2277967321217548,-0.5778413949921934,-0.296787950125155,-0.322007153349561,-9.43931667132059,22.392100615519947,33.878845428971665,0.4105098402079999,5.415795337870383,0.5415973486105807,5691.51806640625,11.874444444444444,0.11,178.44277955534642,-4.072764108676795,99.08169295576418,1813.0,1435.0,1200.0,1528.0,1662.0,994.0,160.0,293.7,1649261240.6331651,1649261241.7350876,89454a1c-6c2f-43a4-a6cf-9c72aa79243c
0.7822597796465145,1.4707912381017278,0.2899200407312032,-0.6786656323196668,-0.2281911930778462,-0.5808524473158069,-0.2937637496169411,-0.3185095997768328,-8.948137337720155,22.31896573524313,33.197447674262115,0.3888291902777716,5.38778211679199,0.5372883072626752,5686.066460503473,11.878222222222222,0.11,178.42243166289904,-4.04951798672348,98.93561645889504,1813.0,1435.0,1200.0,1528.0,1662.0,994.0,160.0,293.7,1649261241.8451054,1649261242.966307,89454a1c-6c2f-43a4-a6cf-9c72aa79243c
-0.1992736668614416,-0.2570773649000699,0.0864702713210689,0.1099482796481006,-0.0078716247015099,0.3989414365428303,-0.1032376050889597,-0.125615676026665,-12.955453885381578,25.337509001931338,34.975723096732395,0.8197832316956192,-1.190115378596986,0.039570070229352,5686.48583984375,11.903666666666666,0.1133333333333333,179.52865365433374,-4.033897628682875,98.6082219657692,1470.0,1435.0,1200.0,1528.0,1403.0,994.0,160.0,293.7,1649261244.901308,1649261246.0389264,e803ac61-7aec-423a-9816-6d66cc8ca313
-0.1709154664784761,-0.2534235440229417,0.0838142347180493,0.1053255015503274,-0.0118556797292044,0.3992908884040158,-0.1058688616206525,-0.1351115640374441,-12.905628033121584,25.323221181143307,34.90878684812171,0.8307837939480279,-1.1757701875944475,0.0527111965934179,5696.56396484375,11.963666666666668,0.13,179.5075665836362,-4.01561705425616,98.4457135515768,1470.0,1435.0,1200.0,1528.0,1403.0,994.0,160.0,293.7,1649261246.148242,1649261247.274621,e803ac61-7aec-423a-9816-6d66cc8ca313
-0.1726854834210617,-0.254194765717744,0.0842071784457593,0.1074702561618837,-0.01051400695734,0.398271358804187,-0.1043628301021028,-0.1286626336921167,-12.841083003586638,25.22389180552943,34.94532784332274,0.823054148583783,-1.179684272842385,0.0482668260985671,5695.30029296875,11.963,0.1266666666666666,179.5017199417067,-3.990034865311092,98.21510587462966,1470.0,1435.0,1200.0,1528.0,1403.0,994.0,160.0,293.7,1649261247.39022,1649261248.4966202,e803ac61-7aec-423a-9816-6d66cc8ca313
-0.4399246835943367,-0.7027803504567148,0.047181967118105,0.3040680370402613,0.0498774498726494,0.6533894201461165,-0.0433731055498934,-0.0616760913542953,-13.29707578876635,26.905590297474347,34.53920669227333,0.9618723703405,-2.8818501822717675,-0.124492454556995,5691.51806640625,11.944,0.12,179.6052519491457,-3.9633454742424448,97.90855104757142,1385.0,1435.0,1200.0,1528.0,1331.0,994.0,160.0,293.7,1649261249.407101,1649261250.5435903,9f579e7b-380c-46fe-ba66-14e28d45b682
-0.4439218881917668,-0.7027146069683451,0.0373598910130249,0.2933912963683422,0.0403840911670115,0.6595167119989833,-0.0517882713989669,-0.0750351674761937,-13.44672368414757,26.831857853957104,33.9535950831898,0.9985787904951674,-2.874663554689642,-0.0871781872068299,5691.51806640625,11.914333333333332,0.1188888888888888,179.6172305831301,-3.962702914709901,97.61871424687166,1385.0,1435.0,1200.0,1528.0,1331.0,994.0,160.0,293.7,1649261250.6518562,1649261251.771383,9f579e7b-380c-46fe-ba66-14e28d45b682
-0.4382547988784837,-0.699545769920216,0.0509950890026867,0.290630070301866,0.0512580629279444,0.6570973521256979,-0.0396520243845297,-0.0641480466181784,-13.403212455855732,26.96769193469004,33.787049816974495,1.000945571849506,-2.860403695875448,-0.1377556343429503,5688.161295572917,11.908333333333331,0.11,179.6267807054096,-3.949377547662291,97.387148066711,1385.0,1435.0,1200.0,1528.0,1331.0,994.0,160.0,293.7,1649261251.8819191,1649261253.004701,9f579e7b-380c-46fe-ba66-14e28d45b682
-0.7139304494227849,-1.1929640365752867,-0.009068156132863,0.5016534799093544,0.1003289969862435,0.9450406251601592,0.0081829336627149,-0.010106903203623,-14.203098021424015,28.760310657874875,33.551985305479214,1.1804280669481593,-4.733036213676826,-0.250306022904025,5685.22705078125,11.864333333333333,0.1066666666666666,179.7409495941161,-3.92141835802232,96.77664754485744,1297.0,1435.0,1200.0,1528.0,1253.0,994.0,160.0,293.7,1649261254.936949,1649261256.2785485,734a5aa3-33a6-4a20-8bbe-3a6b8a5c409c
-0.7373614356913266,-1.2078352241901975,0.0037255256306178,0.5282664386627051,0.1187766175520959,0.9397679983626576,0.0189517160919989,-0.0104487693019909,-14.407723852363056,28.89813678823396,34.30449415173401,1.1101151126238535,-4.796496620630408,-0.3089083863022722,5683.9697265625,11.857666666666669,0.11,179.7453664497794,-3.904380878024547,96.4759735106746,1297.0,1435.0,1200.0,1528.0,1253.0,994.0,160.0,293.7,1649261256.3870494,1649261257.5079756,734a5aa3-33a6-4a20-8bbe-3a6b8a5c409c
-0.717007245568763,-1.2033252176830198,-0.0082792342271419,0.5087669239207213,0.105456988502972,0.9493139511192008,0.0100106025816033,-0.0143933781791349,-14.4612291191314,28.74272024716301,33.6590474160603,1.1737944178612474,-4.771844944801309,-0.262181760071084,5687.74169921875,11.860111111111111,0.1,179.74794370782618,-3.906532767068055,96.23149979080245,1297.0,1435.0,1200.0,1528.0,1253.0,994.0,160.0,293.7,1649261257.616288,1649261258.7350824,734a5aa3-33a6-4a20-8bbe-3a6b8a5c409c
0.0797249902894373,0.2412961647882413,0.128822221289246,-0.1212659857686244,-0.0813333930789862,0.1229053081428719,-0.1706524926164885,-0.189757550131929,-12.16014790986695,23.96250515506504,34.80229064697439,0.7144223975669749,0.7061255071460164,0.2370335529985774,5699.0869140625,11.897333333333332,0.11,179.16941757820717,-3.891908810304496,95.73997509301128,1553.0,1435.0,1200.0,1528.0,1471.0,994.0,160.0,293.7,1649261260.8743737,1649261262.0201142,acc6fa83-e92c-4b15-8c85-9b8fbac1628a
0.0895339176062611,0.2591652420521914,0.1272969725230171,-0.1380437233247923,-0.0879866337336964,0.1189738480501295,-0.1757936333085678,-0.1942281071111994,-12.24770894024274,23.980536937061444,34.5108595338337,0.7433874030179652,0.7783174050165108,0.2570298575834159,5704.989366319444,11.969666666666669,0.1222222222222222,179.12575293775322,-3.866707499269396,95.95259964078367,1553.0,1435.0,1200.0,1528.0,1471.0,994.0,160.0,293.7,1649261262.1334083,1649261263.2392015,acc6fa83-e92c-4b15-8c85-9b8fbac1628a
0.085760241801708,0.2363917013498912,0.1267184299301665,-0.1165587522425593,-0.0826877088559061,0.1273627160780623,-0.1742289382715409,-0.2005394821256189,-12.337753418038991,24.164686225137007,35.34532122390648,0.7150531109056777,0.6834654676907894,0.2468445227829325,5714.28466796875,11.966,0.12,179.06716964633213,-3.8483904971671055,96.14268076974552,1553.0,1435.0,1200.0,1528.0,1471.0,994.0,160.0,293.7,1649261263.3481758,1649261264.6728966,acc6fa83-e92c-4b15-8c85-9b8fbac1628a
0.0899941219755835,0.2405861352290929,0.1094541920940333,-0.4776745993652173,-0.1371233145693905,0.4709775743174246,-0.0917208636429638,-0.1179919603903164,-12.01251255218176,23.19927797217471,37.76496348513452,2.2950804260039748,0.7188001985006133,0.2284245159437412,5710.4775390625,11.969,0.12,179.02958539205926,-3.715638703299392,96.40411081368718,1553.0,1522.0,1200.0,1528.0,1471.0,994.0,160.0,293.7,1649261266.3180535,1649261267.3384073,55d97ffd-6922-4f34-afd0-e8a9c5e1e9e0
0.1106901695580679,0.2353661030884556,0.1107690616891735,-0.4703244763411836,-0.1352693482685825,0.4718453881907052,-0.0909450905346015,-0.110076444655849,-11.99420440428285,23.33997636112044,38.12943647414428,2.28151593620204,0.6950427931516334,0.2229044364658929,5710.4775390625,11.96288888888889,0.12,178.9967321821515,-3.706577935614809,96.48131775424518,1553.0,1522.0,1200.0,1528.0,1471.0,994.0,160.0,293.7,1649261267.446853,1649261268.5139427,55d97ffd-6922-4f34-afd0-e8a9c5e1e9e0
0.1247329768689194,0.2525382995008695,0.125061694245379,-0.476977718272835,-0.1251842975412473,0.4609188225704501,-0.0775991631567818,-0.0964806919251031,-11.710150932508508,23.14636032546036,38.20429194426147,2.2715536593236094,0.7584970170957201,0.1730872317670273,5710.4775390625,11.95977777777778,0.12,178.9602453116053,-3.7064530475031097,96.55474532346246,1553.0,1522.0,1200.0,1528.0,1471.0,994.0,160.0,293.7,1649261268.6248076,1649261269.7919722,55d97ffd-6922-4f34-afd0-e8a9c5e1e9e0
0.1282699760469274,0.2541818864428091,0.0916377089796899,-0.9151581930301768,-0.2064826931578709,0.8824791334543787,0.0043435144403164,-0.0139594712601145,-11.570484926629916,22.546510144259283,41.19291609449127,4.202189699398715,0.7890051650587634,0.2136261627694689,5718.09619140625,11.951444444444444,0.1177777777777777,178.9002458942963,-3.5442083307877383,96.62881265373198,1553.0,1613.0,1200.0,1528.0,1471.0,994.0,160.0,293.7,1649261271.935377,1649261273.0735042,5e04c8ee-08cb-479c-b15e-345e3191b198
0.1309917561131113,0.2391923735022089,0.1029192901678481,-0.9127651289669824,-0.1935312261346741,0.894628527766275,0.0206216005612473,0.0017795184774451,-11.48163288814552,22.62545715101105,41.25007231648982,4.225231777964524,0.7320718245167412,0.1557488321178163,5710.900553385417,11.945666666666666,0.1111111111111111,178.88606186811987,-3.531831695988591,96.60791151596185,1553.0,1613.0,1200.0,1528.0,1471.0,994.0,160.0,293.7,1649261273.181839,1649261274.3021872,5e04c8ee-08cb-479c-b15e-345e3191b198
0.1330561013679099,0.2495798430034773,0.0976992577818898,-0.9227055489407436,-0.2029982884341165,0.8908285548671286,0.0100500485874666,-0.0138148357072011,-11.659220848279723,22.85917405082177,40.79310959780037,4.2402430625717855,0.7772350435776252,0.1911155369022937,5712.170572916667,11.946333333333332,0.1122222222222222,178.8690213050506,-3.535451980839913,96.59889718407725,1553.0,1613.0,1200.0,1528.0,1471.0,994.0,160.0,293.7,1649261274.4106858,1649261275.450513,5e04c8ee-08cb-479c-b15e-345e3191b198
0.1522006025837868,0.2404283508849903,0.0781471466950888,-1.3121702205770536,-0.2628906066115167,1.2854866546235086,0.1016833127109433,0.0771741430704012,-11.343422999777474,22.17888708072724,44.92091526040681,6.000963079733619,0.7507920074472259,0.170676234788871,5721.91357421875,11.929,0.11,178.87367494060513,-3.3823971176412515,96.56071339097724,1553.0,1710.0,1200.0,1528.0,1471.0,994.0,160.0,293.7,1649261277.464676,1649261278.6028702,fb0e9f23-a123-4bc6-acbf-c7149bfd0ced
0.1510040712779385,0.2370885821837621,0.0879034792375698,-1.3115390827275764,-0.2563557037422715,1.282830617980515,0.1066535198218631,0.0825519597950688,-11.457957065493323,22.64887216178582,44.21284268569802,5.997001782114444,0.7459008811016652,0.1397297502848271,5718.09619140625,11.912,0.11,178.8754963243838,-3.380352614349694,96.46496096900285,1553.0,1710.0,1200.0,1528.0,1471.0,994.0,160.0,293.7,1649261278.7101128,1649261279.8285,fb0e9f23-a123-4bc6-acbf-c7149bfd0ced
0.1406428989469424,0.2267668561659069,0.0821180529333716,-1.3059508816324952,-0.2582228188464918,1.288168988688135,0.1063379511051546,0.0831567998959271,-11.283864326212932,22.42077936759457,44.24385099963865,5.994684647791452,0.7046224608156529,0.1496674672643812,5718.09619140625,11.90688888888889,0.1022222222222222,178.86971039524687,-3.376069824864816,96.39982297270824,1553.0,1710.0,1200.0,1528.0,1471.0,994.0,160.0,293.7,1649261279.93843,1649261281.0588872,fb0e9f23-a123-4bc6-acbf-c7149bfd0ced
0.1533445391299478,0.2393370091635935,0.0576614780723732,-1.4954895342369994,-0.3105546371231213,1.458431463240698,0.1202492714796781,0.0917166010443915,-11.334105920145744,22.8044795787889,45.34177735647494,6.806315471351719,0.7641852370787313,0.2356905558374503,5714.28466796875,11.878333333333336,0.1033333333333333,178.86264646182528,-3.311518892815756,96.20429362951846,1553.0,1814.0,1200.0,1528.0,1471.0,994.0,160.0,293.7,1649261283.199371,1649261284.3365052,4c5e94b0-a94e-4376-bdbb-71dbebb4d355
0.1499784730268616,0.2153274909603033,0.0748468238895876,-1.4855754058645707,-0.2903582368916003,1.4718431343821743,0.1420761066436409,0.1236153375356693,-11.311074675037869,23.048143253353985,45.34901601065268,6.816573181180567,0.6737807309096658,0.1507881334969104,5700.350748697917,11.871666666666666,0.1,178.87683504146108,-3.3005002324328405,95.98823197877374,1553.0,1814.0,1200.0,1528.0,1471.0,994.0,160.0,293.7,1649261284.444651,1649261285.766145,4c5e94b0-a94e-4376-bdbb-71dbebb4d355
0.1423127833100644,0.224452685731516,0.0598441616077106,-1.5025766895722876,-0.3078065592598947,1.4761690558640352,0.1273101211801879,0.1089939876201462,-11.367705779520376,22.968545200348068,44.89639944872255,6.863269481180063,0.7135588927777047,0.2163370464769209,5694.03955078125,11.871,0.1,178.89652875356796,-3.3276537206260297,95.8717567628575,1553.0,1814.0,1200.0,1528.0,1471.0,994.0,160.0,293.7,1649261285.8746376,1649261287.003382,4c5e94b0-a94e-4376-bdbb-71dbebb4d355
0.0540981814161766,0.2408228117551787,0.1606815113943284,0.368601833721906,-0.0055574540943744,-0.3459246356408414,-0.2792081408295065,-0.3025602287434449,-12.439006567573122,25.77396655625681,31.90065794225612,-1.431130998730327,0.6737781525754436,0.2441633421227693,5690.678873697917,11.896888888888888,0.1044444444444444,178.86441016845097,-3.8986461753064137,95.7178528691995,1553.0,1349.0,1200.0,1528.0,1471.0,994.0,160.0,293.7,1649261288.932125,1649261290.0779598,f5a9a97f-b972-4dff-95f2-1dda0f7ca52d
0.073650292686509,0.2388813562805085,0.1626694930716415,0.3661329133300818,-0.0029535064559528,-0.3404830973655975,-0.2754981850877885,-0.3048931111062561,-12.487667929992446,25.73779108360171,32.1031077351565,-1.4134669027312454,0.6654760107747705,0.2326344375323155,5687.74169921875,11.973777777777778,0.1211111111111111,178.84608097635825,-3.928403127654174,96.08483286202504,1553.0,1349.0,1200.0,1528.0,1471.0,994.0,160.0,293.7,1649261290.1910477,1649261291.300773,f5a9a97f-b972-4dff-95f2-1dda0f7ca52d
0.0574379502671551,0.23695709524413,0.173212218521582,0.3672212207148423,0.0082092311363605,-0.3390084202733457,-0.2632456214396845,-0.2884122294858826,-12.452077806527354,25.67382767954121,32.275419442712646,-1.4124617423738943,0.6570130433513807,0.1856853280093374,5687.74169921875,11.975444444444443,0.12,178.83311272385413,-3.93168479639102,96.34976679301091,1553.0,1349.0,1200.0,1528.0,1471.0,994.0,160.0,293.7,1649261291.409756,1649261292.529342,f5a9a97f-b972-4dff-95f2-1dda0f7ca52d
0.0485757290004911,0.2417300717456327,0.1897138317110452,0.7551997653237507,0.0594365520515332,-0.7190715916279434,-0.3617162227154557,-0.380203292982306,-12.82036491423188,27.11082452121665,29.37034007385592,-3.131999753579093,0.656570919633277,0.232654186832827,5682.719346788194,11.967333333333332,0.1144444444444444,178.8183428192289,-4.050840434669654,96.74259905184496,1553.0,1264.0,1200.0,1528.0,1471.0,994.0,160.0,293.7,1649261293.4422042,1649261294.5768144,ff86c4cd-488c-414f-8767-e8bbf45ba23c
0.0364657796687933,0.2408885552164654,0.1840993386189569,0.7461929092591764,0.0517314160392201,-0.7130363376061771,-0.3678040701849556,-0.3916426610903485,-12.896200116513478,27.29532950055369,28.88546547770104,-3.097292395158552,0.6590050321667094,0.2584764033246642,5677.6953125,11.959333333333332,0.1166666666666666,178.78827936214216,-4.049302408877801,96.93126253709904,1553.0,1264.0,1200.0,1528.0,1471.0,994.0,160.0,293.7,1649261294.6858027,1649261295.802591,ff86c4cd-488c-414f-8767-e8bbf45ba23c
0.0460906253700994,0.2459639517237466,0.1980764021811865,0.7534641375854971,0.0633680122174426,-0.7165601895901688,-0.3567197172409926,-0.3822544902600417,-12.82241360364302,27.47914461710512,30.13644065837272,-3.11946201872604,0.6664251954638132,0.2102113337054382,5683.9697265625,11.958333333333334,0.1166666666666666,178.78701805387544,-4.058037367052601,97.1078843988464,1553.0,1264.0,1200.0,1528.0,1471.0,994.0,160.0,293.7,1649261295.910539,1649261297.0419283,ff86c4cd-488c-414f-8767-e8bbf45ba23c
0.0333626873662179,0.2582185359501761,0.2246630648136505,1.1314102347577006,0.1198153645221915,-1.1027113163048954,-0.4493917471385035,-0.4701403946049713,-13.253817720677866,29.15880699120596,26.15394812794042,-4.8281424251668215,0.705918124657409,0.2272213383438195,5686.903483072917,11.951777777777778,0.11,178.81093282288936,-4.20849908252825,97.4139770497708,1553.0,1178.0,1200.0,1528.0,1471.0,994.0,160.0,293.7,1649261298.8162715,1649261299.9001076,ae8db9b4-8380-475e-83c4-3ca9a969cbdc
0.0374913779694949,0.2676198532705078,0.221875541330266,1.1234158277554558,0.1147794139576109,-1.101159769029518,-0.4510879293542542,-0.4755708075051097,-13.107140933226438,29.029361608614263,26.620746109855872,-4.807471133200107,0.736808792761378,0.2421767319273037,5686.065266927083,11.930555555555555,0.11,178.80740540963802,-4.202095116135194,97.53460729743212,1553.0,1178.0,1200.0,1528.0,1471.0,994.0,160.0,293.7,1649261300.0090754,1649261301.1308534,ae8db9b4-8380-475e-83c4-3ca9a969cbdc
0.0255655104457092,0.2588365246621418,0.2356159282362647,1.1290303208223311,0.1285198012332478,-1.0960054763792826,-0.4374658770009489,-0.4645390489391063,-13.165222410584793,29.29019900532384,26.9673144610362,-4.806114359789426,0.7013896567506168,0.1846648463711437,5687.322591145833,11.933555555555554,0.11,178.82076374183472,-4.212238895690048,97.62691578624502,1553.0,1178.0,1200.0,1528.0,1471.0,994.0,160.0,293.7,1649261301.2395144,1649261302.358958,ae8db9b4-8380-475e-83c4-3ca9a969cbdc
0.0234222729351742,0.27650837140767,0.2362996603635382,1.3109162338173383,0.136435316121997,-1.2906852320763065,-0.5050764895382894,-0.5354236887791533,-13.4720649630213,30.74530690398381,25.29075397858441,-5.644617401122329,0.7623748695311199,0.2697713946030208,5680.203125,11.923666666666668,0.1066666666666666,178.83255720180162,-4.2706827848474695,97.70214728431309,1553.0,1088.0,1200.0,1528.0,1471.0,994.0,160.0,293.7,1649261303.4748392,1649261304.6126184,294f3228-0652-4d99-96a9-c81032a4b46b
0.0239482207308484,0.2617423863691293,0.2379826934004218,1.3395277972510862,0.1441010058334299,-1.3025190690130148,-0.5039325525986665,-0.5265088701450975,-13.36622794977344,30.71249784095979,25.30782089214676,-5.735827985245118,0.7026765390470725,0.2539833006817016,5676.44140625,11.9,0.1,178.84443262403855,-4.306071844780206,97.69781694437933,1553.0,1088.0,1200.0,1528.0,1471.0,994.0,160.0,293.7,1649261304.721059,1649261305.8375576,294f3228-0652-4d99-96a9-c81032a4b46b
0.0254603208263978,0.2655160619628891,0.2364574447355528,1.317372243618251,0.1394332188235436,-1.2847420157136753,-0.5016446788806673,-0.5332147073097795,-13.418561741912306,30.71912970205252,25.46337895602549,-5.645936602431453,0.7184530581278736,0.2596050664570314,5668.93310546875,11.893666666666668,0.1033333333333333,178.8412861835609,-4.326897803037612,97.72024728561362,1553.0,1088.0,1200.0,1528.0,1471.0,994.0,160.0,293.7,1649261305.945763,1649261307.0700903,294f3228-0652-4d99-96a9-c81032a4b46b
0.0871656351463606,0.2420547433837612,0.1359801690442793,-0.0885338217681103,-0.0724898830327189,0.0919446804638911,-0.1731406307664409,-0.2022574100528528,-12.116440163942608,24.157343069366952,34.806849733680444,0.5726847408771245,0.7050479283958029,0.2191096982015666,5678.114366319444,11.908,0.1044444444444444,178.87400127186547,-3.892699120109709,97.72760415825962,1553.0,1435.0,1200.0,1528.0,1471.0,994.0,160.0,293.7,1649261308.8287542,1649261309.9383328,a4090a38-bcbd-4088-80d8-f835218b230c
0.0705209030068379,0.2469632525835194,0.1375924014637627,-0.0880786745748892,-0.0734836210684328,0.0889159289016402,-0.1731901912196246,-0.1925187765133022,-11.970988168231552,24.264498396963337,35.12333490017694,0.5657663215747045,0.7196713345896194,0.2194381534575437,5694.03955078125,11.974666666666666,0.12,178.86239602155567,-3.880475073633895,97.78170077430596,1553.0,1435.0,1200.0,1528.0,1471.0,994.0,160.0,293.7,1649261310.0473058,1649261311.1655934,a4090a38-bcbd-4088-80d8-f835218b230c
0.1040895241373107,0.2498165195162056,0.1334637109505813,-0.0883810945963426,-0.0754427768856508,0.0852342939819643,-0.1779763170562253,-0.2058515557636145,-12.16503125179132,24.08095503881384,34.92684520945762,0.5566240715461331,0.7332600774138895,0.2345539707142868,5702.457139756944,11.976111111111113,0.1111111111111111,178.86913058807733,-3.877700641306662,97.8282978426436,1553.0,1435.0,1200.0,1528.0,1471.0,994.0,160.0,293.7,1649261311.273632,1649261312.400697,a4090a38-bcbd-4088-80d8-f835218b230c
0.1372636840681653,0.2646088019940784,0.3178873158474183,-0.0957969596715078,0.0902833931922934,0.073439913549345,0.0114438104030617,-0.0137885382679064,-10.857706789072749,24.44946833737364,35.767243267693715,0.5592669202071627,0.7846495569858019,-0.5085814887260924,5703.722276475694,11.975111111111111,0.12,178.85607885548336,-3.870230453925045,97.86446065865918,1553.0,1435.0,1200.0,1446.0,1471.0,994.0,160.0,293.7,1649261314.3291175,1649261315.4667015,cdcea845-6a81-4dab-ba40-68987b28eb30
0.1448504816211147,0.2745755131831902,0.3102084777326203,-0.1088010209773042,0.0813291311219385,0.0688115724981627,0.0052639230411314,-0.0192058011012597,-10.729238763367857,24.13755353845772,34.74558364922074,0.5756521294931741,0.8312854529964089,-0.4772506677856716,5706.67578125,11.97,0.12,178.8633917113547,-3.8747684505823496,97.90294953354211,1553.0,1435.0,1200.0,1446.0,1471.0,994.0,160.0,293.7,1649261315.575678,1649261316.6951497,cdcea845-6a81-4dab-ba40-68987b28eb30
0.1410373598071681,0.2865906815248156,0.2796191336169393,-0.1217448174942717,0.0509961848507162,0.0638435567797826,-0.0276905453463751,-0.0519197583543641,-10.971261603349744,23.8986476013207,33.77862845314872,0.5903035207082196,0.8862831225181204,-0.34741397572984,5702.87841796875,11.967,0.11,178.86477444520668,-3.873611065541117,97.91953095611716,1553.0,1435.0,1200.0,1446.0,1471.0,994.0,160.0,293.7,1649261316.802831,1649261317.924495,cdcea845-6a81-4dab-ba40-68987b28eb30
0.2153011935623863,0.3092880691233192,0.5436898579136742,-0.1289316762389779,0.2896439181330763,0.0430664252656774,0.2449777995012757,0.2113828821733291,-8.972465093301057,24.21647794806602,35.09693222438,0.5762985078597523,0.9632119646454066,-1.4148298204951886,5706.67578125,11.971666666666666,0.1188888888888888,178.84422316490404,-3.8855588688105,97.86080802527304,1553.0,1435.0,1200.0,1354.0,1471.0,994.0,160.0,293.7,1649261318.8342478,1649261319.976827,053546ab-32b5-4452-8afd-cbced887158e
0.2253204996240234,0.3089593517380413,0.5482524550690913,-0.1220286102562821,0.2941933667152336,0.0406865112403044,0.2460033977081694,0.2232167082518645,-9.149993636805194,24.41681161292492,35.63619268687331,0.5569307185119409,0.957898852790252,-1.4281309288159847,5702.87841796875,11.970111111111112,0.1144444444444444,178.84199804105438,-3.891978013401712,97.87702668891218,1553.0,1435.0,1200.0,1354.0,1471.0,994.0,160.0,293.7,1649261320.0847578,1649261321.2013052,053546ab-32b5-4452-8afd-cbced887158e
0.2094500239958076,0.3140873429384845,0.5426511109930321,-0.1311932521282872,0.2882896024653592,0.0386221659233676,0.2409674473018659,0.223085221337474,-9.178343320110065,24.2398957736324,34.81913069232613,0.5713688247343927,0.9853444573682582,-1.4058438985198356,5698.666178385417,11.971888888888888,0.11,178.85190485099054,-3.883855827545574,97.88613512562534,1553.0,1435.0,1200.0,1354.0,1471.0,994.0,160.0,293.7,1649261321.309003,1649261322.4305298,053546ab-32b5-4452-8afd-cbced887158e
0.2972307154160499,0.351429637701584,0.776592692103154,-0.13476969770633,0.4982085217888017,-0.0079768141614731,0.475697955823692,0.4472178822104056,-7.376875012724817,24.32751444535841,34.72177597474953,0.487843137480932,1.1287857409746638,-2.3392818089891896,5691.51806640625,11.962333333333332,0.11,178.8196663581081,-3.891338204917585,97.87474161117986,1553.0,1435.0,1200.0,1252.0,1471.0,994.0,160.0,293.7,1649261323.5452805,1649261324.6835,3325dfbc-0c4e-4d58-a445-634f70829144
0.2927601589603328,0.3452891969772275,0.7686377316179102,-0.1302070998239869,0.4932251663663956,-0.0038612721664974,0.4687817422192061,0.4474545587166039,-7.505046722567662,24.290088199927617,34.99251274032993,0.4861336384861265,1.103196299375095,-2.312199008910228,5683.9697265625,11.956444444444443,0.1122222222222222,178.80908715399363,-3.898023726886427,97.84329162569158,1553.0,1435.0,1200.0,1252.0,1471.0,994.0,160.0,293.7,1649261324.7916584,1649261325.9083006,3325dfbc-0c4e-4d58-a445-634f70829144
0.2888549964125314,0.3411473579677905,0.7646405283440413,-0.1304043302986585,0.4882418109312246,-0.00102115372207,0.4637589406779414,0.4380400929991718,-7.527233447745084,24.50793842128268,34.75643403703644,0.4941569883371518,1.0896858531673477,-2.29375225738343,5678.11328125,11.956555555555555,0.11,178.8146985338518,-3.9042378235069295,97.86470882219902,1553.0,1435.0,1200.0,1252.0,1471.0,994.0,160.0,293.7,1649261326.020589,1649261327.140046,3325dfbc-0c4e-4d58-a445-634f70829144
0.0370615168177631,0.2117242426191965,-0.0771930707399363,-0.0442581138665171,-0.265181514342975,0.0895930867483611,-0.4040140694371838,-0.4261519270294042,-13.660073034765164,24.65192111473933,34.33666287707193,0.4593372838924048,0.5874258716892968,1.0956284202064768,5672.6845703125,11.955666666666666,0.1133333333333333,178.94393026640785,-3.8906298573824114,97.96355683768724,1553.0,1435.0,1200.0,1604.0,1471.0,994.0,160.0,293.7,1649261328.869496,1649261330.003898,35a2337d-5421-4050-8d7a-9523f7f04473
0.0033705108499537,0.1997725839610352,-0.0891568677313121,-0.03687764929734,-0.2741458920502111,0.0922688463943611,-0.4146528840119354,-0.4387807468003902,-13.65971473016893,24.70121821117561,33.93106215176646,0.4483681576980513,0.5445258801296554,1.1373201187998163,5678.532335069444,11.970333333333334,0.1177777777777777,178.95362458156984,-3.8976436078863688,97.90796744585236,1553.0,1435.0,1200.0,1604.0,1471.0,994.0,160.0,293.7,1649261330.1120808,1649261331.2419317,35a2337d-5421-4050-8d7a-9523f7f04473
0.0164534638323018,0.2132499970430964,-0.0885388790064752,-0.04896130155226,-0.2769465647380915,0.0883505349569112,-0.416717229794447,-0.4418575425776941,-13.748114504092186,24.679642370220503,33.66482738392248,0.4666217529921949,0.5995862447930789,1.144327890281713,5687.322591145833,11.971333333333332,0.11,178.9598263933362,-3.900817606280046,97.8855636664648,1553.0,1435.0,1200.0,1604.0,1471.0,994.0,160.0,293.7,1649261331.3544853,1649261332.4656856,35a2337d-5421-4050-8d7a-9523f7f04473
-0.0467391718135673,0.1788004142709395,-0.2446007678205074,-0.0054259670583732,-0.416046646096722,0.0895470663056163,-0.5855070873591786,-0.6023111268744672,-14.877540398339669,25.235073657135416,33.48416474386274,0.366419328350833,0.4647301681528893,1.781778271660801,5710.4775390625,11.96577777777778,0.1155555555555555,178.9879166846627,-3.897581567001407,97.87507021916991,1553.0,1435.0,1200.0,1676.0,1471.0,994.0,160.0,293.7,1649261334.399697,1649261335.5390732,a67d8747-f0b2-46a5-8a00-fbd30e411013
-0.0404409461048123,0.1804440012287524,-0.2413398908084251,-0.0001007450280513,-0.4127857688065476,0.0937283516398538,-0.5830877265409362,-0.6101214546211196,-14.947297207884798,25.323264468545887,35.024850830430296,0.3647603164965488,0.4572858472328881,1.771780840648014,5707.098198784723,11.955,0.11,178.981660231383,-3.900387399226074,97.79331437262468,1553.0,1435.0,1200.0,1676.0,1471.0,994.0,160.0,293.7,1649261335.647997,1649261336.7675,a67d8747-f0b2-46a5-8a00-fbd30e411013
-0.0355627796457591,0.1923435708699634,-0.2301372003140294,-0.0014287633203888,-0.4032003672603991,0.0837090452308148,-0.5714774241757933,-0.5915817870998544,-14.685202648304545,25.047374822025223,35.17383734889202,0.34412587553034,0.4996099830584455,1.7288589367650438,5706.67578125,11.955666666666666,0.1033333333333333,178.98584030715506,-3.9025008684555016,97.7359521672452,1553.0,1435.0,1200.0,1676.0,1471.0,994.0,160.0,293.7,1649261336.8760576,1649261337.9999876,a67d8747-f0b2-46a5-8a00-fbd30e411013
-0.0907215626464312,0.1763153107699483,-0.4186106424542369,0.0372678501744468,-0.5793140495054019,0.071244081284253,-0.7783064937340124,-0.8087983345129967,-15.586610134260564,25.619480004707142,34.71108696668618,0.2227056824722242,0.4332726580607038,2.517004739501884,5710.4775390625,11.956,0.1077777777777777,179.00941963798977,-3.920380501291564,97.66813901352567,1553.0,1435.0,1200.0,1747.0,1471.0,994.0,160.0,293.7,1649261338.904955,1649261339.9619951,82459c2a-4508-4be5-a3f8-9cf8cf12b42a
-0.0939166960350937,0.1658752462989035,-0.4222791294824878,0.0346644082969718,-0.5788275476396101,0.0759907605940397,-0.7850912240269051,-0.8143207896068182,-16.364901186160356,25.795633817881583,33.55335426253764,0.2396535892644964,0.4099765416305177,2.527467137862036,5710.4775390625,11.955,0.11,179.0138258689143,-3.9115268211480654,97.61317724018448,1553.0,1435.0,1200.0,1747.0,1471.0,994.0,160.0,293.7,1649261340.0697956,1649261341.120432,82459c2a-4508-4be5-a3f8-9cf8cf12b42a
-0.0849755820712038,0.1699776394007855,-0.4192680774755049,0.0401342659567982,-0.5757376031202878,0.0740184561669738,-0.7813306952716645,-0.8092848364817641,-16.193142978637265,25.6768840876198,34.58638834469963,0.2224967534042326,0.4145070067892328,2.515970140148207,5714.28466796875,11.953,0.11,179.02406659920993,-3.900122539668259,97.5807884831403,1553.0,1435.0,1200.0,1747.0,1471.0,994.0,160.0,293.7,1649261341.2290058,1649261342.2941444,82459c2a-4508-4be5-a3f8-9cf8cf12b42a
0.0905858133076507,0.23431420743935,0.0806848450918995,-0.0644636150571555,-0.0994522974476218,0.0881796019182387,-0.2034453440317336,-0.232924724384259,-11.776177013027189,21.45712033654197,36.04470396889819,0.4896427777809825,0.6561220622691973,0.376721053355622,8006.523383246527,11.677111111111111,7.024444444444445,179.70878547440455,-4.093834910243199,86.05180937802257,1553.0,1435.0,1350.0,1528.0,1471.0,994.0,160.0,293.7,1649261346.0257604,1649261347.0057557,e34d73c1-e96a-4a86-ad51-cc950811ab70
0.0720987465166909,0.2404809456725219,0.0745049578701585,-0.0675798561947201,-0.1063290659947422,0.0852211452957863,-0.2094280014283257,-0.2316493006891131,-11.672547322208874,21.31875710637861,36.02946365464553,0.4888489987115714,0.67864224657104,0.4038559715757142,8010.67919921875,11.677333333333332,6.9833333333333325,179.92470293226685,-4.092741273634221,81.38269813268113,1553.0,1435.0,1350.0,1528.0,1471.0,994.0,160.0,293.7,1649261347.1138544,1649261348.0635748,e34d73c1-e96a-4a86-ad51-cc950811ab70
0.0690219515943334,0.2291599187733273,0.0746101474574489,-0.0665148117250621,-0.1043304640300844,0.0913484376747415,-0.2080999829846868,-0.2351994489040461,-11.814334829987452,21.438131964256502,35.468197876814344,0.500851110294439,0.6420370973330559,0.3967993311864701,8010.67919921875,11.67888888888889,7.016666666666666,-179.9301913687199,-4.081410701279207,76.65484574265774,1553.0,1435.0,1350.0,1528.0,1471.0,994.0,160.0,293.7,1649261348.1728792,1649261349.4640038,e34d73c1-e96a-4a86-ad51-cc950811ab70
0.3139690046723069,0.6545333566079037,0.1199600002008997,-0.2451793105340079,-0.1588975571993937,-0.1601466833591008,-0.2636006362030756,-0.2887409469235258,-11.121850872667784,20.60634792879805,35.54557298436288,0.3358363652791257,2.256717365515707,0.5391644118841769,7988.28173828125,11.669333333333334,7.033333333333333,179.7934646419146,-4.004787077849065,68.08438432600845,1637.0,1435.0,1350.0,1528.0,1535.0,994.0,160.0,293.7,1649261351.3980112,1649261352.5361946,d7fb13f0-7d75-4daf-85b0-95503db5f7a5
0.3098666117092552,0.6545596539978373,0.113727518291007,-0.2424443814037251,-0.1644331587742122,-0.1604491034083303,-0.2704905539525838,-0.2878862817884607,-11.160136731142478,20.60953695206063,35.81374134883224,0.328721736885261,2.2539784248128747,0.5653867419407824,7988.28173828125,11.650333333333334,7.0233333333333325,179.71549575580917,-3.9863516858011625,65.72502069736234,1637.0,1435.0,1350.0,1528.0,1535.0,994.0,160.0,293.7,1649261352.644287,1649261353.766161,d7fb13f0-7d75-4daf-85b0-95503db5f7a5
0.3145475472625996,0.6509043167978468,0.1138195591749612,-0.2442851991250733,-0.1631708838208549,-0.1569646986202177,-0.2680185987046302,-0.2866766015016919,-11.145566007461088,20.51916819346661,35.56998200427255,0.3400780889504851,2.2425569391755955,0.5592675193685145,7988.28173828125,11.649,7.026666666666666,179.62209974909842,-3.9660086788363182,63.45910999367005,1637.0,1435.0,1350.0,1528.0,1535.0,994.0,160.0,293.7,1649261353.882838,1649261354.9981976,d7fb13f0-7d75-4daf-85b0-95503db5f7a5
0.5640177403901353,1.1086366937785004,0.159195708784774,-0.4276700960855732,-0.2285856539819482,-0.4342970403154702,-0.3349849185892444,-0.3573508548032043,-10.136602936234546,19.96854961106198,35.81452677216816,0.1297028654959423,3.975468938886757,0.7369120991534673,7988.28173828125,11.630333333333333,7.046666666666667,178.9194645288009,-3.911765450882192,59.30942173323964,1723.0,1435.0,1350.0,1528.0,1599.0,994.0,160.0,293.7,1649261356.9274864,1649261358.0650623,9187d273-0669-45f6-923e-97d2ec0a5642
0.5667132228619194,1.1187611894564178,0.1658226514828816,-0.433613308121367,-0.2241545428577757,-0.4378077430112676,-0.329041706884446,-0.3465820709648905,-10.084803273622216,19.870135902137505,35.99689267718561,0.1349530039864965,4.012609204035272,0.7148884270882744,7988.28173828125,11.613333333333332,7.061111111111112,178.82061499549278,-3.892151614043116,58.2854959322045,1723.0,1435.0,1350.0,1528.0,1599.0,994.0,160.0,293.7,1649261358.1729767,1649261359.3005342,9187d273-0669-45f6-923e-97d2ec0a5642
0.5689353523224818,1.106585497263061,0.1553694382855558,-0.4273282299175843,-0.2316624492657201,-0.4314963674098767,-0.3384298775685107,-0.360519691414669,-10.192179783502324,19.97863014264142,35.94380780645607,0.1350941196605802,3.966738764324205,0.7511174595541251,7988.28173828125,11.614888888888888,7.062222222222222,178.68871038224154,-3.867283132434446,57.07042007760244,1723.0,1435.0,1350.0,1528.0,1599.0,994.0,160.0,293.7,1649261359.4141045,1649261360.727769,9187d273-0669-45f6-923e-97d2ec0a5642
0.756987987851032,1.4565117529346676,0.2163004943839011,-0.6219289879065358,-0.2672954204493743,-0.6102134955320615,-0.3520650779291959,-0.3798877243591035,-8.945601063745384,19.759247013575983,33.984059229509654,0.1743592458953771,5.315539702927363,0.7748413221575048,7988.28173828125,11.610111111111111,7.057777777777777,178.36261134832824,-3.841300760808633,55.50759083323347,1813.0,1435.0,1350.0,1528.0,1662.0,994.0,160.0,293.7,1649261361.8429892,1649261362.977232,4b2cc0e7-2012-4ee2-bb16-0d5d3dc5345a
0.7627997110344458,1.4519754524068902,0.2161295613554177,-0.6240196312589178,-0.2652179261358875,-0.6038232269707605,-0.3513681968766775,-0.3817153936448813,-9.223533949940965,19.73964753560927,33.99069114288428,0.1931577259858131,5.300680414371875,0.7705082989812689,7988.28173828125,11.5705,7.05,178.26528039374568,-3.8339557224139953,54.90971269069361,1813.0,1435.0,1350.0,1528.0,1662.0,994.0,160.0,293.7,1649261363.0901787,1649261364.1515453,4b2cc0e7-2012-4ee2-bb16-0d5d3dc5345a
0.7597213992503915,1.451380726717564,0.2247717944267868,-0.6215618356630812,-0.2571405798504135,-0.6040765923273959,-0.3417600382936147,-0.3609900103080305,-9.078140919731522,19.7410354040462,34.262879920568835,0.1876002969688531,5.295253660837687,0.7344809695854633,7988.28173828125,11.566777777777778,7.0488888888888885,178.1498479200427,-3.8175145321603248,54.32689966873307,1813.0,1435.0,1350.0,1528.0,1662.0,994.0,160.0,293.7,1649261364.259654,1649261365.319206,4b2cc0e7-2012-4ee2-bb16-0d5d3dc5345a
-0.2203019743496409,-0.2700829442710938,0.0345592187094274,0.1697672602347945,-0.0296195687756977,0.3544012428405457,-0.1379253850494659,-0.1644857535884536,-12.165435225115507,22.734134973608544,34.3570970390488,0.5652146627518606,-1.2497029316094297,0.1890392993224197,7988.28173828125,11.603666666666667,7.056666666666668,179.08828403778637,-3.7613439101997854,53.237960712083165,1470.0,1435.0,1350.0,1528.0,1403.0,994.0,160.0,293.7,1649261367.3729885,1649261368.5107467,a78e1bd9-881c-4265-b362-955cfb853362
-0.1996585191272383,-0.2789188693418293,0.0284056287995276,0.1861768325636848,-0.0300534757865673,0.353691213292341,-0.1463142538756646,-0.1749258192232223,-12.564484742245796,22.76822227501818,35.11876747280574,0.5264432611994582,-1.2891792105480309,0.2098182253652802,7995.7333984375,11.662333333333333,7.067777777777778,178.94260976316835,-3.7476425981566095,52.90730138853405,1470.0,1435.0,1350.0,1528.0,1403.0,994.0,160.0,293.7,1649261368.618734,1649261369.739128,a78e1bd9-881c-4265-b362-955cfb853362
-0.2222479815999159,-0.2742905276316895,0.0357820474722231,0.1771305298540765,-0.0258195954602105,0.3524552359359774,-0.1367025561951593,-0.1573591596303848,-12.248237219401569,22.68196025144748,34.468688648697174,0.5439231172567307,-1.2667168489807863,0.1801320423384892,8003.19873046875,11.665444444444445,7.08,178.8887195706169,-3.7391083716524176,52.6538452109934,1470.0,1435.0,1350.0,1528.0,1403.0,994.0,160.0,293.7,1649261369.8469286,1649261370.964699,a78e1bd9-881c-4265-b362-955cfb853362
-0.4596214350952576,-0.7257905781167941,-0.002099346898969,0.3854716096933728,0.038911437157869,0.6028326879930265,-0.0815306235013303,-0.1070522443815212,-13.353433553596233,24.394399857646658,34.49708951187613,0.6455021787936337,-2.980569639006732,0.0108090206075754,8003.19873046875,11.654666666666666,7.067777777777778,178.9536610092454,-3.706867175153411,52.19495401869169,1385.0,1435.0,1350.0,1528.0,1331.0,994.0,160.0,293.7,1649261371.8777983,1649261373.0151513,5eb81d79-fadb-4fdd-8445-a56c4112d60f
-0.4611992790353038,-0.7244888566563731,0.00087225852664,0.3702191232310221,0.0406602137868715,0.6145744726055031,-0.0720372643706374,-0.0888018531286759,-13.138577833170984,24.15886107373033,34.400707613432594,0.7049727493053858,-2.9742915608252924,-0.009005264011172,7995.7333984375,11.601333333333333,7.050000000000001,178.91822598783136,-3.6959562799774,51.998949597899646,1385.0,1435.0,1350.0,1528.0,1331.0,994.0,160.0,293.7,1649261373.1232755,1649261374.073022,5eb81d79-fadb-4fdd-8445-a56c4112d60f
-0.4572941153131987,-0.7136806239724686,0.0025421429857047,0.3711921266584971,0.0385827197706857,0.6035821636076484,-0.0744040297889727,-0.0944689413544445,-12.962176412432903,24.254009685935124,34.46610336155614,0.6788898271113996,-2.9355945657867784,-0.0035892341385613,7995.7333984375,11.604,7.057777777777777,178.87240452541948,-3.6948946124482864,51.86213028408559,1385.0,1435.0,1350.0,1528.0,1331.0,994.0,160.0,293.7,1649261374.1810343,1649261375.2822635,5eb81d79-fadb-4fdd-8445-a56c4112d60f
-0.7151927246780357,-1.2152510950497883,-0.036693567574633,0.5853317749738728,0.1079289433438888,0.8948783529762587,-0.0061885914695953,-0.0283309964952942,-13.850862298197178,26.313294260396727,34.1360704850798,0.8616222958518267,-4.836391396185282,-0.2024275670460864,7996.562879774306,11.59611111111111,7.056666666666667,178.88338595178504,-3.65847035196947,51.49847355774622,1375.2222222222222,1435.0,1350.0,1528.0,1322.3333333333333,994.0,160.0,293.7,1649261377.40848,1649261378.5448182,c5c41020-453b-4e97-a3d4-d0718d082645
-0.7403724884374903,-1.2268088087127955,-0.0495135468481078,0.5924978137361127,0.099789900479932,0.8983101624127839,-0.0172334965670535,-0.037101177261757,-13.984829358209057,26.246290024360924,33.861929228054166,0.8519755382580878,-4.878058103916924,-0.1599297527354039,7995.7333984375,11.550666666666665,7.029999999999999,178.99214229502925,-3.64590944435834,51.34082785878793,1297.0,1435.0,1350.0,1528.0,1253.0,994.0,160.0,293.7,1649261378.6532724,1649261379.7746356,c5c41020-453b-4e97-a3d4-d0718d082645
-0.7303926238606162,-1.2162109506236554,-0.040572433085037,0.576758825839186,0.1046812154195379,0.9040955882815304,-0.0073719741412563,-0.0328804458106411,-13.9575551907328,26.22087393683649,34.172604917719845,0.900819437369496,-4.838752049108754,-0.1912083030984096,7995.7333984375,11.55488888888889,7.032222222222223,178.97117513209713,-3.6461833159713097,51.24063126039357,1297.0,1435.0,1350.0,1528.0,1253.0,994.0,160.0,293.7,1649261379.8822486,1649261381.0027895,c5c41020-453b-4e97-a3d4-d0718d082645
0.0635257965878867,0.2250706744342848,0.0688773159062445,-0.0339849360814118,-0.1047775197569827,0.062934105298171,-0.2220244537714837,-0.2477827527259407,-11.957279931323464,21.473132682805,35.04251719596937,0.3634276382824575,0.6271165109221218,0.424123908218496,7995.7333984375,11.665,7.09,178.43789369336014,-3.6580200812348114,51.17458750512404,1553.0,1435.0,1350.0,1528.0,1471.0,994.0,160.0,293.7,1649261382.9369109,1649261384.075492,66ac03da-edb5-416b-80d1-250fab96e21a
0.0854315244314491,0.2297779074580015,0.0761353962380544,-0.0360492814176433,-0.0983346581714848,0.061224774798045,-0.2138196664209159,-0.2426153144506681,-11.846923350943152,21.352054389651503,35.245239383045124,0.3638898288166902,0.6429059336362397,0.3947373312836514,7995.7333984375,11.669777777777776,7.085555555555555,178.42226014925987,-3.663705502240808,51.19573756534393,1553.0,1435.0,1350.0,1528.0,1471.0,994.0,160.0,293.7,1649261384.18408,1649261385.304856,66ac03da-edb5-416b-80d1-250fab96e21a
0.0629209565614234,0.2239530353023227,0.070612943808434,-0.0311711149839896,-0.1011879254826195,0.0617112765515672,-0.2201704874018972,-0.2440748198911884,-12.061612091813451,21.38462305593109,35.09675911582842,0.3537882978034964,0.62294446415989,0.4141585509325461,8009.016872829861,11.66477777777778,7.085555555555555,178.45585709087726,-3.6869198448417353,51.200790387509926,1553.0,1435.0,1350.0,1528.0,1471.0,994.0,160.0,293.7,1649261385.4137127,1649261386.5330637,66ac03da-edb5-416b-80d1-250fab96e21a
0.0956480612846501,0.2205738205232341,0.044880945308165,-0.5033671583571337,-0.1750967523394905,0.5217183885471968,-0.113363618834566,-0.1364527309965179,-11.641489081521788,20.27841735590994,38.5281483156941,2.444788294310424,0.6333719186854818,0.398868705300354,8008.185709635417,11.656666666666666,7.07,178.52421969537,-3.5356151939019544,51.33051427314121,1553.0,1522.0,1350.0,1528.0,1471.0,994.0,160.0,293.7,1649261388.4370396,1649261389.483989,cdf1565c-e9c4-46e8-b010-aa51f6884edf
0.0908068125076855,0.2176664416213844,0.0404877635432836,-0.5127942703525779,-0.1794368339650318,0.5358395812833736,-0.1166644475408798,-0.1448962174624763,-11.93089733272612,20.39338292226057,38.86689949386908,2.498237442548965,0.6223976221502782,0.4152618740398759,8006.523383246527,11.65322222222222,7.064444444444444,178.54663182276653,-3.550258929754985,51.345783919940686,1553.0,1522.0,1350.0,1528.0,1471.0,994.0,160.0,293.7,1649261389.5933926,1649261390.628617,cdf1565c-e9c4-46e8-b010-aa51f6884edf
0.0795803546460068,0.2211260657250985,0.0462484097327426,-0.5192376389318771,-0.1761223507081365,0.5353535852869985,-0.1091428870820198,-0.1276562525598671,-11.679877383449146,20.33608992095251,38.48695084638961,2.511652836065024,0.6381216729413224,0.3922112268452115,8010.67919921875,11.672999999999998,7.062222222222222,178.55717004574595,-3.546239126269086,51.3747203958144,1553.0,1522.0,1350.0,1528.0,1471.0,994.0,160.0,293.7,1649261390.7362454,1649261391.857659,cdf1565c-e9c4-46e8-b010-aa51f6884edf
0.1134387948404877,0.2218881422223491,0.027533979825715,-1.0108435045579305,-0.2496980796868281,1.0093991058110825,0.0043046161994623,-0.0188836580651269,-11.283070153153474,19.61933479938914,41.9979877205752,4.680914917276439,0.6663818414900394,0.3577142250335936,8018.171875,11.637555555555556,7.065555555555555,178.58491275633477,-3.3790206800296723,51.49485317803117,1553.0,1613.0,1350.0,1528.0,1471.0,994.0,160.0,293.7,1649261393.996137,1649261395.1347668,8b872cc3-f971-4333-b085-d064987b4424
0.1161994731571044,0.2220464744370871,0.0292602940713853,-1.0127215778455698,-0.2473882917859592,1.012204160828328,0.0074597554817839,-0.0193504367917207,-11.301174198613396,19.532917878212764,42.19276716772671,4.690989750211196,0.6657166987812656,0.3480230248469709,8018.171875,11.642,7.07,178.5663346417923,-3.3841228787715405,51.53034170259369,1553.0,1613.0,1350.0,1528.0,1471.0,994.0,160.0,293.7,1649261395.2436895,1649261396.3631098,8b872cc3-f971-4333-b085-d064987b4424
0.1097303147319161,0.2160375205251194,0.0251841982097635,-1.0046088271401934,-0.2493868938524812,1.0098636930478484,0.0027788195540346,-0.0170231175073976,-11.33910382290424,19.57145167988873,42.051170667735626,4.667440847406288,0.6434462884702629,0.3620680156846538,8018.171875,11.640444444444444,7.050000000000001,178.63134893577194,-3.3671912667059027,51.62371266527749,1553.0,1613.0,1350.0,1528.0,1471.0,994.0,160.0,293.7,1649261396.4715664,1649261397.4353695,8b872cc3-f971-4333-b085-d064987b4424
0.1179219523265269,0.2035725570235644,0.0055794918486802,-1.454057944800438,-0.3176417855034753,1.4567747268731663,0.1033268997584922,0.0730980473653249,-11.380880735812054,19.27374138934538,45.325301164960585,6.683107851656945,0.6220611709911484,0.3378597451598245,8018.171875,11.581,7.04,178.63727298651207,-3.217488745729248,51.75238090722705,1553.0,1710.0,1350.0,1528.0,1471.0,994.0,160.0,293.7,1649261399.5266838,1649261400.6639926,55bc9cf8-5557-480e-a1b7-2d47e842559e
0.1353702718227344,0.2114880718189337,0.0037255256799647,-1.455070395525112,-0.3215075027791192,1.4479519510758414,0.0998950901105072,0.071007404724878,-11.19925330165776,19.21174648198162,45.02070003531328,6.665105321761324,0.6531693932565296,0.3512100656178302,8018.171875,11.590666666666667,7.047777777777778,178.62996468410014,-3.2314709255861067,51.78693938769759,1553.0,1710.0,1350.0,1528.0,1471.0,994.0,160.0,293.7,1649261400.771793,1649261401.892889,55bc9cf8-5557-480e-a1b7-2d47e842559e
0.1264686047054726,0.2077143961681054,0.0058161683634123,-1.4510468900567275,-0.3182203282729307,1.4489512520565504,0.1030770745137611,0.0797907337357262,-11.165680941459303,19.188875812452192,45.18411714554722,6.658270278641368,0.6369666046373234,0.3391945844615208,8018.171875,11.585777777777777,7.029999999999999,178.6598035038542,-3.233248482317602,51.82686753522063,1553.0,1710.0,1350.0,1528.0,1471.0,994.0,160.0,293.7,1649261402.0013354,1649261403.1223056,55bc9cf8-5557-480e-a1b7-2d47e842559e
0.1337792796613144,0.2054922666039344,-0.0101332005264197,-1.747234793938681,-0.3780995013210198,1.7351063669825857,0.151898182542567,0.1280858942587124,-11.203024561834384,20.203874387414263,46.89491036335552,7.975614663247318,0.6492070388986448,0.3720864252638396,8018.171875,11.562111111111111,7.029999999999999,178.67989792039236,-3.1352357420466115,51.92383307468262,1553.0,1814.0,1350.0,1528.0,1471.0,994.0,160.0,293.7,1649261405.0646114,1649261406.1936884,aeaee9b2-e504-4f84-a258-40c8934bb6e3
0.1335557518215999,0.2020341596380082,-0.0072010411294447,-1.7359663463741826,-0.3708545682531277,1.7286240588573731,0.1560663191656855,0.1361854909026827,-11.203718159081586,19.94111161387382,46.99725433364055,7.934049275308618,0.6341289122506362,0.3522192463752086,8010.67919921875,11.564777777777778,7.03888888888889,178.71108001068322,-3.13678462973652,51.92661030549013,1553.0,1814.0,1350.0,1528.0,1471.0,994.0,160.0,293.7,1649261406.3014755,1649261407.421792,aeaee9b2-e504-4f84-a258-40c8934bb6e3
0.1367903310325414,0.1991545952828755,-0.0098965239644921,-1.7349144478771583,-0.373116144486203,1.7298600360286227,0.1548040443484424,0.1275993925194043,-11.098955774681793,19.91312222239975,46.89416421187523,7.934170395197379,0.6232001327635976,0.3603711914129608,8006.523383246527,11.555444444444444,7.02888888888889,178.68864966944892,-3.1426219275878107,51.959177406362656,1553.0,1814.0,1350.0,1528.0,1471.0,994.0,160.0,293.7,1649261407.5296776,1649261408.6513755,aeaee9b2-e504-4f84-a258-40c8934bb6e3
0.0427002846421553,0.231649573704447,0.0980133093953716,0.4220275109370494,-0.0337517995374666,-0.3832416538027985,-0.3240851533112115,-0.3518617788188017,-12.20002409206499,22.8838531423174,31.93111201471561,-1.6576567764504695,0.6268118710601118,0.4326387349330101,8003.19873046875,11.67122222222222,7.085555555555555,178.6736991442657,-3.885666776313012,52.00333116425222,1553.0,1349.0,1350.0,1528.0,1471.0,994.0,160.0,293.7,1649261409.562669,1649261410.700535,372869af-d48c-4292-9f16-7a4f67991737
0.0381740988078782,0.2234189959710301,0.092437756535196,0.4208137852371709,-0.0362930380295382,-0.3721537607238063,-0.3248310890876513,-0.3428852636026019,-12.223909752508924,22.73617236186847,32.17944104835241,-1.6312319898020544,0.5937037940057659,0.4441497500295732,8003.19873046875,11.67,7.080000000000001,178.69573940580736,-3.88395420124237,52.13696836882295,1553.0,1349.0,1350.0,1528.0,1471.0,994.0,160.0,293.7,1649261410.809573,1649261411.9288228,372869af-d48c-4292-9f16-7a4f67991737
0.0673667330689429,0.2323322944383675,0.1025774240120793,0.4158071666718224,-0.0299462633979252,-0.3763133009854522,-0.3162465062909335,-0.3409003156867696,-12.086069925303276,22.79253126442189,32.24490885146242,-1.628327008581544,0.6268384251659804,0.4106613259305953,8010.67919921875,11.671444444444443,7.08,178.72106422943,-3.863180275745515,52.275032674340736,1553.0,1349.0,1350.0,1528.0,1471.0,994.0,160.0,293.7,1649261412.0380783,1649261413.156328,372869af-d48c-4292-9f16-7a4f67991737
0.0279980192524872,0.2383508569861498,0.1330429526721432,0.8593374300832773,0.0385958684609694,-0.8050115079528962,-0.4203594193192425,-0.4436720629284532,-12.796941458752654,24.75311835315605,29.898687222083016,-3.5783826163827883,0.622594104651117,0.4240174317104814,8025.68017578125,11.652555555555557,7.056666666666667,178.72695640595396,-4.032914366033609,52.43875003201621,1553.0,1264.0,1350.0,1528.0,1471.0,994.0,160.0,293.7,1649261414.0659297,1649261415.2057064,cf592cab-3b6c-46c5-a4d0-4a0255118f58
0.0318505872783484,0.2419667482742664,0.13137306828389,0.850764480863272,0.0357163039740418,-0.8020793472337792,-0.4195047538880453,-0.4506145763541905,-12.652905556828518,24.61232912111729,29.69484398207952,-3.553431634392508,0.6378903662977994,0.4292322395743866,8024.845920138889,11.646,7.0488888888888885,178.71355861044205,-4.040471401167798,52.53127329233302,1553.0,1264.0,1350.0,1528.0,1471.0,994.0,160.0,293.7,1649261415.313236,1649261416.433037,cf592cab-3b6c-46c5-a4d0-4a0255118f58
0.0263412834979666,0.2412435700098146,0.1266000916512068,0.8537886807372841,0.0325737655419791,-0.8028419719897131,-0.4251192483687762,-0.4492865574910474,-12.791954719911082,24.584363071084,29.842578576794484,-3.562436704782729,0.6341773966381073,0.4480740427183094,8025.68017578125,11.646777777777777,7.054444444444445,178.73888495188444,-4.049604407589228,52.623534349276696,1553.0,1264.0,1350.0,1528.0,1471.0,994.0,160.0,293.7,1649261416.541772,1649261417.6670315,cf592cab-3b6c-46c5-a4d0-4a0255118f58
0.0070652945820789,0.2486857317073153,0.1614046896676346,1.3043550339654149,0.102156665764272,-1.2455194194204564,-0.5290860150685248,-0.5498741098164004,-13.224690290691385,26.7927401459636,26.64176491991813,-5.557914761128372,0.6402910710435634,0.4530113055550324,8025.68017578125,11.625,7.04,178.75181525889317,-4.198278226185888,52.76512720641069,1553.0,1178.0,1350.0,1528.0,1471.0,994.0,160.0,293.7,1649261418.3541665,1649261419.5059502,94df876d-a33b-41c5-a73c-98bd3aaab196
0.0170583038659205,0.2471736317062033,0.167045480193081,1.294519809082687,0.1062590589430545,-1.2341063413195752,-0.522012014531031,-0.5496505819233,-13.347107843451637,26.920350051430564,26.81409333999761,-5.508989529586429,0.6355295625123507,0.4294986804511991,8020.674641927083,11.620666666666668,7.043333333333333,178.75431966158888,-4.206451543597062,52.85502843299613,1553.0,1178.0,1350.0,1528.0,1471.0,994.0,160.0,293.7,1649261419.613444,1649261420.6701703,94df876d-a33b-41c5-a73c-98bd3aaab196
0.0205164110284459,0.2667651880556292,0.1667956549469825,1.278070789943423,0.1017622048855865,-1.2399443674604167,-0.5225774086540403,-0.5532664747472835,-13.191435196455366,26.660950271559845,26.55912939045545,-5.486697709878159,0.712172726206171,0.4388511760554607,8010.67919921875,11.616555555555555,7.051111111111111,178.7607400394087,-4.206608875107318,52.94332228839688,1553.0,1178.0,1350.0,1528.0,1471.0,994.0,160.0,293.7,1649261420.7788217,1649261421.9610188,94df876d-a33b-41c5-a73c-98bd3aaab196
0.0054874510053167,0.2598884202974674,0.1750530358304957,1.5257527935120725,0.1256928315224753,-1.4722952065983157,-0.5945796908760079,-0.6115941092847955,-13.569421363884985,28.60791192725471,24.7277781737647,-6.554695377125265,0.6753487159721753,0.4952102324184053,8010.67919921875,11.597444444444443,7.051111111111111,178.772069046512,-4.303477463828593,53.04696737341219,1553.0,1088.0,1350.0,1528.0,1471.0,994.0,160.0,293.7,1649261423.8979776,1649261425.032357,fbfec9f2-96bd-4838-aa5e-ced563c00aa4
0.0093926138524537,0.2645693559058711,0.1790107933012714,1.5188497273643649,0.1290720464189175,-1.4679429836236837,-0.587531987269706,-0.6072681865771727,-13.460546728125385,28.40813570693366,25.138791368179664,-6.530350673218305,0.6895891108504446,0.476422027570229,8003.19873046875,11.582333333333333,7.047777777777778,178.7940880585763,-4.320192264819953,53.106697757158905,1553.0,1088.0,1350.0,1528.0,1471.0,994.0,160.0,293.7,1649261425.1405828,1649261426.2686903,fbfec9f2-96bd-4838-aa5e-ced563c00aa4
0.0110230521871481,0.2665942550177745,0.1750398872205788,1.513458761283028,0.1244305568008911,-1.4660627178259988,-0.5920945862559712,-0.6182210541973092,-13.560815123734812,28.43519257461412,24.949899705356923,-6.51406371057544,0.6999799986536442,0.4945029598382501,8003.19873046875,11.583555555555556,7.054444444444444,178.8092950953084,-4.306721281933788,53.15060904333292,1553.0,1088.0,1350.0,1528.0,1471.0,994.0,160.0,293.7,1649261426.376952,1649261427.662636,fbfec9f2-96bd-4838-aa5e-ced563c00aa4
0.0875879105982351,0.2274374396406213,0.0688247211583193,-0.101937401184461,-0.111141489098092,0.1300581987433072,-0.2021173255747159,-0.2261399961092286,-11.915750829119895,21.190902924103085,36.0980827849974,0.665864165547866,0.6347022177142955,0.4058442701721463,8003.19873046875,11.673777777777778,7.080000000000001,178.84343996987917,-3.825135979772936,53.18131871220615,1553.0,1435.0,1350.0,1528.0,1471.0,994.0,160.0,293.7,1649261428.4031055,1649261429.5484524,1b5c9923-6340-4228-9faf-5d3d273ba04c
0.086925418593708,0.2362895460914825,0.0697056837907491,-0.1035536794808288,-0.1119865457325011,0.12161774737185,-0.2026746280574299,-0.2330809914375967,-11.782623282538562,21.090759796241407,35.92148385237671,0.6499621394638407,0.668779095201413,0.4075299555886534,8018.171875,11.670555555555556,7.055555555555555,178.8637726841284,-3.814365862384818,53.1328232307342,1553.0,1435.0,1350.0,1528.0,1471.0,994.0,160.0,293.7,1649261429.660045,1649261430.7697735,1b5c9923-6340-4228-9faf-5d3d273ba04c
0.0647223279360878,0.2287523092076236,0.066471104546031,-0.097953345978088,-0.1137712284740306,0.1231288359636014,-0.2074293993877294,-0.2372243483024463,-11.956442398253683,21.2754098343576,35.78757281081416,0.641678941651009,0.6420355289832723,0.4198905152251491,8018.171875,11.674666666666669,7.062222222222221,178.87382368694702,-3.8193578768944514,53.10542051178411,1553.0,1435.0,1350.0,1528.0,1471.0,994.0,160.0,293.7,1649261430.8775947,1649261431.9954207,1b5c9923-6340-4228-9faf-5d3d273ba04c
