raw_voltage_G-,raw_voltage_G0,raw_voltage_G1,raw_voltage_G2,raw_voltage_G3,raw_voltage_G4,raw_voltage_G5,raw_voltage_G6,load_x,load_y,load_z,load_l,load_m,load_n,rpm,voltage,current,roll,pitch,yaw,aileron1_pwm,elevator_pwm,throttle_pwm,rudder_pwm,aileron2_pwm,pbaro,pdiff,Tt,sample_start_time,sample_end_time,uid
0.2187330031403365,0.3447763978691298,0.5426905570777659,-0.1784759675991946,0.2360761325877647,-0.0559038134096032,0.2293571491310205,0.207898477863956,-4.488293314811905,25.84004434949562,19.38711746904352,0.4761249915947892,1.2098767474694272,-1.3340940039878155,5482.404622395833,11.964888888888888,0.13,178.78464114804424,0.6056681215128568,92.22680050934332,1553.0,1435.0,1200.0,1528.0,1471.0,994.0,160.0,293.7,1649257732.003024,1649257732.980212,1c057e3e-5ddf-4671-b330-41c2a738ecab
0.2453722604195443,0.3383598345450119,0.5465299760254132,-0.1692587306613954,0.2386664256355797,-0.056061597764532,0.2308035056564139,0.2092264961040499,-4.425905182990024,26.19770245845658,19.69303333262344,0.4576209063870402,1.1817724665082945,-1.3452822108109428,5490.984375,11.968333333333334,0.1366666666666666,178.76233375021502,0.6293785243892069,91.40075363657245,1553.0,1435.0,1200.0,1528.0,1471.0,994.0,160.0,293.7,1649257733.0933936,1649257734.2142556,1c057e3e-5ddf-4671-b330-41c2a738ecab
0.2178125944406219,0.3424227813967683,0.5403369406751981,-0.1745445070078123,0.2354318465229961,-0.056587545649119,0.228068576972124,0.2080036674024285,-4.45773084618062,25.74225993711637,19.46367596895469,0.4649823112467234,1.1995194929814537,-1.3282544044482478,5498.0283203125,11.968,0.13,178.76569420328664,0.670564013688904,90.54591903426976,1553.0,1435.0,1200.0,1528.0,1471.0,994.0,160.0,293.7,1649257734.322131,1649257735.3919156,1c057e3e-5ddf-4671-b330-41c2a738ecab
0.4512413829578582,0.7380275696689858,0.5976126560799259,-0.26463938335825,0.2048479804745193,-0.357600679950071,0.1695305836882773,0.1412477388994515,-3.858314413296368,25.42641994806845,19.97763238961676,-0.0070605603944324,2.689198495921704,-1.2329735854626112,5496.0712890625,11.94211111111111,0.1277777777777777,178.41414133106647,0.7106720465760151,89.1467198729369,1631.0,1435.0,1200.0,1528.0,1531.0,994.0,160.0,293.7,1649257737.4257991,1649257738.5149543,771a854a-1436-4c31-9129-495d5fb42918
0.4590780052440409,0.7493880421352727,0.609735752849505,-0.2723313717185769,0.2102915404844916,-0.3608221111322209,0.179326362044625,0.1552905460436237,-3.59036373497026,25.636466234052087,20.175474216990345,0.005214182967922,2.729876368968392,-1.269172737338771,5544.68701171875,11.947111111111113,0.12,178.3866293290897,0.7327813926352812,88.76435146391134,1631.0,1435.0,1200.0,1528.0,1531.0,994.0,160.0,293.7,1649257738.6235344,1649257739.7413435,771a854a-1436-4c31-9129-495d5fb42918
0.4598669269422377,0.7460877196941444,0.6122865996726428,-0.2603266104944888,0.2129344283021273,-0.3681196388639446,0.1782350202913191,0.1590642217591877,-3.5964171778339136,25.85707498176984,20.252801599975907,-0.0366653998982339,2.7155430557813167,-1.2749754852515094,5587.233181423611,11.94488888888889,0.12,178.401003082743,0.7615350364400393,88.39882098900969,1631.0,1435.0,1200.0,1528.0,1531.0,994.0,160.0,293.7,1649257739.8514657,1649257741.1776712,771a854a-1436-4c31-9129-495d5fb42918
0.7021710784711227,1.182584958877401,0.6527451340915598,-0.3775604045265606,0.1602870505333338,-0.690275935479696,0.0958715890490597,0.065826818344002,-3.2266925990330084,25.06219693920616,19.75550721885273,-0.4992908358503348,4.371449142736513,-1.089477618532519,5605.098090277777,11.92,0.12,178.2353300142352,0.7859193216695791,87.71440491886818,1712.0,1435.0,1200.0,1528.0,1591.0,994.0,160.0,293.7,1649257743.1086123,1649257744.247687,da7df6f9-ee2b-4ae8-a09b-48b1d27368eb
0.7137945248233548,1.1890935633467148,0.6752819972631313,-0.3807818357323392,0.1751976715705886,-0.6914593186330121,0.1175800861914256,0.091558816688938,-2.734028844034749,25.38245800829113,20.235737255270987,-0.491113515782486,4.389947922552999,-1.1697652144944952,5594.92578125,11.920555555555556,0.12,178.22250899025315,0.7928820295532542,87.5122305605259,1712.0,1435.0,1200.0,1528.0,1591.0,994.0,160.0,293.7,1649257744.3566358,1649257745.4773057,da7df6f9-ee2b-4ae8-a09b-48b1d27368eb
0.7135184022290008,1.1922492503822069,0.664105606541967,-0.38700117024314,0.1677686584134033,-0.6881326971841653,0.1088362033028564,0.0843007363183898,-2.989197339863245,24.994823724024737,20.263373540796657,-0.4728590823822117,4.403395383359686,-1.1316156209110553,5579.145345052083,11.922333333333333,0.1266666666666666,178.24222395183745,0.8074045947673371,87.3170290664163,1712.0,1435.0,1200.0,1528.0,1591.0,994.0,160.0,293.7,1649257745.585116,1649257746.704484,da7df6f9-ee2b-4ae8-a09b-48b1d27368eb
0.9578080082830096,1.631823339173459,0.7177654307157215,-0.4720995510368962,0.1239440550442852,-1.0481573377850166,0.0277218965773283,-0.0016785887241377,-2.128520433518453,24.72625659154191,19.065150563960007,-1.0887876470452198,6.070468259699794,-0.9781151956819012,5573.09912109375,11.879666666666669,0.11,178.01647861066942,0.8150890319022938,86.9545501682538,1796.0,1435.0,1200.0,1528.0,1650.0,994.0,160.0,293.7,1649257748.4239194,1649257749.7811146,412a61a5-253a-498c-9190-1aefda99c34f
0.9526668684479171,1.6169653102533894,0.720855374039449,-0.4633819630881045,0.1296900351814929,-1.039216218096596,0.0335336203182159,0.0126403417340489,-2.1274633097776423,24.858383090030667,19.44025147413726,-1.0872704334054086,6.010534430719993,-0.999673845059381,5575.919867621527,11.879111111111111,0.1188888888888888,178.0166516421284,0.8190292921434834,86.8040879310276,1796.0,1435.0,1200.0,1528.0,1650.0,994.0,160.0,293.7,1649257749.8896334,1649257751.0047748,412a61a5-253a-498c-9190-1aefda99c34f
0.9423056965677792,1.6108774629866005,0.7209474149046708,-0.4606601824093481,0.1315571500000326,-1.03631035428903,0.0371889578678554,0.0154147166425557,-1.967721888557335,24.730961233175385,19.376807757654387,-1.0876500551997783,5.986801556088064,-1.0081850463658737,5571.48974609375,11.882444444444442,0.11,178.0287790224547,0.8460420677675999,86.69310874066349,1796.0,1435.0,1200.0,1528.0,1650.0,994.0,160.0,293.7,1649257751.1135623,1649257752.2374372,412a61a5-253a-498c-9190-1aefda99c34f
1.0982097782287663,1.9071308048780224,0.785441763867221,-0.5350686749665565,0.1185793870063726,-1.2726977992706587,0.0064736031015804,-0.0175227679402665,-1.2171241744795496,25.436282742918124,17.415889935025714,-1.4430445783792645,7.123260565470699,-1.002025643780122,5565.86083984375,11.823555555555556,0.11,177.82306283157283,0.8465193331648384,86.47926841921884,1886.0,1435.0,1200.0,1528.0,1710.0,994.0,160.0,293.7,1649257753.5538166,1649257754.694916,05d2f03e-626d-433b-9007-b1318a126929
1.1273735853096254,1.913876087890408,0.7832985265838984,-0.5448250095557965,0.1152527669685643,-1.2672016394822403,0.0064341569067385,-0.0229663284667358,-1.1804103211964785,25.282450223348647,17.852600203628956,-1.409724471262919,7.145491809042236,-0.9930816482957582,5562.24951171875,11.82788888888889,0.11,177.84040999424485,0.84243880502835,86.37368887284859,1886.0,1435.0,1200.0,1528.0,1710.0,994.0,160.0,293.7,1649257754.8033843,1649257755.9231403,05d2f03e-626d-433b-9007-b1318a126929
1.1094256156439284,1.912416582634616,0.7989849197561345,-0.542905300414434,0.1282305298022159,-1.2694369192657624,0.0202402882298121,-0.0064121195075918,-1.0991637149155289,25.546391099597844,17.69287772875188,-1.4165316264897267,7.141620902381349,-1.0522336514208652,5549.051052517361,11.825333333333331,0.1055555555555555,177.83474397287338,0.8811945197496351,86.30634624327189,1886.0,1435.0,1200.0,1528.0,1710.0,994.0,160.0,293.7,1649257756.0385978,1649257757.1514635,05d2f03e-626d-433b-9007-b1318a126929
-0.0210066246097713,-0.1326198857546432,0.518432310491257,-0.0221982252778657,0.3099433124057609,0.271319019595142,0.3326385084689255,0.3084503876046261,-4.321488854571862,27.113880949025354,20.152991227121543,0.8663566582660511,-0.6093754664769281,-1.60440846227438,5543.864203559027,11.966555555555557,0.13,179.19641352144671,1.0321664124107892,86.18117847327197,1475.0,1435.0,1200.0,1528.0,1408.0,994.0,160.0,293.7,1649257758.0587208,1649257759.1996613,5f839ca5-0086-477e-a671-b224ee0228cc
-0.0205338194273662,-0.1427509569411816,0.5287792377494851,-0.012565709305494,0.3206090957984295,0.2725637627611948,0.3443293421870491,0.3223710209772759,-4.118121016060092,27.275645163088896,20.261476826416573,0.8491323921471736,-0.6503013212231145,-1.6505974653605429,5551.44189453125,11.965,0.13,179.15222826879602,1.038587572856443,85.94694093023593,1475.0,1435.0,1200.0,1528.0,1408.0,994.0,160.0,293.7,1649257759.3088543,1649257760.4341,5f839ca5-0086-477e-a671-b224ee0228cc
-0.0127629397532408,-0.1370707197176369,0.5312511924173156,-0.018679853195641,0.3207668801562674,0.2724717218911572,0.3461701595417003,0.3288007328778906,-4.082657774650504,27.30229238485348,20.25532015823608,0.8630341790408158,-0.6282834691457461,-1.6561639711108382,5557.040961371527,11.968666666666667,0.1355555555555555,179.16325371193622,1.0470235205275786,85.7611719273701,1475.0,1435.0,1200.0,1528.0,1408.0,994.0,160.0,293.7,1649257760.5678682,1649257761.658151,5f839ca5-0086-477e-a671-b224ee0228cc
-0.2479273883587391,-0.5314001862633557,0.4904902377676897,0.0947539498952711,0.3654329981288035,0.5555894269010607,0.4124921783240081,0.3958722275121422,-4.601104410389868,28.09465286506048,20.5171211017572,1.2463623860523847,-2.122446334670817,-1.8029054162625209,5562.24951171875,11.914,0.12,179.32645728760414,1.0931442068865471,85.5727512932865,1396.0,1435.0,1200.0,1528.0,1340.0,994.0,160.0,293.7,1649257762.5665877,1649257763.7049963,0df6e2ee-05d3-439a-b881-4842a414bf3a
-0.2285988026315417,-0.5105857944059382,0.4931199767891356,0.0851816991801928,0.3635132886346289,0.5440185752995469,0.4109143349133273,0.3848930671169802,-4.563905550740513,28.00143572183877,20.52338480913233,1.2414865091083491,-2.0433548301490063,-1.7991210937871047,5562.24951171875,11.92,0.12,179.32888428148922,1.0921014646732583,85.28115458051059,1396.0,1435.0,1200.0,1528.0,1340.0,994.0,160.0,293.7,1649257763.81405,1649257764.9317818,0df6e2ee-05d3-439a-b881-4842a414bf3a
-0.234186999226171,-0.5209864159539492,0.4961573253411612,0.1057331111224533,0.3682994137050102,0.5340913105641691,0.4096520601685546,0.3938078824167861,-4.582394388674582,28.306927022279805,20.35707810959664,1.174960230880622,-2.0830912390043803,-1.809434148799249,5539.086642795139,11.918888888888889,0.12,179.31341466192904,1.1116919057428345,85.18586661139973,1396.0,1435.0,1200.0,1528.0,1340.0,994.0,160.0,293.7,1649257765.0413673,1649257766.1645348,0df6e2ee-05d3-439a-b881-4842a414bf3a
-0.5177255385080634,-1.0363498003964615,0.4293751029078593,0.2695921575237254,0.409375937580856,0.8938133086869087,0.4746197628135274,0.4487036847578788,-5.105362567553563,29.93447748504377,21.135143125311785,1.62100242757433,-4.0435923898233215,-1.927709104932058,5505.0908203125,11.865,0.1166666666666666,179.5461207247712,1.1606129933774427,84.74110745994575,1314.0,1435.0,1200.0,1528.0,1268.0,994.0,160.0,293.7,1649257768.0948284,1649257769.2413094,98ed3998-b7a0-4702-a95d-0767144b6992
-0.5169366164220389,-1.03894009524279,0.436383357411325,0.2767187505149211,0.4139648321973915,0.8896188749215402,0.4794847799948147,0.4548309766776209,-4.899296428199633,30.215663245313177,21.152192861509,1.5978205520263182,-4.055345548685208,-1.9506373044992449,5512.1708984375,11.866111111111111,0.1188888888888888,179.51727000571705,1.1756130492901429,84.43102749636587,1314.0,1435.0,1200.0,1528.0,1268.0,994.0,160.0,293.7,1649257769.3539124,1649257770.4635837,98ed3998-b7a0-4702-a95d-0767144b6992
-0.5191587467426015,-1.0306432624053683,0.4231031753144917,0.2725769114380931,0.4054707751007347,0.8841095716600794,0.4681900509156232,0.4467182317765215,-5.1034787485916615,29.603515624134,20.89647646048269,1.5899205783850732,-4.02085814614341,-1.9041690707219523,5517.691677517361,11.874555555555556,0.1155555555555555,179.51112890674332,1.207730413036541,84.24594303023687,1314.0,1435.0,1200.0,1528.0,1268.0,994.0,160.0,293.7,1649257770.5718434,1649257771.6918366,98ed3998-b7a0-4702-a95d-0767144b6992
-0.6737217206746529,-1.2832693597710596,0.4050763142290658,0.3246720426750432,0.4316892732771276,1.056383777566586,0.5105945925231127,0.4885705282981255,-5.428483230511748,30.9269479732797,17.099796150555747,1.8666366326264003,-4.939943811040066,-2.0119183853921334,5522.826171875,11.73,0.0677777777777777,179.58321320542382,1.2655158292692914,83.80251956022056,1227.0,1435.0,1200.0,1528.0,1189.0,994.0,160.0,293.7,1649257773.4218662,1649257774.5598671,17594809-e55e-4c15-a223-73a78963924f
-0.6723148097169087,-1.2834402930630135,0.4120319739861824,0.3228180766113273,0.4378823086889298,1.0571989966910933,0.5170900478688715,0.488360149188723,-5.481531925049198,30.99996023495613,17.00043654790066,1.8734384427296784,-4.938658374657599,-2.0393271382868488,5520.455403645833,11.743,0.07,179.57375111669364,1.2588706362472672,83.4585390910602,1227.0,1435.0,1200.0,1528.0,1189.0,994.0,160.0,293.7,1649257774.667487,1649257775.705302,17594809-e55e-4c15-a223-73a78963924f
-0.6326118013631059,-1.27822581881047,0.4087523859648453,0.3247398090204344,0.4353152788162581,1.050560422610793,0.5153579601521755,0.4853308920938601,-5.251879173596436,30.710261450270863,17.01755295769382,1.8522203028540327,-4.921327481750764,-2.027942744986218,5512.1708984375,11.739,0.06,179.5934721495572,1.2656153769048513,83.18608967525756,1227.0,1435.0,1200.0,1528.0,1189.0,994.0,160.0,293.7,1649257775.8156974,1649257776.8644664,17594809-e55e-4c15-a223-73a78963924f
0.2427688186499552,0.3575043349146625,0.5520261305349702,-0.1176369454366685,0.2451224351472656,-0.1264860185266874,0.2148935839284002,0.1889775047041751,-4.381716596046221,26.337708817111142,19.06418391879116,0.1840455216984217,1.2528317578198014,-1.3370594387509254,5505.0908203125,11.969,0.13,178.75699254228405,1.1568653183833195,82.96675181044094,1553.0,1435.0,1200.0,1528.0,1471.0,994.0,160.0,293.7,1649257777.423384,1649257778.4513886,0a5207e3-da84-41a5-a064-3c801e78829e
0.2389031021898824,0.3592005166113567,0.5618745030973445,-0.1203192796256745,0.2533403698808973,-0.1242507400074223,0.2236243178556808,0.1977345360117846,-4.46780524336767,26.472366045985027,19.33728318419664,0.196502420757817,1.2583391835908948,-1.373656251701646,5516.906575520833,11.971444444444444,0.1244444444444444,178.75584658832335,1.171525833260092,83.30179990998674,1553.0,1435.0,1200.0,1528.0,1471.0,994.0,160.0,293.7,1649257778.5597963,1649257779.6798065,0a5207e3-da84-41a5-a064-3c801e78829e
0.2418747073776259,0.3590690296566596,0.5515659262107175,-0.1194646143220565,0.2435840377769792,-0.1256707992923142,0.2126583056639722,0.1899110620097522,-4.485243077960608,26.46364835125497,19.147378468226805,0.1907733037749208,1.2588936847361452,-1.3309876616441136,5519.665147569444,11.972777777777775,0.1288888888888889,178.77052390593974,1.1961440643266723,83.60133178475839,1553.0,1435.0,1200.0,1528.0,1471.0,994.0,160.0,293.7,1649257779.787959,1649257780.9056857,0a5207e3-da84-41a5-a064-3c801e78829e
0.2760087209663917,0.3739796500868115,0.546319596910944,-0.5573557200840874,0.1894903038854212,0.2840951686991319,0.324277581823591,0.2973227562749138,-4.080891365921128,25.460149962452046,22.571115396228382,2.093182956951524,1.3351753406454552,-1.4055925596100272,5517.297092013889,11.96511111111111,0.1255555555555555,178.7706559562637,1.3659359977793002,83.87848795980908,1553.0,1522.0,1200.0,1528.0,1471.0,994.0,160.0,293.7,1649257782.0239468,1649257783.160511,5c0c34c5-3fc6-4ae0-9ad3-3cdf3709cc83
0.2819519313346955,0.364289061677379,0.5489624846001455,-0.5548574671953423,0.1936847377952102,0.2919580885487665,0.3298263312419201,0.2993345066837454,-4.056117205890449,25.505528930250662,22.69690766362702,2.1056814848047543,1.297400229356095,-1.423782851537806,5525.991102430556,11.962222222222222,0.13,178.74929416017957,1.3778171236985046,83.97252828103153,1553.0,1522.0,1200.0,1528.0,1471.0,994.0,160.0,293.7,1649257783.2690055,1649257784.3882854,5c0c34c5-3fc6-4ae0-9ad3-3cdf3709cc83
0.2752592453073977,0.3716391823188,0.5548925460500908,-0.5552387794371184,0.1995490560790995,0.2830169756467187,0.3354934189320234,0.3129302576758306,-3.9711781568639952,25.280646838907256,22.446794317140167,2.0852571508284456,1.3270022892888065,-1.4472373620733237,5519.27001953125,11.96288888888889,0.1244444444444444,178.7528003239535,1.3809148160725495,84.09425060005015,1553.0,1522.0,1200.0,1528.0,1471.0,994.0,160.0,293.7,1649257784.4959085,1649257785.8224936,5c0c34c5-3fc6-4ae0-9ad3-3cdf3709cc83
0.2939303928669098,0.3635527347346026,0.5435189248575147,-0.9912497432746522,0.1396830440635352,0.7128083726999975,0.4422213780661401,0.4179883329292512,-3.7296941753866633,24.86408548229854,25.711642101025504,4.031903944356946,1.3189819569999228,-1.5020088906414706,5519.27001953125,11.955777777777776,0.12,178.74758964852668,1.556617353330373,84.29842999836879,1553.0,1613.0,1200.0,1528.0,1471.0,994.0,160.0,293.7,1649257786.937507,1649257788.0726657,9d85e435-e04e-43f7-b8bb-b07419c6ac9f
0.293641121562298,0.3673132615916804,0.5481078194240951,-0.993366684692816,0.1405771554002071,0.711717031015915,0.4442594258288149,0.4158845416655219,-3.653917261359136,25.112129306642032,25.82524118722392,4.036155916373055,1.332098821797209,-1.5118357418689945,5527.575358072917,11.950333333333331,0.12,178.74038607568204,1.5279808010238085,84.29888230867383,1553.0,1613.0,1200.0,1528.0,1471.0,994.0,160.0,293.7,1649257788.181651,1649257789.30904,9d85e435-e04e-43f7-b8bb-b07419c6ac9f
0.3042126726535332,0.3729014570662965,0.5468849907836859,-0.994352837572096,0.1407086423715333,0.7074831512372746,0.4449037118777381,0.4280996795006455,-3.562698483939406,24.77873605794071,25.873917590264472,4.026649026161279,1.3520191521876923,-1.510328506305956,5533.52294921875,11.943,0.12,178.7345485406714,1.5261655359562696,84.2891447356471,1553.0,1613.0,1200.0,1528.0,1471.0,994.0,160.0,293.7,1649257789.417014,1649257790.539991,9d85e435-e04e-43f7-b8bb-b07419c6ac9f
0.3085820853342111,0.3707223136984667,0.554247754271076,-1.414529887539629,0.0949537089129981,1.1129029398117452,0.5612266770100457,0.5376348838590596,-3.1110927077502444,24.785305753446664,28.672857252072216,5.886581566173913,1.368042413042898,-1.6233510551482448,5532.334147135417,11.920333333333332,0.11,178.72954428873948,1.6668428512923006,84.312615542365,1553.0,1710.0,1200.0,1528.0,1471.0,994.0,160.0,293.7,1649257792.4653976,1649257793.600947,716458bf-53c3-4d97-9cf1-f9c85f9398a6
0.314827715629493,0.3764242959522021,0.5540707526083042,-1.4222168256666403,0.0939675566882575,1.1162027567125188,0.5620358274696995,0.5370027350597402,-3.146229070187821,24.67427019282621,28.933724694515643,5.910615559833911,1.388298260807981,-1.6219071947360055,5540.67626953125,11.91411111111111,0.11,178.71950846411903,1.651064141956252,84.26741638607749,1553.0,1710.0,1200.0,1528.0,1471.0,994.0,160.0,293.7,1649257793.7093084,1649257794.8340094,716458bf-53c3-4d97-9cf1-f9c85f9398a6
0.3177426802573432,0.3764253074079272,0.5565098355369148,-1.418530129621118,0.0953193438224944,1.1087813294381488,0.5609540944530962,0.5413756875900245,-3.18078029650366,24.852380854284785,28.365067051516885,5.886816466406251,1.3932903321095418,-1.6263998150813073,5536.700032552083,11.914,0.1088888888888889,178.7368829475477,1.6483581893902286,84.1678124963211,1553.0,1710.0,1200.0,1528.0,1471.0,994.0,160.0,293.7,1649257794.9424202,1649257796.060085,716458bf-53c3-4d97-9cf1-f9c85f9398a6
0.3197281332427901,0.3595949774709471,0.5254657666048161,-1.6426236241533134,0.032153007253702,1.3459180638004775,0.5808349212802436,0.5557077651333464,-3.368894869340853,25.976661972325733,30.340027358017693,6.931321727981198,1.3396355117280914,-1.528163375141838,5522.826171875,11.883,0.1,178.72118869065486,1.7395179139041366,84.11455827027241,1553.0,1814.0,1200.0,1528.0,1471.0,994.0,160.0,293.7,1649257797.9242404,1649257798.8664029,c57b35bf-692a-45b6-9932-4bf890d8ab68
0.3353224859213234,0.3716654797162153,0.5350906113723641,-1.6535502047277937,0.0392401546036547,1.3445637480279269,0.5909857138102188,0.5666211819959789,-3.320587806004835,25.799701482126416,30.476386823243264,6.952278301932008,1.385309236574775,-1.5637251547327915,5518.086263020833,11.877,0.1,178.70654476507434,1.737127988024867,84.05551356162738,1553.0,1814.0,1200.0,1528.0,1471.0,994.0,160.0,293.7,1649257798.9747798,1649257800.1587117,c57b35bf-692a-45b6-9932-4bf890d8ab68
0.3246720427031259,0.3597001670292388,0.5183128764921464,-1.645398001979539,0.0297336470901881,1.3486529926480133,0.577126989280683,0.5555499807835758,-3.572366502926108,25.54770182951649,30.344722560789464,6.940424326142595,1.3413094005844317,-1.5098098527284156,5509.416666666667,11.879666666666669,0.1,178.70618807741766,1.7227103480345178,83.95195499234154,1553.0,1814.0,1200.0,1528.0,1471.0,994.0,160.0,293.7,1649257800.2661676,1649257801.3885448,c57b35bf-692a-45b6-9932-4bf890d8ab68
0.2212575526567558,0.3664191503044607,0.5675941854201123,0.3075918873893366,0.2989400458057427,-0.5393025549202569,0.1059040441332873,0.0793699752115292,-4.726459225680489,27.79869567598584,16.911150199032353,-1.6928769180281231,1.2564469609613982,-1.275474288026319,5512.1708984375,11.969888888888889,0.12,178.7054898803025,1.0782265994205469,83.9177941806627,1553.0,1349.0,1200.0,1528.0,1471.0,994.0,160.0,293.7,1649257803.5262349,1649257804.665413,196f2432-3b8f-4292-892f-cfb1e6ab497e
0.2058472813712802,0.3568206027572681,0.5585873293430043,0.3087489725796936,0.2913663972278887,-0.5305849668522299,0.0994480343688446,0.0816315510658197,-4.698482254396608,27.868284705243983,16.90439435272326,-1.6758715955939707,1.2195961661452517,-1.244859190284196,5515.324544270833,11.970777777777776,0.12,178.71917150811998,1.096601409113468,84.23855656010444,1553.0,1349.0,1200.0,1528.0,1471.0,994.0,160.0,293.7,1649257804.7738628,1649257805.8943183,196f2432-3b8f-4292-892f-cfb1e6ab497e
0.2323419031080852,0.3643153590582821,0.5524600374730896,0.2959026971683079,0.2852259564580331,-0.5236687507127314,0.0962660499235235,0.0689956540433827,-4.758433150284271,27.59259106978739,17.217502129141856,-1.6334648556977784,1.2465438486774714,-1.2223059822896725,5519.27001953125,11.970777777777776,0.12,178.7209883384392,1.096720664690695,84.5142746008799,1553.0,1349.0,1200.0,1528.0,1471.0,994.0,160.0,293.7,1649257806.002886,1649257806.9400632,196f2432-3b8f-4292-892f-cfb1e6ab497e
0.189411411723,0.3605548322172407,0.5688301627489681,0.708653385090752,0.3399902727444018,-0.9192605885439116,-0.0085816543147085,-0.0332091630887379,-5.320816708380023,29.25075153482843,14.13248499706035,-3.4424445531727783,1.2140098840089502,-1.1721914133353488,5520.460069444444,11.942111111111112,0.11,178.7096441531377,0.9328816561285892,85.02146016352799,1553.0,1264.0,1200.0,1528.0,1471.0,994.0,160.0,293.7,1649257809.0449188,1649257810.1933317,bca25b51-0cd8-40a5-af75-92b627f74d3e
0.1941975369670561,0.3525472767798325,0.574983752006451,0.7100865928433617,0.3458151447726875,-0.913475158940562,-0.0006266929133045,-0.0274763313676003,-5.219984276323438,29.398902281339883,14.07920150271031,-3.431346106281644,1.1839514244000982,-1.2008610786637322,5520.060275607639,11.935777777777778,0.1177777777777777,178.70297788850775,0.9259176379395266,85.19337071256786,1553.0,1264.0,1200.0,1528.0,1471.0,994.0,160.0,293.7,1649257810.3012068,1649257811.423478,bca25b51-0cd8-40a5-af75-92b627f74d3e
0.1876363377994481,0.352165964620143,0.5811504899601629,0.7112831240863149,0.351955585492674,-0.912673088055736,0.0055268970520845,-0.0194819237694759,-5.243225595569793,29.4248577353153,14.343827682308024,-3.431733219166676,1.1805844530403555,-1.226081245932169,5520.850531684027,11.947555555555557,0.1155555555555555,178.72951696798282,0.923900621416192,85.38732759442871,1553.0,1264.0,1200.0,1528.0,1471.0,994.0,160.0,293.7,1649257811.5318804,1649257812.857551,bca25b51-0cd8-40a5-af75-92b627f74d3e
0.153642407710643,0.3572701869947895,0.6034415737025821,1.105367725814173,0.4051617807763187,-1.2982396697768528,-0.0941852329288598,-0.1162219433500732,-5.708063747564184,31.405450967986766,11.513284686530124,-5.173556773833669,1.1810319075798694,-1.1880235751131747,5518.875434027777,11.923222222222222,0.1011111111111111,178.7245567328256,0.7764933938106972,85.68465938937771,1553.0,1178.0,1200.0,1528.0,1471.0,994.0,160.0,293.7,1649257814.9953663,1649257815.9915397,64cc5621-b02f-498d-8da6-9bca86b239f7
0.1721471741909805,0.3564918853701243,0.5977967377992415,1.0932395712766452,0.3992514422709166,-1.2850970302498843,-0.0964543946384321,-0.1256707994508289,-5.788388144644625,31.35211048413079,11.656086838310216,-5.117317708181269,1.1785501460503864,-1.1690815313069924,5506.270182291667,11.922999999999998,0.1033333333333333,178.7265890935586,0.767655206101488,85.81900010343296,1553.0,1178.0,1200.0,1528.0,1471.0,994.0,160.0,293.7,1649257816.099974,1649257817.0346775,64cc5621-b02f-498d-8da6-9bca86b239f7
0.1892273300016399,0.3599368435481553,0.6032008514375969,1.0934499503801,0.4040507160174849,-1.2905800414417792,-0.0927859081764263,-0.1226728964561379,-5.8245564269100445,31.351759760403347,11.419291908626992,-5.129902519030491,1.1941422153025796,-1.1881483033290847,5510.9921875,11.919333333333334,0.1066666666666666,178.72307382286576,0.7654211472735122,85.88835384426528,1553.0,1178.0,1200.0,1528.0,1471.0,994.0,160.0,293.7,1649257817.143872,1649257818.3859158,64cc5621-b02f-498d-8da6-9bca86b239f7
0.1613915410095815,0.3604627913415582,0.593720642359041,1.2980831060411488,0.4072064028724439,-1.48407645192669,-0.1693113255717132,-0.1862994427199517,-6.0674819815913965,32.87765720456659,10.425363989062197,-6.0169544662160375,1.1808735268301287,-1.070908111152406,5503.912923177083,11.890666666666668,0.1066666666666666,178.737827031473,0.6698644173336046,86.08659780819518,1553.0,1088.0,1200.0,1528.0,1471.0,994.0,160.0,293.7,1649257819.5012028,1649257820.6405342,784e2b68-5b0d-46c6-9345-b9d5528c55c1
0.1536469591500123,0.3561894653771603,0.6026223088578851,1.303408328183841,0.4156741625534989,-1.487718644938311,-0.1626843821947267,-0.183603959659493,-6.115471554808474,33.08705064271429,10.067202264694211,-6.035401268510511,1.1682722135700778,-1.1051058481930471,5492.549696180556,11.886333333333331,0.11,178.7567800475099,0.6785629774777495,86.17183781012702,1553.0,1088.0,1200.0,1528.0,1471.0,994.0,160.0,293.7,1649257820.7485323,1649257821.8675826,784e2b68-5b0d-46c6-9345-b9d5528c55c1
0.1541860556491032,0.3562815062524687,0.6037136505416626,1.2949011214264232,0.4178173998701642,-1.4752405179317425,-0.1558865056683475,-0.1830911605656211,-6.072024255677113,32.831057071837535,10.77305057029366,-5.98967936106804,1.1631662607858864,-1.1181238314494768,5499.20458984375,11.881333333333332,0.1,178.7565963913122,0.6755583227152113,86.24441160569803,1553.0,1088.0,1200.0,1528.0,1471.0,994.0,160.0,293.7,1649257821.976413,1649257823.042127,784e2b68-5b0d-46c6-9345-b9d5528c55c1
0.2473840108378363,0.3669188007278994,0.5645436881858769,-0.1765562577132813,0.2447411230055115,-0.0729445244431309,0.239481644763129,0.2160112230580097,-4.101682243903486,26.59234386280555,20.411540076302355,0.4399349768709668,1.2822702239308197,-1.385996850204256,5506.274359809027,11.96622222222222,0.12,178.71544070701333,1.097430980648442,86.31188400886896,1553.0,1435.0,1200.0,1528.0,1471.0,994.0,160.0,293.7,1649257825.0299304,1649257826.1667998,ac320c17-6f60-4557-8ef9-f2ead9e369d9
0.2361681735148114,0.37542600656318,0.5527887548530352,-0.1771216516863322,0.2369833926115718,-0.0822012070315877,0.2279239413254005,0.2079247751246468,-4.271642680870004,26.08779006524968,20.123982109703,0.4163479079601771,1.3172448304513893,-1.34224450479854,5525.201388888889,11.969111111111111,0.12,178.7300922216929,1.1170726837106946,86.30908135457952,1553.0,1435.0,1200.0,1528.0,1471.0,994.0,160.0,293.7,1649257826.280544,1649257827.404144,ac320c17-6f60-4557-8ef9-f2ead9e369d9
0.2412041239159276,0.3706398814788603,0.5668973045900202,-0.179738242534088,0.2450698403895561,-0.0767970926197584,0.2415196925847839,0.2104493248422914,-3.945147087057328,26.59204262250657,19.981974516674416,0.4385810379419496,1.2994668225624102,-1.3926284799466413,5527.580295138889,11.972111111111111,0.1144444444444444,178.73104237689748,1.1060788183374224,86.30127672508794,1553.0,1435.0,1200.0,1528.0,1471.0,994.0,160.0,293.7,1649257827.51781,1649257828.623854,ac320c17-6f60-4557-8ef9-f2ead9e369d9
0.3389515258491383,0.4095994654313055,0.8242172655402004,-0.1952405567768957,0.4795110773992831,-0.1129034144192927,0.5042832188976859,0.4757768480081394,-2.3559287735247394,26.414136683159665,20.24240614751328,0.4048896771919344,1.4502510170224747,-2.4306907271761005,5532.729546440973,11.960777777777778,0.11,178.6906698876234,1.0998683976867845,86.2464872242958,1553.0,1435.0,1200.0,1435.0,1471.0,994.0,160.0,293.7,1649257829.5360706,1649257830.6741097,dd1f809a-0488-40d7-8035-ec1ed3b59395
0.3420940640146655,0.4094679784764085,0.8270442349665471,-0.1951090698041764,0.4812072590702949,-0.1121802360795084,0.5088984108632092,0.4861511683885415,-2.10938935839826,26.393290086354472,20.37161873620343,0.4063654215769251,1.447030380093008,-2.443077055739629,5533.920084635417,11.967333333333332,0.11,178.69531593407885,1.1064324229225784,86.19933083935614,1553.0,1435.0,1200.0,1435.0,1471.0,994.0,160.0,293.7,1649257830.7821517,1649257831.9030657,dd1f809a-0488-40d7-8035-ec1ed3b59395
0.3264865626649894,0.4069697263840887,0.8102139053049524,-0.1913616910388821,0.4688080395997591,-0.1125089535256778,0.4922521629141709,0.4710696151364377,-2.3526859497558283,26.194454065445065,20.342278537520027,0.3948902888385146,1.4381107429083315,-2.379945918725104,5535.508626302083,11.961444444444444,0.1055555555555555,178.68904733824058,1.0987238192502455,86.20995102460559,1553.0,1435.0,1200.0,1435.0,1471.0,994.0,160.0,293.7,1649257832.0109284,1649257833.1291134,dd1f809a-0488-40d7-8035-ec1ed3b59395
0.4639167250560579,0.4582759348481701,1.1767995327772365,-0.1696663402725628,0.7984195258397212,-0.2027879091303231,0.8498966669985893,0.8233100055595172,0.2823378073704606,26.89419821706625,20.260801731857605,0.1672876467390944,1.633192574223865,-3.829955896023208,5544.26025390625,11.935222222222222,0.11,178.5541617268715,1.0910806122676224,86.06168659047232,1553.0,1435.0,1200.0,1330.0,1471.0,994.0,160.0,293.7,1649257835.065297,1649257836.2001443,c77dff33-e421-4fb4-b790-23ffad3d3e28
0.471779644720403,0.4715298195039339,1.1781932945475824,-0.1827624429125853,0.7995634623078955,-0.2052072695180343,0.8530392051301162,0.8289113496475501,0.2417761305354997,26.47912374791357,20.071452764402093,0.1886598400927155,1.6865617088925489,-3.836524312225951,5537.09716796875,11.94,0.11,178.55876679219193,1.072606717399867,86.01824127498169,1553.0,1435.0,1200.0,1330.0,1471.0,994.0,160.0,293.7,1649257836.3091133,1649257837.4322631,c77dff33-e421-4fb4-b790-23ffad3d3e28
0.4358574096578466,0.4557645340832287,1.1601138377406928,-0.1756095515525602,0.785402317772535,-0.1952931515446172,0.8357355224070386,0.808622913190067,0.0150358427486662,26.660665258777627,20.08401392382491,0.1949941078926257,1.6269020497730482,-3.770015514896413,5537.09716796875,11.93588888888889,0.1,178.5540448547457,1.0702964177710776,86.00137374337139,1553.0,1435.0,1200.0,1330.0,1471.0,994.0,160.0,293.7,1649257837.5399885,1649257838.6609683,c77dff33-e421-4fb4-b790-23ffad3d3e28
0.5013379112131289,0.4804577834655671,1.4153037365229946,-0.0814122853165313,1.0233937006750222,-0.3221517889766264,1.0624321775546337,1.0344649022560448,1.5454605631177207,27.679626240161323,19.65559032133396,-0.2823964906989882,1.717079146022832,-4.760926413828417,5537.10205078125,11.918,0.1066666666666666,178.49225441005436,1.003299258213965,86.0228379922931,1553.0,1435.0,1200.0,1210.0,1471.0,994.0,160.0,293.7,1649257840.5946648,1649257841.733893,73ae958b-c499-4b57-a137-230ed9e929bb
0.503126133741079,0.4815885712419744,1.415671900068094,-0.0904848861713619,1.021605478097402,-0.3136314324780083,1.0629449766762338,1.0413416700002371,1.4537664148406235,27.828443335944662,19.83866695123236,-0.2417966616920437,1.721489567586982,-4.759532465904803,5533.126247829861,11.91711111111111,0.1,178.49110997391347,1.0098290494981377,86.0065464733028,1553.0,1435.0,1200.0,1210.0,1471.0,994.0,160.0,293.7,1649257841.8419523,1649257842.9656546,73ae958b-c499-4b57-a137-230ed9e929bb
0.5110416481635487,0.4848888937050046,1.4227458990746311,-0.0948108074347617,1.0256815736846483,-0.3121061834852151,1.0691117148950802,1.0471796907983246,1.5138300572842331,27.98047853328966,19.99764312465497,-0.2271953311931919,1.7330173116253915,-4.782941779001494,5529.95263671875,11.912666666666668,0.1011111111111111,178.47413771273588,1.0013600062402428,86.02548962351086,1553.0,1435.0,1200.0,1210.0,1471.0,994.0,160.0,293.7,1649257843.0734117,1649257844.1886866,73ae958b-c499-4b57-a137-230ed9e929bb
0.5515396288396999,0.4937116680831982,1.585132312581708,-0.0014156146825393,1.1809019259157842,-0.4181504379243846,1.205411095211164,1.1837551930397598,2.4491222574171854,28.828944080749107,19.512475778256583,-0.6620637993991516,1.7625982123062285,-5.408261327622507,5526.38671875,11.899,0.1,178.4642324206195,0.9778000276081916,85.92794845088383,1553.0,1435.0,1200.0,1071.0,1471.0,994.0,160.0,293.7,1649257845.1010263,1649257846.240227,f4d2f931-9108-4441-bf3f-6182fed7e0bd
0.5390878146658898,0.492133824687712,1.588616717464529,0.0009117046410219,1.1811123049973085,-0.4200964453106749,1.2059896377752977,1.1838340851081977,2.560714960211155,29.18253810200784,19.33161537607896,-0.6691417397098821,1.757433822306191,-5.414613903082985,5529.95263671875,11.898555555555554,0.0911111111111111,178.46137891936627,0.981481902741717,85.93500403629645,1553.0,1435.0,1200.0,1071.0,1471.0,994.0,160.0,293.7,1649257846.352149,1649257847.4003074,f4d2f931-9108-4441-bf3f-6182fed7e0bd
0.5540247321944044,0.5070707422677428,1.5837122532688483,-0.012762939778786,1.1768915736857029,-0.4225421033776811,1.203530831753829,1.1865427164828086,2.514823333037018,28.64253884022613,19.252874190677467,-0.6476503948307452,1.8158426021044616,-5.396913030908252,5529.95263671875,11.899666666666668,0.0933333333333333,178.4546701557815,0.9865735834665826,85.95892108204013,1553.0,1435.0,1200.0,1071.0,1471.0,994.0,160.0,293.7,1649257847.5083923,1649257848.697477,f4d2f931-9108-4441-bf3f-6182fed7e0bd
0.1517141008692216,0.3114444551463558,0.2661866453825728,-0.1257102454459244,-0.0214805256147774,-0.0515121486829674,-0.0736677028621406,-0.0944031978849888,-6.296200363536429,27.044607038731847,20.03941836806437,0.3603781761017797,1.0678712570675934,-0.17935362200842,5522.826171875,11.972,0.11,178.63631676002828,1.0540321246737232,86.17278796533157,1553.0,1435.0,1200.0,1613.0,1471.0,994.0,160.0,293.7,1649257849.4197893,1649257850.54011,83e4b7e9-5dae-4f7a-86a8-2f033da47a5c
0.1487687930008318,0.3090776899900507,0.2576925880858937,-0.1262230445996838,-0.0265427737976647,-0.0506180372992082,-0.0811887574719715,-0.1001360297898218,-6.515054131003108,26.8537856363849,19.71173181027602,0.3616937869984605,1.0629691420163287,-0.1509997238065543,5532.340169270833,11.971666666666668,0.11,178.64435361595164,1.0424439261209542,86.18746376512819,1553.0,1435.0,1200.0,1613.0,1471.0,994.0,160.0,293.7,1649257850.648389,1649257851.77064,83e4b7e9-5dae-4f7a-86a8-2f033da47a5c
0.1512801938892754,0.3165592976600431,0.2635832036873063,-0.1310617651684354,-0.0244784284125956,-0.0531820331760937,-0.0771915535856664,-0.100924951532702,-6.403708227412055,26.975066633045408,19.79190734480761,0.3680132428681655,1.0905022874192911,-0.1665281406076467,5543.46435546875,11.973777777777778,0.11,178.64036326765654,1.045429193106942,86.13445314915991,1553.0,1435.0,1200.0,1613.0,1471.0,994.0,160.0,293.7,1649257851.878754,1649257852.9983056,83e4b7e9-5dae-4f7a-86a8-2f033da47a5c
0.078699391986266,0.2905117320573364,0.070691835992621,-0.0769680257281551,-0.1970550770588002,-0.0669355700097388,-0.2879125788858041,-0.3177075289992135,-7.686286088598426,27.32218648436331,19.738447061508367,0.2071272442720618,0.9834771732029222,0.6276892396316887,5531.142740885417,11.970666666666666,0.11,178.70890801052715,1.0391148492308075,86.11268685409487,1553.0,1435.0,1200.0,1694.0,1471.0,994.0,160.0,293.7,1649257855.1368637,1649257856.2739046,acdd6ac7-1626-40b8-87be-cde293aa2cde
0.1057255253818974,0.2867729510819784,0.0774811146349925,-0.0732863905754374,-0.1910430880375915,-0.0663074668710944,-0.2821357490410977,-0.3132121915127561,-7.678146632431839,27.515100429732847,19.834863454555805,0.2018701861180901,0.9685227139250916,0.6016635758140011,5522.826171875,11.971,0.11,178.7085498050507,1.0506167099235997,86.08218854163097,1553.0,1435.0,1200.0,1694.0,1471.0,994.0,160.0,293.7,1649257856.3819618,1649257857.4308493,acdd6ac7-1626-40b8-87be-cde293aa2cde
0.0880218175331219,0.2783754861575133,0.0649064096356985,-0.0658442281994545,-0.1996322217992111,-0.0650816037383227,-0.2948682402237459,-0.3199691055720706,-7.88339115350381,27.50577364578197,19.71750509291103,0.1870271820765843,0.9378063124051608,0.6473752793829091,5521.245659722223,11.968666666666667,0.1055555555555555,178.7061531675619,1.05684342342132,86.08087790422024,1553.0,1435.0,1200.0,1694.0,1471.0,994.0,160.0,293.7,1649257857.539219,1649257858.7392397,acdd6ac7-1626-40b8-87be-cde293aa2cde
0.0290499149645262,0.2655029132718395,-0.1272617917917602,-0.0178514853227673,-0.3756669920179741,-0.0880655258314874,-0.5100992926675499,-0.5397233135569798,-9.213100419585956,27.97987597608371,19.372686460699864,0.0199692509289276,0.8839104790865197,1.4527829786983537,5519.27001953125,11.948333333333332,0.1,178.8168477667106,1.0394420935546356,86.03234333888804,1553.0,1435.0,1200.0,1774.0,1471.0,994.0,160.0,293.7,1649257860.4610913,1649257861.598628,7c8aaf08-4236-463e-8c34-8b1fb94b3c9f
0.0188728239637573,0.255654540328628,-0.1288133380317164,-0.0127234936719926,-0.3755486537059563,-0.0815963669651065,-0.5109408094487325,-0.5346347668764915,-9.304446141554871,28.13319224986773,19.58113098859952,0.023865163490275,0.84504505161555,1.4549553636378756,5519.667317708333,11.950444444444445,0.1,178.82287502919814,1.0500430926129916,85.98573716363148,1553.0,1435.0,1200.0,1774.0,1471.0,994.0,160.0,293.7,1649257861.7065866,1649257862.8272066,7c8aaf08-4236-463e-8c34-8b1fb94b3c9f
0.0269592722481031,0.2566538411848229,-0.1221732459908737,-0.0252279041194477,-0.3735106054060983,-0.0726552531022829,-0.5029726974366835,-0.5281130114121088,-9.15589781178562,28.34720181103075,19.407465739392524,0.0739603462396631,0.8512449760177846,1.431565784157567,5514.930338541667,11.948444444444444,0.1,178.7968975430549,1.0405841818180397,85.91325064269988,1553.0,1435.0,1200.0,1774.0,1471.0,994.0,160.0,293.7,1649257862.9351444,1649257864.0555286,7c8aaf08-4236-463e-8c34-8b1fb94b3c9f
-0.0402174182610225,0.230185517005914,-0.2996280689659346,0.0450255809770559,-0.529782896232093,-0.1005436392324972,-0.7035166778438918,-0.7321676988036097,-10.548239933183115,28.847060435430823,19.498681143926643,-0.1533920028244685,0.7411279631998261,2.1681997695108985,5522.826171875,11.923333333333334,0.09,178.8431303346368,1.0344835185128138,85.78376088077513,1553.0,1435.0,1200.0,1856.0,1471.0,994.0,160.0,293.7,1649257865.9906304,1649257867.1253765,f0df9e4e-5db6-4f78-ab8b-38449ffced7f
-0.037351002411532,0.2289363909230612,-0.2855063671882617,0.0418304477916877,-0.5162397353894115,-0.0988211599581638,-0.6868572732478399,-0.706803853292137,-10.42432898145909,28.776842406417508,19.27012839693201,-0.1420503005937468,0.7388790659244161,2.106398577953732,5526.38671875,11.93011111111111,0.1,178.8428480201511,1.0270376755380828,85.73580384588276,1553.0,1435.0,1200.0,1856.0,1471.0,994.0,160.0,293.7,1649257867.2343056,1649257868.3564842,f0df9e4e-5db6-4f78-ab8b-38449ffced7f
-0.0304742341069943,0.2413093134578983,-0.2870842109381739,0.0330076725495891,-0.5212756874357838,-0.1025290924903908,-0.6904468687277375,-0.7150086432828866,-10.378792820902577,28.75887214413301,19.291561830839143,-0.1306518554985559,0.7857587312003423,2.122008536344167,5519.27001953125,11.93011111111111,0.0944444444444444,178.83486277010147,1.022480516405607,85.68455010635098,1553.0,1435.0,1200.0,1856.0,1471.0,994.0,160.0,293.7,1649257868.4649153,1649257869.7903402,f0df9e4e-5db6-4f78-ab8b-38449ffced7f
0.2235585744368504,0.3452103048255751,0.5037967171968418,-0.2119525514279495,0.2105413656985579,-0.0173518348069309,0.2269509378877499,0.1977213874376163,-3.5237764707525217,23.438216522222728,20.40990928701988,0.621061298094847,1.1972278596969732,-1.240010412017529,7893.466037326389,11.685333333333334,7.043333333333334,178.621539266304,0.7679506354990258,74.61342514314599,1553.0,1435.0,1350.0,1528.0,1471.0,994.0,160.0,293.7,1649257872.9220235,1649257873.8890555,b06d3e1b-bfad-4299-a9ac-e7b5763cf16d
0.2420294574304915,0.345562790999369,0.5148648840979116,-0.2108799211295511,0.2225466305110953,-0.0184664397234207,0.2384767809893791,0.2101565133065061,-3.5947637349576294,23.3507041186304,20.52931939368678,0.616091332867543,1.198562113661916,-1.2876527444335113,7899.9326171875,11.683222222222222,7.038888888888889,178.6156091442846,0.6864083390870575,70.36945522814244,1553.0,1435.0,1350.0,1528.0,1471.0,994.0,160.0,293.7,1649257873.9977748,1649257875.1147835,b06d3e1b-bfad-4299-a9ac-e7b5763cf16d
0.2194167353057797,0.3466172152252938,0.5052562223452144,-0.2162390268692429,0.2129607256855578,-0.0153400842446068,0.2286339709211553,0.2091739012977868,-3.718333098308571,23.351771871409017,20.344961544573994,0.6346425423059706,1.2050760989485227,-1.247750945004023,7899.9326171875,11.677888888888887,7.091111111111111,178.61718919471258,0.6491469891219933,66.09372569240823,1553.0,1435.0,1350.0,1528.0,1471.0,994.0,160.0,293.7,1649257875.224562,1649257876.350589,b06d3e1b-bfad-4299-a9ac-e7b5763cf16d
0.4360414913936122,0.7164637099013043,0.5411521597760012,-0.2975505746258168,0.1696752193483583,-0.2989443365593189,0.1537521487129819,0.1331875883358235,-3.4852252607177148,23.00965053364071,20.75273250689548,0.180466606144096,2.599242375836421,-1.0861918024302883,7899.9326171875,11.653,7.099999999999999,178.34647085240962,0.6653588225719724,59.429004685228215,1631.0,1435.0,1350.0,1528.0,1531.0,994.0,160.0,293.7,1649257877.9193764,1649257879.007907,79961adb-6676-4733-a378-0dd859692da1
0.4324913436993464,0.7105204997738233,0.5379570268856761,-0.2930537200022534,0.1687416619287561,-0.3003643960425373,0.1511618556374135,0.1269156603534037,-3.51764629251388,22.966974120978147,20.2903812173867,0.1665997158077552,2.580522063117424,-1.0782138837592443,7899.9326171875,11.648999999999996,7.1033333333333335,178.35077387158674,0.6980015061281288,56.87150865240864,1631.0,1435.0,1350.0,1528.0,1531.0,994.0,160.0,293.7,1649257879.115677,1649257880.2321208,79961adb-6676-4733-a378-0dd859692da1
0.4357916661819603,0.7163190742561956,0.5373127408343635,-0.3073200573888626,0.1663617480018122,-0.2923042440243046,0.1538573382934041,0.1320962464931357,-3.447980224250228,22.805443121576044,20.38575891731133,0.2158406976997749,2.602644741205143,-1.077105839268851,7906.410481770833,11.650222222222222,7.085555555555555,178.33051401268864,0.74606064997701,54.955842839710485,1631.0,1435.0,1350.0,1528.0,1531.0,994.0,160.0,293.7,1649257880.3447516,1649257881.4640992,79961adb-6676-4733-a378-0dd859692da1
0.6828819429521878,1.1602847706698396,0.5906306990496534,-0.4126937278966535,0.1213406132821108,-0.6334472496045686,0.0792121911360248,0.0484179446384329,-2.5805023965381544,22.26779112217646,19.855674152769453,-0.313613116064774,4.282689074989453,-0.929309246122606,7903.981282552083,11.622777777777776,7.121111111111111,178.14446573097678,0.9011535301591108,51.37740883416271,1712.0,1435.0,1350.0,1528.0,1591.0,994.0,160.0,293.7,1649257883.6039248,1649257884.7446077,5f7f46ae-417e-45ea-b839-bead32b0d393
0.6846570167706458,1.147228115725822,0.5841746898154466,-0.4063166089650643,0.1183427106020107,-0.6238486981385736,0.0739132666040302,0.0527175682706715,-2.803497688648413,22.39982814661084,20.190460453969536,-0.3059341672562503,4.231137586753069,-0.9101430948511956,7908.031358506944,11.618333333333332,7.139999999999999,178.1684503197022,0.9496550710523578,50.397672459782775,1712.0,1435.0,1350.0,1528.0,1591.0,994.0,160.0,293.7,1649257884.8527114,1649257885.9709022,5f7f46ae-417e-45ea-b839-bead32b0d393
0.6814224378113519,1.154525641906924,0.5950881066478065,-0.4043311554110393,0.1265606455578471,-0.6363399638086759,0.0823415808086238,0.0503902489634849,-2.5895162455446985,22.409818036295484,19.764567652526388,-0.3378329433406762,4.261215485919577,-0.9477672632366024,7910.464789496527,11.61877777777778,7.13111111111111,178.1742225884608,1.0022373060936356,49.59270620697524,1712.0,1435.0,1350.0,1528.0,1591.0,994.0,160.0,293.7,1649257886.078652,1649257887.1962614,5f7f46ae-417e-45ea-b839-bead32b0d393
0.9294725700263688,1.5956118245178217,0.6583596268420807,-0.498239165517573,0.0890737131881143,-0.9857930308688804,0.0132846279930219,-0.0058730229688415,-1.584231150296298,22.24960815244431,19.20753960716684,-0.9087614915164244,5.928949059588206,-0.8321011526639643,7907.22021484375,11.578111111111111,7.13,177.96793266168862,1.045902480156148,48.44317436546842,1796.0,1435.0,1350.0,1528.0,1650.0,994.0,160.0,293.7,1649257888.109082,1649257889.2502463,c2639568-0cda-49eb-bb57-4546dbcb7567
0.9345348177277054,1.5985045381198628,0.6554932113397123,-0.4973845000775989,0.0864834200475825,-0.9898296831423524,0.0098659669089096,-0.0091864944170356,-1.5654658299632598,22.16534516514423,19.125268575563183,-0.9204652903682942,5.94010647199211,-0.8195092124220086,7899.9326171875,11.583444444444446,7.136666666666666,177.97716555962666,1.0893682743563269,47.8751253665813,1796.0,1435.0,1350.0,1528.0,1650.0,994.0,160.0,293.7,1649257889.3664715,1649257890.485098,c2639568-0cda-49eb-bb57-4546dbcb7567
0.919150844283547,1.5987938094879786,0.6564004712917589,-0.5017893143213977,0.0885740627206515,-0.9852013391701032,0.0123510704986401,-0.0082134907761487,-1.7007535570259642,22.04523285064557,19.26205212859256,-0.9009259615906774,5.9415344449238106,-0.8269877089612534,7903.981282552083,11.582666666666666,7.13,177.98885277220643,1.1279676536366092,47.44886616194924,1796.0,1435.0,1350.0,1528.0,1650.0,994.0,160.0,293.7,1649257890.596771,1649257891.7297251,c2639568-0cda-49eb-bb57-4546dbcb7567
1.1113847712395837,1.9185307278350832,0.7281660484344757,-0.5864800920929868,0.0797118415547811,-1.235079346519995,-0.0144722703319627,-0.0386001286167557,-0.9817059994155176,22.462071544163354,17.354957973933615,-1.2649988939970065,7.167539444356196,-0.838963098497346,7914.5205078125,11.51,7.080000000000001,177.77206560358985,1.1808191119676716,46.64949193679716,1886.0,1435.0,1350.0,1528.0,1710.0,994.0,160.0,293.7,1649257893.4336832,1649257894.5713904,59b070ca-f29a-4076-b18a-5860c910f1f6
1.1014989750135702,1.9237603706452933,0.7223361193689996,-0.5763252494821851,0.0730434297544215,-1.2467068498708214,-0.0235109877644309,-0.0446247602326952,-0.7850639247729807,22.48925581861044,17.700938541943497,-1.3139902313257654,7.181076179314355,-0.8077282771674648,7909.653645833333,11.522333333333334,7.1,177.77952872362297,1.206814918670446,46.40647494449297,1886.0,1435.0,1350.0,1528.0,1710.0,994.0,160.0,293.7,1649257894.67924,1649257895.724931,59b070ca-f29a-4076-b18a-5860c910f1f6
1.0885146380400426,1.8975514705826435,0.7163812777012549,-0.576413750344118,0.0731319305668521,-1.2261746369722546,-0.0216271841775869,-0.0398204288889254,-0.9400742486820272,22.4679844259937,16.943400107284965,-1.268288277422065,7.090221068594966,-0.8067540177484704,7907.22021484375,11.522777777777776,7.111111111111111,177.77998558738747,1.2344926475983686,46.20398715635877,1886.0,1435.0,1350.0,1528.0,1710.0,994.0,160.0,293.7,1649257895.8330648,1649257897.0283806,59b070ca-f29a-4076-b18a-5860c910f1f6
-0.0330513785785311,-0.150916297888045,0.4707540464834689,-0.0478436623838886,0.2855678225495582,0.3196886871689987,0.3257239383368459,0.3056721778308802,-3.880991593658957,24.43544519142288,20.94272349375754,1.0131174721826373,-0.6880257145779629,-1.496290118768353,7909.653645833333,11.660333333333334,7.166666666666667,179.1735976539793,1.4043646223303323,45.786500950260645,1475.0,1435.0,1350.0,1528.0,1408.0,994.0,160.0,293.7,1649257898.9634132,1649257900.1017685,b18b9286-db75-4bc5-8352-2d293aaff41e
-0.0387973590108108,-0.1536249295127411,0.4726211611803305,-0.0425052915303034,0.2868300973051182,0.3149814542097997,0.3280118113261941,0.3048569587356646,-3.613756944572799,24.466488531310688,20.60948375058667,0.9908777931371366,-0.6976610318446548,-1.5043887089243952,7914.5205078125,11.665444444444445,7.165555555555557,179.14322456165013,1.3966370103364034,45.611280415658,1475.0,1435.0,1350.0,1528.0,1408.0,994.0,160.0,293.7,1649257900.2101328,1649257901.3306544,b18b9286-db75-4bc5-8352-2d293aaff41e
-0.0332486090442457,-0.1561231820158633,0.464468970219324,-0.0458187630522259,0.2816626599884089,0.3193205237010169,0.31996480974515,0.2960473327889697,-3.979187169762616,24.376915490508885,20.38538192579533,1.0068832550060365,-0.7025687288077027,-1.4756471323985747,7921.83544921875,11.664111111111112,7.157777777777778,179.12597757508593,1.4072777928750813,45.46352824571246,1475.0,1435.0,1350.0,1528.0,1408.0,994.0,160.0,293.7,1649257901.4392517,1649257902.5585072,b18b9286-db75-4bc5-8352-2d293aaff41e
-0.2531342726852009,-0.5475599384549884,0.4444040614632791,0.0624607522063477,0.3395958118689859,0.6056070626333514,0.4080216219789714,0.3820923948733552,-3.94881659978247,25.48853037758264,20.98225078050756,1.4124356388076842,-2.190784227938764,-1.6985852790110951,7921.83544921875,11.616,7.146666666666666,179.26746722047244,1.4357890776149935,45.31689812406557,1396.0,1435.0,1350.0,1528.0,1340.0,994.0,160.0,293.7,1649257903.469493,1649257904.6103551,ba863ec9-e79e-4cc0-b3d3-53f107e1b436
-0.2446533626353559,-0.542313607165283,0.4540289063088004,0.0575299910792686,0.3481687612266079,0.6035164201318581,0.4179357381546033,0.3884432148334839,-3.934588544113902,25.38876267581952,20.84678421912474,1.4186637237731543,-2.1687918077464525,-1.7370458518075542,7921.83544921875,11.618000000000002,7.11888888888889,179.26042757216794,1.446595622678685,45.249776716727006,1396.0,1435.0,1350.0,1528.0,1340.0,994.0,160.0,293.7,1649257904.7189076,1649257905.7629602,ba863ec9-e79e-4cc0-b3d3-53f107e1b436
-0.246296949847232,-0.5351475656948509,0.4530427541789235,0.0563992032083147,0.3454732787045384,0.5964555709303342,0.4130707209463965,0.3916777938419755,-4.026562720743296,25.46739582361398,20.670284307566888,1.4057455655100746,-2.1396214694698923,-1.7245918782773604,7921.83544921875,11.616333333333332,7.132222222222222,179.28446983804633,1.4521077632083947,45.199665136606434,1396.0,1435.0,1350.0,1528.0,1340.0,994.0,160.0,293.7,1649257905.8720872,1649257907.06405,ba863ec9-e79e-4cc0-b3d3-53f107e1b436
-0.5127553300642348,-1.0609247301632656,0.4047870429683471,0.209594659579466,0.4029988204198398,0.9800687494005048,0.505926805799591,0.4887546100440188,-4.184802384555808,27.142242528157706,22.17396782733671,1.931064172863289,-4.145705023863374,-1.930326274220431,7921.83544921875,11.576555555555554,7.135555555555555,179.47874925661802,1.475359019661555,45.21301170569959,1314.0,1435.0,1350.0,1528.0,1268.0,994.0,160.0,293.7,1649257909.101431,1649257910.234917,08d54cec-3c9d-4218-a569-e6a2e3d0549a
-0.522722044349329,-1.0665392273523298,0.4008555830916878,0.2252547561085899,0.4018548839263285,0.966420403666378,0.4991683765353534,0.4714772246447434,-4.165124753224348,27.154446830776248,21.46070693399768,1.864850527267092,-4.162757581729099,-1.915325900537576,7921.022677951389,11.568555555555555,7.138888888888889,179.46447416125267,1.4757109048414507,45.18682324260195,1314.0,1435.0,1350.0,1528.0,1268.0,994.0,160.0,293.7,1649257910.3426974,1649257911.4680903,08d54cec-3c9d-4218-a569-e6a2e3d0549a
-0.5294936248866466,-1.0618977343574252,0.4062071020342543,0.2257281091604201,0.4062859941957949,0.9623837542129914,0.5010617886203115,0.47780174704184,-4.3480122312768295,27.259126299768337,21.62285558378456,1.8556060577469105,-4.145209094607979,-1.9307281497825195,7921.83544921875,11.572,7.146666666666666,179.480427965334,1.465005745398252,45.1697462518571,1314.0,1435.0,1350.0,1528.0,1268.0,994.0,160.0,293.7,1649257911.5762017,1649257912.755944,08d54cec-3c9d-4218-a569-e6a2e3d0549a
-0.6672131138597259,-1.31468162381766,0.3828418706574835,0.2733000896697987,0.4297301177060899,1.136104319126761,0.5440054265999751,0.5253737257583736,-4.465713212330536,28.12559439860692,17.403875442018556,2.142517341503145,-5.062400263615622,-2.028511287906816,7914.5205078125,11.424888888888889,7.080000000000001,179.53613954166408,1.453596459856242,45.26612439505047,1227.0,1435.0,1350.0,1528.0,1189.0,994.0,160.0,293.7,1649257913.6062813,1649257914.7516143,289e198d-2d10-4d1a-9ba2-1e57a950e349
-0.6820054025475466,-1.3192836718532697,0.3865366540269012,0.2785595678195705,0.4352131235859129,1.1372745531434432,0.5479500351053525,0.5283716282251579,-4.553568683078324,28.138676968399977,17.647282581968266,2.133548197243915,-5.081609336585058,-2.0468662557501,7913.709364149306,11.424777777777775,7.088888888888889,179.54858869979128,1.4595802984675386,45.33355923218097,1227.0,1435.0,1350.0,1528.0,1189.0,994.0,160.0,293.7,1649257914.8655777,1649257915.9733093,289e198d-2d10-4d1a-9ba2-1e57a950e349
-0.6585744170088443,-1.3138006603659007,0.3778453664712807,0.2624655645980646,0.4275342856196439,1.1458080565971196,0.539968777226993,0.5157488809416911,-4.985464659652293,27.967099724828305,17.45762861563514,2.187210435385046,-5.054879332848087,-2.013173384287418,7907.22021484375,11.44111111111111,7.084444444444443,179.57073824435977,1.468117548753395,45.37719769024313,1227.0,1435.0,1350.0,1528.0,1189.0,994.0,160.0,293.7,1649257916.0814712,1649257917.1996107,289e198d-2d10-4d1a-9ba2-1e57a950e349
0.2297088767600527,0.3446229964351882,0.4991064680936093,-0.140659766253261,0.2165875742467862,-0.0877499571359048,0.2001380081223817,0.1760594590047734,-4.049595416544043,23.534320325456303,19.533908088231826,0.3020474780970825,1.1974373151842583,-1.2047649875917028,7912.898220486111,11.66877777777778,7.177777777777777,178.73918244456829,1.3173838589395452,45.51124242943436,1553.0,1435.0,1350.0,1528.0,1471.0,994.0,160.0,293.7,1649257918.1125162,1649257919.4542303,d387855b-ced3-4576-8b38-ffdb7f20ed4e
0.2188644900607758,0.3330872077350709,0.4792612522034302,-0.1311669547574917,0.2026784456801537,-0.0854752325685481,0.1801810273068094,0.1564476313551127,-4.376007584081825,23.49339027322405,19.342221256946,0.2842912778616429,1.155752731196036,-1.132148974073595,7921.83544921875,11.674,7.168888888888889,178.74547077206415,1.2977069139984505,45.58013095849319,1553.0,1435.0,1350.0,1528.0,1471.0,994.0,160.0,293.7,1649257919.5623674,1649257920.691846,d387855b-ced3-4576-8b38-ffdb7f20ed4e
0.2220333257071186,0.3404636258181158,0.4870058336036764,-0.1386880095317947,0.2078327343951699,-0.0845942698857372,0.1895428986867201,0.1657437593244689,-4.182860554022366,23.39005886923755,19.57630884001984,0.3030717478373644,1.1813922398458547,-1.161721085244382,7922.649793836806,11.67388888888889,7.168888888888889,178.76843842151317,1.292114412024287,45.6250569072139,1553.0,1435.0,1350.0,1528.0,1471.0,994.0,160.0,293.7,1649257920.8038375,1649257921.8525937,d387855b-ced3-4576-8b38-ffdb7f20ed4e
0.2563382724919064,0.3335342633795741,0.4778017470471382,-0.6099899676157576,0.1496629042935909,0.3782003812527103,0.3127461760085462,0.2858439451737716,-3.813924553274435,22.44250296342293,23.15154850345525,2.4001907323191087,1.1785322192628749,-1.244642118732039,7921.83544921875,11.663666666666666,7.163333333333333,178.74888738446896,1.3989183290930898,45.75308766484093,1553.0,1522.0,1350.0,1528.0,1471.0,994.0,160.0,293.7,1649257924.051595,1649257925.3966906,b7c2ab54-af5c-4312-acda-b619b824c24d
0.2541555890111098,0.338057414573136,0.4907006169145485,-0.6129484254440452,0.1601950096694026,0.3735720405103913,0.3271571461320499,0.3013725544177668,-3.4994913349514944,22.34349310216318,22.84119235264568,2.396558523098439,1.197202273910982,-1.2967437994301654,7925.092827690973,11.657777777777778,7.152222222222221,178.76261910034034,1.382988371384014,45.77950342145596,1553.0,1522.0,1350.0,1528.0,1471.0,994.0,160.0,293.7,1649257925.511727,1649257926.8275404,b7c2ab54-af5c-4312-acda-b619b824c24d
0.2637409880867475,0.3398324884437704,0.4891096248145095,-0.6173926860756833,0.1576310139893657,0.3778190691015475,0.3263024809291655,0.3074866977941491,-3.4853971828186845,22.35372679339501,23.100645060358115,2.416164399040305,1.201907099164996,-1.2893185782361218,7927.332275390625,11.65975,7.157500000000001,178.77897550612772,1.3873495716777238,45.80886640469784,1553.0,1522.0,1350.0,1528.0,1471.0,994.0,160.0,293.7,1649257926.9357908,1649257927.9789798,b7c2ab54-af5c-4312-acda-b619b824c24d
0.275732598350508,0.3238831209928103,0.4884521900535206,-1.1130330505592083,0.102406490980126,0.8729200321041809,0.4630094650771735,0.4457846744307317,-3.150438631818971,21.890347541059853,26.905185134199016,4.644436141946585,1.1669713781877384,-1.408331546167272,7928.350206163194,11.638333333333334,7.151111111111111,178.80786075558268,1.533275217415757,45.88376701804612,1553.0,1613.0,1350.0,1528.0,1471.0,994.0,160.0,293.7,1649257929.9911892,1649257931.124382,238f2c2d-bf3d-498c-aa08-bf86def58054
0.2813733887190109,0.3264208191939001,0.4986424287247119,-1.112888414695196,0.1132673139268141,0.867147754948101,0.475395535846851,0.4477701274065579,-2.974300329318676,21.62468439467945,26.5464142581216,4.629916567518077,1.1790460965174825,-1.454615396235763,7928.350206163194,11.637444444444444,7.168888888888889,178.7923668509055,1.5523605683678037,45.884110045324434,1553.0,1613.0,1350.0,1528.0,1471.0,994.0,160.0,293.7,1649257931.2324178,1649257932.3564713,238f2c2d-bf3d-498c-aa08-bf86def58054
0.2769554270359605,0.3342837390103586,0.4897670595595004,-1.128785200238761,0.1031954127517791,0.8738798868474941,0.4678876309507525,0.4385397434508934,-3.101143225399332,21.474682747771222,26.4571596590693,4.679389429883605,1.211617690087028,-1.4174503377021812,7921.83544921875,11.642666666666669,7.163333333333333,178.7965666583351,1.5423601634956834,45.9053747009404,1553.0,1613.0,1350.0,1528.0,1471.0,994.0,160.0,293.7,1649257932.4640503,1649257933.5859735,238f2c2d-bf3d-498c-aa08-bf86def58054
0.3043573083440441,0.3134562055579742,0.4973407079153467,-1.584387973041403,0.0567673667013473,1.334268318387079,0.5997953394499759,0.5779290596878112,-2.722594446206568,21.543387648579184,29.895468542483343,6.743243148097889,1.1569246036642948,-1.553774787229478,7914.5205078125,11.61188888888889,7.163333333333333,178.80107154754768,1.6999912652962206,45.910342904651685,1553.0,1710.0,1350.0,1528.0,1471.0,994.0,160.0,293.7,1649257935.5244062,1649257936.657817,96bc7d02-4300-4ed3-9a3f-0eccd01aa38f
0.3158361194136571,0.3214243149526728,0.5063081179358021,-1.5914093856377485,0.0637361756543849,1.3329797461467907,0.6087758981187968,0.5825574003284256,-2.693709758909928,21.4592212173135,29.972942700179296,6.7561015981356665,1.18735031299037,-1.5872099345973325,7912.087076822917,11.610666666666669,7.156666666666666,178.81576859682173,1.706337673115959,45.932188885257005,1553.0,1710.0,1350.0,1528.0,1471.0,994.0,160.0,293.7,1649257936.7660935,1649257937.8855965,96bc7d02-4300-4ed3-9a3f-0eccd01aa38f
0.3323771781939111,0.3306415503993139,0.5031787285256883,-1.591159560066285,0.0590157937763134,1.325222015191236,0.6041081114053318,0.5801643378465361,-2.539011868090551,21.36538238231265,30.15686386159772,6.737434692967833,1.2189648107703843,-1.5683453892232928,7914.5205078125,11.608666666666666,7.16,178.8042437909622,1.6931164901691258,45.9257058973698,1553.0,1710.0,1350.0,1528.0,1471.0,994.0,160.0,293.7,1649257937.9936888,1649257939.1155498,96bc7d02-4300-4ed3-9a3f-0eccd01aa38f
