raw_voltage_G-,raw_voltage_G0,raw_voltage_G1,raw_voltage_G2,raw_voltage_G3,raw_voltage_G4,raw_voltage_G5,raw_voltage_G6,load_x,load_y,load_z,load_l,load_m,load_n,rpm,voltage,current,roll,pitch,yaw,aileron1_pwm,elevator_pwm,throttle_pwm,rudder_pwm,aileron2_pwm,pbaro,pdiff,Tt,sample_start_time,sample_end_time,uid
0.0767665336846728,0.2192458022669273,0.0677333793420292,-0.0876447675869692,-0.123685346092022,0.1295322509089443,-0.2348575827933192,-0.260103082604543,-13.392611685776467,23.722210756568952,36.60013948174854,0.6485042313751953,0.6081957542963633,0.468802762987019,5722.778157552083,11.964222222222222,0.1255555555555555,179.08592231015334,-3.85131206315271,99.9256129157732,1553.0,1435.0,1200.0,1528.0,1471.0,994.0,160.0,293.7,1649260596.454916,1649260597.6384804,a64b7102-feb7-4ad2-8fab-4130e5e0d94a
0.0444601870795432,0.2175233231316412,0.0715333525215308,-0.0849229873425529,-0.1209109710255645,0.1308076743930758,-0.2295849550479121,-0.2552906592567797,-13.15007382431387,23.760702561290696,36.93079368043283,0.6458497845421576,0.596994648527083,0.4527727017331166,5764.24072265625,11.963,0.11,179.07735573511434,-3.853219630637782,99.31491887189316,1553.0,1435.0,1200.0,1528.0,1471.0,994.0,160.0,293.7,1649260597.7475646,1649260598.8634264,a64b7102-feb7-4ad2-8fab-4130e5e0d94a
0.0408038380769446,0.210497873899399,0.0707803367813849,-0.0835145595947963,-0.1196734763717607,0.130935621343513,-0.2294398136655642,-0.2568118624382404,-13.224006452620795,23.74250414628754,36.15352012808127,0.6426409781419931,0.5778357219037022,0.4499287416515819,5773.30078125,11.967,0.12,179.06302144477618,-3.853153178588983,98.7733258518462,1553.0,1435.0,1200.0,1528.0,1471.0,994.0,160.0,293.7,1649260598.9712183,1649260600.1995986,a64b7102-feb7-4ad2-8fab-4130e5e0d94a
0.2893020520807722,0.6399514538926887,0.1075739286095782,-0.2790240589437643,-0.1872198512849151,-0.0971775728183662,-0.2875970100699212,-0.3168528637029993,-12.23115152283997,22.95829318321185,37.87171585404921,0.5684688173505971,2.192682865847994,0.6282683138982122,5779.78857421875,11.958333333333334,0.12,178.72992222587357,-3.8291209208349466,97.95634643465344,1637.0,1435.0,1200.0,1528.0,1535.0,994.0,160.0,293.7,1649260601.8370178,1649260603.0648248,8cd8efb3-fb53-4e5f-9656-b243b0e56089
0.2882238590531166,0.6297875126843315,0.1096908686496538,-0.271871167205774,-0.18307801160842,-0.0928122054164188,-0.2834551701955005,-0.306623176409158,-12.184427170526742,23.013367031337708,38.0359857083652,0.5626634155711608,2.1520297462919133,0.6129188983269201,5772.4365234375,11.938666666666668,0.11,178.69749096987456,-3.815745465733422,97.63020262505562,1637.0,1435.0,1200.0,1528.0,1535.0,994.0,160.0,293.7,1649260603.173174,1649260604.294623,8cd8efb3-fb53-4e5f-9656-b243b0e56089
0.2824252843671652,0.6183875941465282,0.1245488951197698,-0.2830344118214387,-0.1671286416634609,-0.0856724629866292,-0.2659542531594448,-0.2949997272618118,-12.43986528554407,23.063624232164926,36.12823620452586,0.604529219201948,2.1303065909158865,0.5416573327225466,5762.949544270833,11.932,0.11,178.68068111541723,-3.807975603801972,97.39091605440312,1637.0,1435.0,1200.0,1528.0,1535.0,994.0,160.0,293.7,1649260604.402738,1649260605.523821,8cd8efb3-fb53-4e5f-9656-b243b0e56089
0.5544060443484363,1.0913067129394411,0.1590642218568819,-0.5118349208859972,-0.2452450539649801,-0.3353004873038997,-0.3392845429583505,-0.3604539478613959,-12.104289438912945,22.20621094048182,36.422349765925134,0.5559501499657596,3.9294027607857593,0.7616317423241697,5760.3671875,11.941,0.11,178.23571250482868,-3.7910179516401215,97.08647403252812,1723.0,1435.0,1200.0,1528.0,1599.0,994.0,160.0,293.7,1649260606.3307333,1649260607.2835758,75d326fc-9291-47ad-86ca-e7f40e9583b5
0.5545638286837982,1.0920693372814905,0.1660593279973253,-0.5070750916297113,-0.2424443814027809,-0.3342617401337483,-0.332920572994507,-0.3551287249590766,-11.725664609275729,22.492209288580103,37.34473979212652,0.550129196503837,3.9212703986556674,0.7408034526144763,5750.921495225694,11.913,0.11,178.21487587440072,-3.7974582982768825,97.01592273186134,1723.0,1435.0,1200.0,1528.0,1599.0,994.0,160.0,293.7,1649260607.416337,1649260608.3898585,75d326fc-9291-47ad-86ca-e7f40e9583b5
0.5541036243665803,1.0909254007791684,0.152936929562721,-0.5105069022659723,-0.2551854696129811,-0.3353530820942586,-0.3406783050864332,-0.3597044718542429,-11.247587606195427,22.174042949693447,36.502411193952334,0.552761938199939,3.920647010239338,0.7861982814547538,5740.65087890625,11.914555555555555,0.11,178.18695861453313,-3.795916809958575,96.94910754467055,1723.0,1435.0,1200.0,1528.0,1599.0,994.0,160.0,293.7,1649260608.498326,1649260609.6207075,75d326fc-9291-47ad-86ca-e7f40e9583b5
0.7496510160457409,1.4182227470852782,0.2446885282374023,-0.6951541036992888,-0.2618255619927054,-0.5003429573433565,-0.323887417167908,-0.3494747842943566,-10.047230069595056,22.715531302381823,34.87178610640063,0.6070290134352171,5.1827271755270745,0.6825695097629243,5731.692111545139,11.891333333333336,0.11,177.96148496311213,-3.780020445870886,96.8692520085344,1813.0,1435.0,1200.0,1528.0,1662.0,994.0,160.0,293.7,1649260610.5317752,1649260611.673188,7482b7b9-7a8a-4a24-a71c-28c0f0c8bda8
0.7373832836250789,1.4042588309405248,0.2123558856822383,-0.6995063239333211,-0.2851776497105339,-0.4879831797980635,-0.3504872342243229,-0.3761140479282134,-10.490353817365344,22.292564621335902,33.895215721721364,0.6398280512872423,5.140624600727513,0.79307986399166,5709.633192274306,11.859777777777778,0.11,177.95911412856017,-3.768072642601504,96.77443911702582,1813.0,1435.0,1200.0,1528.0,1662.0,994.0,160.0,293.7,1649260611.7816582,1649260612.891209,7482b7b9-7a8a-4a24-a71c-28c0f0c8bda8
0.7384351792168512,1.4120428595229566,0.2130659152322878,-0.7006108149268817,-0.2851645010768468,-0.4915727747306661,-0.3565224867921309,-0.3752725313607575,-11.008447334934658,22.49825971413461,34.30412185893371,0.6354565325379958,5.170046741361704,0.8017491940490836,5687.74169921875,11.867333333333333,0.11,177.94651470627124,-3.7560629407427664,96.7463495846092,1813.0,1435.0,1200.0,1528.0,1662.0,994.0,160.0,293.7,1649260612.999344,1649260614.2014897,7482b7b9-7a8a-4a24-a71c-28c0f0c8bda8
-0.2641195040326845,-0.320153186808883,0.0170729696343143,0.1743263176421126,-0.0500359547199635,0.4052882105713892,-0.1743417137201973,-0.1928131051141406,-14.215475200677568,25.456341778171847,34.983878080570314,0.6855234712014124,-1.4301659348024316,0.2848465327579451,5687.74169921875,11.90522222222222,0.1133333333333333,178.6048675334499,-3.746700174346756,96.66203848840448,1470.0,1435.0,1200.0,1528.0,1403.0,994.0,160.0,293.7,1649260616.0617187,1649260617.199907,bea41711-a823-4545-ba6a-e91ef4f08434
-0.2281385981704227,-0.3128425105524026,0.022948919778695,0.1736724229172705,-0.0454111535020138,0.4023282369960804,-0.1692324333622815,-0.1926634121863927,-14.167486234982007,25.39322002968437,35.53826361475705,0.6803337117235267,-1.407547671251654,0.2649835301368576,5694.459798177083,11.957222222222224,0.1277777777777777,179.08021227200723,-3.7644792990519074,96.53659675192782,1470.0,1435.0,1200.0,1528.0,1403.0,994.0,160.0,293.7,1649260617.307762,1649260618.4400263,bea41711-a823-4545-ba6a-e91ef4f08434
-0.2294666167008942,-0.3088058601854903,0.0120355017204527,0.1653361497290015,-0.0576788875841694,0.4004348248853238,-0.1796330530324759,-0.2018543518380171,-14.05650204310784,25.30160007364901,34.65908592103522,0.6936484973029713,-1.3850681998881995,0.3106676396072806,5691.51806640625,11.957333333333333,0.1233333333333333,179.08045664099754,-3.766025720284615,96.52095258308886,1470.0,1435.0,1200.0,1528.0,1403.0,994.0,160.0,293.7,1649260618.5481331,1649260619.6544075,bea41711-a823-4545-ba6a-e91ef4f08434
-0.4952018158406265,-0.757189678055021,-0.0242811979922848,0.3910861025862588,0.0105102529991457,0.6375320940193426,-0.1265254647043819,-0.1515211380212494,-15.144084756141746,26.9685236207244,35.510601684109474,0.7260313176979571,-3.0966981179355293,0.1391625216277081,5683.9697265625,11.947,0.1177777777777777,179.23069651762074,-3.771571359571973,96.44481874114044,1385.0,1435.0,1200.0,1528.0,1331.0,994.0,160.0,293.7,1649260621.347318,1649260622.4001734,1907fcb6-dfbd-465d-9b65-e7b9383445cc
-0.4928481986737429,-0.7518118589625964,-0.0261351641941449,0.3812245811444532,0.0068943614815067,0.6369929975251887,-0.1286555535934418,-0.1471952167036601,-15.166812744744528,26.9280306057056,34.87777222232223,0.7465920065861456,-3.069662465923671,0.1493198739386936,5687.74169921875,11.909333333333333,0.11,179.2485066153365,-3.770873209888685,96.31028071050918,1385.0,1435.0,1200.0,1528.0,1331.0,994.0,160.0,293.7,1649260622.518916,1649260623.75155,1907fcb6-dfbd-465d-9b65-e7b9383445cc
-0.5008163106883683,-0.77190307564139,-0.0234002352936382,0.4001455535733136,0.0129164644724295,0.6414372564229742,-0.126117855078539,-0.1519155992018454,-15.220290114117924,27.27255267382584,35.20414223297781,0.7163429373375539,-3.1496812072350635,0.1317927822725149,5687.74169921875,11.908444444444443,0.11,179.24425975549258,-3.77442187261746,96.19709916359272,1385.0,1435.0,1200.0,1528.0,1331.0,994.0,160.0,293.7,1649260623.8596857,1649260624.9769547,1907fcb6-dfbd-465d-9b65-e7b9383445cc
-0.7694705658585476,-1.2637829744898248,-0.0781251111305885,0.6337321211713925,0.0690745463213136,0.9004533997324106,-0.0797818469252995,-0.1018585092368431,-15.939005841293536,29.069353412346643,34.039620926846126,0.7801115893860248,-5.011320171100892,0.0035749518156094,5680.203125,11.880888888888888,0.1044444444444444,179.4296159113686,-3.786157465703881,95.9819459280076,1297.0,1435.0,1200.0,1528.0,1253.0,994.0,160.0,293.7,1649260626.9227135,1649260628.0672042,10be452f-2370-43b7-bf5a-96a8e1c57ecd
-0.7690366586275027,-1.25580170885072,-0.0804261330912349,0.6253301050876372,0.0655901418251752,0.8996776267078626,-0.0812019061861897,-0.1035809886641517,-15.88314312600776,28.890150107418577,33.928783486226145,0.7960291294443741,-4.979913049188467,0.0143275971050141,5678.11328125,11.858333333333333,0.0944444444444444,179.45332881034705,-3.8014466544334784,95.8201698618762,1297.0,1435.0,1200.0,1528.0,1253.0,994.0,160.0,293.7,1649260628.175408,1649260629.283857,10be452f-2370-43b7-bf5a-96a8e1c57ecd
-0.780383988591735,-1.2553940989520145,-0.0832925490105308,0.6312733152142855,0.0624739008366141,0.896101181626661,-0.0874869833141546,-0.1118778164066697,-15.985121507241088,29.062795611261325,34.218191911199305,0.7755825134460175,-4.981138029804006,0.0317953247363089,5672.6845703125,11.855,0.1,179.45932268079866,-3.8064917452047857,95.63792295989238,1297.0,1435.0,1200.0,1528.0,1253.0,994.0,160.0,293.7,1649260629.392211,1649260630.7127163,10be452f-2370-43b7-bf5a-96a8e1c57ecd
0.0478656993890088,0.2010480074503765,0.0631050383189958,-0.0879603363256725,-0.1250396618750289,0.13959100327704,-0.2340029174059928,-0.2602608672733346,-13.338375548973984,23.70550519720436,35.44007343335811,0.6713206129716746,0.5495858834527712,0.4719433789657822,5672.6845703125,11.857,0.1,178.94144863100942,-3.809835976577153,95.52962803387211,1553.0,1435.0,1200.0,1528.0,1471.0,994.0,160.0,293.7,1649260631.3385174,1649260632.3606446,73cac13c-c609-4f0b-80b7-56461d73c291
0.0339806760650133,0.1828107664811855,0.0626842800101868,-0.07686283613857,-0.1211344988832429,0.1481639530027609,-0.2329773190371631,-0.2555930797152692,-13.541239158252314,23.882524756648955,35.572438986465365,0.666623450717881,0.4800577963667674,0.4636004784459198,5683.553602430556,11.967555555555554,0.12,178.92635391294368,-3.796385768849714,95.80889853192586,1553.0,1435.0,1200.0,1528.0,1471.0,994.0,160.0,293.7,1649260632.4693763,1649260633.581711,73cac13c-c609-4f0b-80b7-56461d73c291
0.0434345887422369,0.1923567195853305,0.0634206070264388,-0.0837659020011883,-0.1246189035541234,0.1466124068835408,-0.2341344043789136,-0.2529896375131011,-13.42144787316262,23.987833323267537,35.774236732672684,0.6795357797381463,0.5141229231286852,0.4704098166286133,5687.74169921875,11.966,0.12,178.8844256583587,-3.789848471472234,96.06148423980228,1553.0,1435.0,1200.0,1528.0,1471.0,994.0,160.0,293.7,1649260633.6896904,1649260634.8105142,73cac13c-c609-4f0b-80b7-56461d73c291
0.0280243166854067,0.1724495942176098,0.0302464463213969,-0.4286168023192679,-0.1880876653666721,0.5009697477741138,-0.1654587571371376,-0.1893104942326406,-13.33917814626724,23.179405991528537,38.37784763928503,2.2471686103926207,0.4561428286018965,0.5029261499491067,5695.30029296875,11.967666666666666,0.1122222222222222,178.90527139570557,-3.6594426104250735,96.49247448879944,1553.0,1522.0,1200.0,1528.0,1471.0,994.0,160.0,293.7,1649260636.9504178,1649260638.088702,3c23b0ca-8d92-4080-9a91-541659a9f53d
0.0677070819998929,0.1919228126358182,0.0338097429997186,-0.4362430478373054,-0.1900599700262147,0.4870321310102734,-0.1671417904325961,-0.19447793243799,-13.228554176280484,23.20235198105299,38.11714658662692,2.2333955341469944,0.5318720920879274,0.5051412578892265,5695.30029296875,11.952222222222222,0.1022222222222222,178.90745705624,-3.682939457239171,96.57139049446978,1553.0,1522.0,1200.0,1528.0,1471.0,994.0,160.0,293.7,1649260638.1969173,1649260639.4195054,3c23b0ca-8d92-4080-9a91-541659a9f53d
0.0838799782883328,0.205755240517855,0.0552552666308725,-0.4437641037686312,-0.1732427860210563,0.4819172886254192,-0.1468796479234913,-0.1708497230801597,-13.073710528491915,23.17349562320572,38.49208097674275,2.2398817225521537,0.5816181728010384,0.4264107831838295,5695.30029296875,11.952777777777778,0.1155555555555555,178.8875781701156,-3.673086055587782,96.65912958672794,1553.0,1522.0,1200.0,1528.0,1471.0,994.0,160.0,293.7,1649260639.5272405,1649260640.6482384,3c23b0ca-8d92-4080-9a91-541659a9f53d
0.070192185553515,0.1817457221351334,0.0349010847996222,-0.8744103612713697,-0.2389336790926969,0.9266193031425958,-0.047278268396466,-0.0779936240811865,-13.053659055198056,22.97909513745255,42.29710126617767,4.208933403716527,0.5094302913118349,0.4005973554786927,5702.457139756944,11.945777777777778,0.1088888888888889,178.91233229348757,-3.5085785541186283,96.76302587092272,1553.0,1613.0,1200.0,1528.0,1471.0,994.0,160.0,293.7,1649260641.357273,1649260642.490249,49b1e247-00c8-442e-98cd-7ce0c8a99006
0.0750440544679328,0.1753554559879628,0.0302990411200879,-0.8749100119647641,-0.2415634186064318,0.9296172056530788,-0.0486851789106762,-0.0687106441751726,-12.980916927998116,22.85126240741405,41.746117568874986,4.215669397376868,0.489599016430401,0.4110040061459946,5702.87841796875,11.94611111111111,0.11,178.92938499911537,-3.513155397476837,96.7586902186196,1553.0,1613.0,1200.0,1528.0,1471.0,994.0,160.0,293.7,1649260642.5986605,1649260643.9192238,49b1e247-00c8-442e-98cd-7ce0c8a99006
0.0840246139214787,0.1904501587184244,0.0162956793715264,-0.8881376075234886,-0.259695473083179,0.9253307310150124,-0.0654366186915583,-0.0842787014503943,-12.944354099376962,22.82809109983171,41.38963551473631,4.234986031500344,0.5498545066131397,0.479881896800911,5706.67578125,11.94,0.11,178.92582267600827,-3.512638271522489,96.76023763592156,1553.0,1613.0,1200.0,1528.0,1471.0,994.0,160.0,293.7,1649260644.027383,1649260645.158206,49b1e247-00c8-442e-98cd-7ce0c8a99006
0.1009206883916915,0.1777485186058509,-0.0099228213340272,-1.290593190250373,-0.3263725212506113,1.324643472523596,0.0179392664419027,-0.0011131948757585,-13.036428321158224,22.299692951789776,43.92791383026915,6.035686218199837,0.5282504376458868,0.4863944786250054,5710.4775390625,11.933333333333334,0.11,178.91604943421586,-3.37723790579256,96.7956954246328,1553.0,1710.0,1200.0,1528.0,1471.0,994.0,160.0,293.7,1649260645.8289485,1649260646.990158,1512a4cd-62a4-4365-8346-dd8d8d9046fd
0.0808557781349609,0.1683077550318887,-0.0146957981906342,-1.2788513938973365,-0.3295939523610859,1.324985338616084,0.0127323826775025,-0.007240487332707,-12.97882074814492,22.46999262624255,44.15764704258628,6.010924714863453,0.4886526228400158,0.5039568005947527,5703.722276475694,11.903888888888888,0.1,178.9358463580702,-3.3678469885821585,96.66514091210746,1553.0,1710.0,1200.0,1528.0,1471.0,994.0,160.0,293.7,1649260647.0983846,1649260648.2258434,1512a4cd-62a4-4365-8346-dd8d8d9046fd
0.095383570180975,0.1772594882697765,-0.0243707102347962,-1.2899837981641025,-0.3405463123647311,1.319906401741774,0.0018128960258491,-0.0235109878925865,-13.045052877051315,22.32623657507311,43.14863939042406,6.022994738646906,0.532393510581677,0.5471844200890768,5706.67578125,11.906666666666666,0.1022222222222222,178.95256362551876,-3.3648980069761363,96.56183050636147,1553.0,1710.0,1200.0,1528.0,1471.0,994.0,160.0,293.7,1649260648.3335278,1649260649.4524834,1512a4cd-62a4-4365-8346-dd8d8d9046fd
0.0817893355799892,0.1569341331297826,-0.0046238967128434,-1.4318497738890488,-0.3448727400497962,1.489869998083035,0.0575562884009882,0.0340069731735844,-12.997985668352603,23.46879486716894,46.18307052024842,6.734005332154368,0.4476718122416162,0.4469338986473732,5702.457139756944,11.897222222222222,0.1,179.00564178446882,-3.312742255587096,96.3391982136352,1553.0,1814.0,1200.0,1528.0,1471.0,994.0,160.0,293.7,1649260651.3873856,1649260652.5211327,5e8d6b8b-1b25-407b-9551-0e938595b30c
0.083419773895872,0.1557244530992328,-0.0156556530880691,-1.445879447685514,-0.3562595129208955,1.4997183727455343,0.0505611819430756,0.024132302390854,-12.958933855679504,23.34433937479452,45.51033698117281,6.786321533552041,0.4498466858238993,0.4863003068230809,5695.30029296875,11.862333333333332,0.09,179.00281408615243,-3.304882937150265,96.17422258333262,1553.0,1814.0,1200.0,1528.0,1471.0,994.0,160.0,293.7,1649260652.6295874,1649260653.6763427,5e8d6b8b-1b25-407b-9551-0e938595b30c
0.0766481953751865,0.147782640823876,-0.0351551701215214,-1.4579894108128493,-0.3724850069856977,1.512985408496163,0.0372547013084765,0.0155987984292208,-13.04310285075082,23.077440617977427,44.58279872300965,6.840520970824287,0.429126840678611,0.5516009241163615,5689.00048828125,11.864666666666668,0.0966666666666666,178.99691887398882,-3.315383143486494,96.04668018423126,1553.0,1814.0,1200.0,1528.0,1471.0,994.0,160.0,293.7,1649260653.7844274,1649260654.9907713,5e8d6b8b-1b25-407b-9551-0e938595b30c
0.0267620418002431,0.1937636300333455,0.1091912181514531,0.3750972891677799,-0.0407170687769123,-0.3004169907349467,-0.3237427815554408,-0.3429267325210563,-13.696800955048012,25.93342041645662,32.3001937844014,-1.3455976877096096,0.4985776573702965,0.4196280335346739,5680.621636284723,11.879666666666669,0.0933333333333333,178.98081784138537,-3.8964381743616,95.91485373870046,1553.0,1349.0,1200.0,1528.0,1471.0,994.0,160.0,293.7,1649260655.893101,1649260657.0301857,e6889808-db22-4be2-b1db-e3e35609021c
0.0145823032221188,0.1931517099600727,0.0967490116934903,0.3742623470250458,-0.0515531119639304,-0.2956510933701796,-0.3354006197695434,-0.3572224020811686,-13.808682995436738,25.86301859335778,32.69159221170333,-1.334084823468364,0.4929183399797365,0.4683668128800302,5683.132703993056,11.968,0.12,178.99423385073507,-3.935576344102504,96.25194254698827,1553.0,1349.0,1200.0,1528.0,1471.0,994.0,160.0,293.7,1649260657.1386263,1649260658.2600975,e6889808-db22-4be2-b1db-e3e35609021c
0.0060482935037286,0.1799271563590437,0.0932469070199572,0.3796608978675737,-0.0523749055785159,-0.2887733128022196,-0.3366775607625324,-0.3633163182829383,-13.84718552917934,25.94854381232337,32.51485475681477,-1.3304623188335722,0.4442719131177804,0.4742138347207315,5681.040147569444,11.96888888888889,0.11,178.9532147702196,-3.935683587558848,96.51362606683918,1553.0,1349.0,1200.0,1528.0,1471.0,994.0,160.0,293.7,1649260658.368189,1649260659.49043,e6889808-db22-4be2-b1db-e3e35609021c
-0.0053076288022208,0.1974715622289489,0.1163967035562693,0.7722273253551127,0.002239722908898,-0.6839251127254211,-0.43704511858459,-0.454901052094573,-14.389283781531308,27.627584524250416,29.86047172751113,-3.092367589287272,0.4905993894147295,0.5119259811275575,5680.203125,11.965444444444444,0.11,178.93650660968993,-4.069032928115198,97.0388243561484,1553.0,1264.0,1200.0,1528.0,1471.0,994.0,160.0,293.7,1649260661.422408,1649260662.5606005,7fa4cae1-8b23-430e-8498-707c7006f9b5
0.0073545658501898,0.2032306909262488,0.1283225708480063,0.7726480835921181,0.0131925871090581,-0.6851479419434544,-0.4228050773623344,-0.4517848105833706,-14.129194868616644,27.440807672913465,30.645032386349826,-3.0964529294139505,0.5041063012729411,0.4625423708818018,5669.767361111111,11.954,0.11,178.9408126645067,-4.073446748138842,97.22907472201966,1553.0,1264.0,1200.0,1528.0,1471.0,994.0,160.0,293.7,1649260662.6691616,1649260663.9911745,7fa4cae1-8b23-430e-8498-707c7006f9b5
0.0027262246999075,0.1942895778707704,0.1486899008214182,0.7755013504117473,0.0338228917422611,-0.6796780822302337,-0.4029899879879844,-0.4224106166486519,-14.34341813170488,27.70651253118836,30.70333313005266,-3.0879206895772864,0.4725155808150619,0.3772342807150739,5678.532335069444,11.954333333333333,0.11,178.91182989512862,-4.082806716054567,97.38913489284954,1553.0,1264.0,1200.0,1528.0,1471.0,994.0,160.0,293.7,1649260664.0995233,1649260665.221302,7fa4cae1-8b23-430e-8498-707c7006f9b5
-0.0086868438061329,0.2029151222416135,0.1657700566907753,1.1659124125003386,0.0822363912116233,-1.0699841880845693,-0.505221125045736,-0.5228535315779005,-14.567880208061954,29.38066130736605,27.181690523452584,-4.834388075224716,0.4907107586487254,0.4322223807116422,5679.3671875,11.944666666666668,0.1,178.91782376558024,-4.2186851238785925,97.57777864644603,1553.0,1178.0,1200.0,1528.0,1471.0,994.0,160.0,293.7,1649260665.8288352,1649260667.0704658,2af98044-4f11-431c-bd1d-8abd3def7efd
-0.0065041601875582,0.2093974292025233,0.1582621513989038,1.1590356445867602,0.0725063560819243,-1.0635413225429613,-0.5110854450589987,-0.5362126109717005,-14.406597343716951,29.33598432165955,28.047982508388685,-4.804848527548833,0.5065738649570206,0.4661357012193822,5682.5572509765625,11.921375,0.1,178.90999219478692,-4.205334505289597,97.65330887042656,1553.0,1178.0,1200.0,1528.0,1471.0,994.0,160.0,293.7,1649260667.1932762,1649260668.2955866,2af98044-4f11-431c-bd1d-8abd3def7efd
-0.0022965773215231,0.211974573560438,0.1464546225192737,1.15385505844721,0.0621977782773041,-1.0658817920473829,-0.5236950481483852,-0.554949507942894,-14.618739054982472,29.193632284356102,27.305358437815087,-4.800178512217625,0.5242099609451462,0.5133537797004886,5680.203125,11.907666666666668,0.1,178.90890505634405,-4.220498539103231,97.71505178838495,1553.0,1178.0,1200.0,1528.0,1471.0,994.0,160.0,293.7,1649260668.4049132,1649260669.525011,2af98044-4f11-431c-bd1d-8abd3def7efd
-0.0071747436788131,0.2084375744276831,0.1765388385173421,1.3594612216429598,0.10302447968229,-1.2599961482723432,-0.5585785495205203,-0.5762109563532941,-14.670597205709065,30.79797491884637,26.09584773179027,-5.688262052407747,0.4986508338343756,0.465379082638013,5676.44140625,11.896,0.1,178.914715270598,-4.301611019774149,97.89702396498215,1553.0,1088.0,1200.0,1528.0,1471.0,994.0,160.0,293.7,1649260671.4604535,1649260672.800485,906b6b2b-4e4e-49f3-a8d1-8f231109508e
-0.0161553034523155,0.2159454796510218,0.1774855445946653,1.3500073085641615,0.0995532239086229,-1.2594439018216113,-0.5598408247918513,-0.5841527715397338,-14.6409225577555,30.98239008501808,25.979044914589743,-5.66442940073452,0.5288623564774049,0.4712196941541773,5665.18603515625,11.881444444444444,0.0977777777777777,178.92802806820023,-4.322558735639886,97.87380587526356,1553.0,1088.0,1200.0,1528.0,1471.0,994.0,160.0,293.7,1649260672.9091475,1649260674.0244474,906b6b2b-4e4e-49f3-a8d1-8f231109508e
-0.0217040534340207,0.2124347778862417,0.1746454263306161,1.366075016391473,0.1009338370033762,-1.268161496306604,-0.5656788475536981,-0.5909506494104616,-14.860021307819286,30.945423700184104,26.32210015222988,-5.720705889083613,0.5120463735215034,0.4815846312412444,5665.18603515625,11.886444444444445,0.1,178.91300924112528,-4.329401921142069,97.8775070788838,1553.0,1088.0,1200.0,1528.0,1471.0,994.0,160.0,293.7,1649260674.1364737,1649260675.257083,906b6b2b-4e4e-49f3-a8d1-8f231109508e
0.0460774767124739,0.1891352891351853,0.0658268184035416,-0.0609529129666858,-0.1221863946315937,0.1253246682036873,-0.2405115228443277,-0.267781922616305,-13.45276629151712,24.36972474659457,35.266221746736285,0.5827935467181407,0.5041150387572696,0.4718114640726413,5665.18603515625,11.91,0.1066666666666666,178.9477824930997,-3.8641033947845895,97.85168289254187,1553.0,1435.0,1200.0,1528.0,1471.0,994.0,160.0,293.7,1649260677.3970578,1649260678.5381124,e52f6ece-4df0-4865-bbdc-f7e798514132
0.0524985919691991,0.186969294371052,0.0677207363659243,-0.0577608140096148,-0.1196102614618075,0.1247152767134941,-0.2397817701270543,-0.2716041476664311,-13.563083258509984,24.442755965549622,35.30553946487056,0.5747527434583835,0.4961518530635831,0.4643962830594936,5680.623806423611,11.968555555555556,0.11,178.954010107803,-3.8655554740293874,97.87826522988168,1553.0,1435.0,1200.0,1528.0,1471.0,994.0,160.0,293.7,1649260678.6459787,1649260679.7454257,e52f6ece-4df0-4865-bbdc-f7e798514132
0.043092722621792,0.1970508039666248,0.0625659417504871,-0.0576788874573807,-0.1282347953031056,0.1203939072115616,-0.2486900128898384,-0.2657307253314854,-13.479098656538811,24.5932907655193,36.04934695949837,0.5657593249040938,0.526442553695938,0.4981198091167159,5695.7509765625,11.967999999999998,0.11,178.9496084303379,-3.8751649335772944,97.9210745788696,1553.0,1435.0,1200.0,1528.0,1471.0,994.0,160.0,293.7,1649260679.861438,1649260681.2025805,e52f6ece-4df0-4865-bbdc-f7e798514132
0.0804350198427299,0.2161427100850241,0.2125136700896816,-0.058073348383756,0.0113649183408805,0.1017885023606618,-0.0921021757949363,-0.1231068034009596,-12.405654064917607,24.27551307226703,37.18971710136749,0.530922238497897,0.5898932243746255,-0.1145668594666663,5781.522081163194,11.967555555555554,0.11,178.94295582608626,-3.86909246851833,97.92643324172845,1553.0,1435.0,1200.0,1446.0,1471.0,994.0,160.0,293.7,1649260682.5173123,1649260683.6553068,5d902aa0-202d-41c2-be66-0d792db5bbf3
0.0956217638392989,0.2087005483423499,0.2412961647906348,-0.072431725250266,0.039003478108655,0.103366345873467,-0.0599273146076847,-0.0844890803598476,-12.42184827414817,24.25912107419202,34.73427957477933,0.5677817927847763,0.5874498947294123,-0.2417496058167052,5798.905598958333,11.965444444444444,0.1011111111111111,178.93260429494416,-3.8659206519906366,97.94642141087952,1553.0,1435.0,1200.0,1446.0,1471.0,994.0,160.0,293.7,1649260683.763492,1649260684.8833144,5d902aa0-202d-41c2-be66-0d792db5bbf3
0.0924529280849687,0.2161427100880462,0.2280159822423967,-0.054667835886604,0.0249475217238452,0.1009338371127924,-0.0752718437795034,-0.0965464354347135,-12.10689442027719,24.320268730154744,37.636098620600045,0.522609835833435,0.5843866403958178,-0.1773110180319895,5799.779730902777,11.967555555555556,0.11,178.93038979583324,-3.873460279628815,97.95788550394644,1553.0,1435.0,1200.0,1446.0,1471.0,994.0,160.0,293.7,1649260684.9915383,1649260686.1108902,5d902aa0-202d-41c2-be66-0d792db5bbf3
0.1588801401227136,0.2640039619941441,0.4272187169428402,-0.0997152713946662,0.1962881795759527,0.068956208151155,0.1240360959624363,0.0996847109520551,-10.826662706846562,24.432313323872467,35.38737689778351,0.5633155118560524,0.7929412278550678,-0.9629165580085676,5799.34130859375,11.968,0.11,178.94427632932582,-3.88671146323294,97.95220050982726,1553.0,1435.0,1200.0,1354.0,1471.0,994.0,160.0,293.7,1649260687.843003,1649260688.9761589,84a9c815-9c8f-4998-82a3-1ce888a3ff30
0.1795104438546388,0.2448857586880339,0.4448511171089484,-0.0812282034966967,0.2183516908876175,0.073426764847077,0.1448110354570555,0.1201309331921628,-10.77806706911936,24.520182740508645,35.926204245618784,0.5332299806400636,0.7149599171213755,-1.0479751665504398,5773.30078125,11.962,0.11,178.919068377829,-3.89653996315298,97.98600083929992,1553.0,1435.0,1200.0,1354.0,1471.0,994.0,160.0,293.7,1649260689.0846963,1649260690.207762,84a9c815-9c8f-4998-82a3-1ce888a3ff30
0.1576178652961433,0.2557465811977565,0.4210651276078674,-0.1005567880607738,0.1930010056344175,0.072348571760083,0.1194734984459207,0.0955034254883922,-10.98786263809626,24.37851666572365,34.57004226747749,0.5719623972483983,0.770068570722559,-0.9458050746351006,5760.3671875,11.961444444444444,0.11,178.9312428105696,-3.901266027171806,97.99718110006133,1553.0,1435.0,1200.0,1354.0,1471.0,994.0,160.0,293.7,1649260690.3158686,1649260691.4367466,84a9c815-9c8f-4998-82a3-1ce888a3ff30
0.2306983161452078,0.2858439451910163,0.6633035361486332,-0.0841472141701596,0.4139516835311251,0.027472071426187,0.3619222965255785,0.3373605335861734,-9.202870360691476,24.595233977483275,36.38371232019804,0.4487890605477342,0.867583665295961,-1.9146379006405303,5737.23291015625,11.959,0.1066666666666666,178.88428450111587,-3.899778326593213,97.94049584231958,1553.0,1435.0,1200.0,1252.0,1471.0,994.0,160.0,293.7,1649260693.3716252,1649260694.5117905,a9ae267c-1c16-4271-98fb-f4c2f380fd9d
0.2275689265736928,0.2764426279355146,0.6666433046694635,-0.0870925223265879,0.4164762329875279,0.0324028325543847,0.3632634634281697,0.3335868580458184,-9.448006411933738,24.96848663081856,35.40502449764175,0.4688742641325191,0.8433127919342361,-1.927406793620612,5735.100748697917,11.956333333333331,0.1055555555555555,178.87709762428918,-3.9006450491397655,97.93539217318975,1553.0,1435.0,1200.0,1252.0,1471.0,994.0,160.0,293.7,1649260694.6204824,1649260695.738655,a9ae267c-1c16-4271-98fb-f4c2f380fd9d
0.2265959230902444,0.2763505870547625,0.6581229503335385,-0.0838973889415475,0.4102306027567839,0.0338228917700154,0.3598185052387853,0.33469134852064,-9.12707384977001,24.602621007804984,35.968616630224226,0.4622596536370176,0.8347612588581016,-1.901194582992327,5729.995279947917,11.954555555555554,0.1,178.89989831355854,-3.9067085970073134,97.92509907811056,1553.0,1435.0,1200.0,1252.0,1471.0,994.0,160.0,293.7,1649260695.8467178,1649260696.9724083,a9ae267c-1c16-4271-98fb-f4c2f380fd9d
-0.0167601434736304,0.1561978061661576,-0.1488651012089819,-0.016036965187354,-0.3171552836908625,0.1259163595158544,-0.4716919412005528,-0.4975159870221734,-14.839593309863254,24.92716971930247,34.92642853830205,0.4750566697943905,0.3742756676081697,1.3538970285577083,5680.203125,11.960333333333333,0.11,179.03683905295782,-3.915308042331705,98.0365601762661,1553.0,1435.0,1200.0,1604.0,1471.0,994.0,160.0,293.7,1649260698.9009705,1649260700.0364735,a4e00ba4-edff-4d44-8f06-9d132b406861
-0.0172334965170051,0.1524241304668961,-0.1563467099961035,-0.0156556529659547,-0.3220991942883148,0.1299924552662391,-0.4782268448686987,-0.501000392447633,-15.015531952561874,24.854979286418207,34.97797030127878,0.4824246139985401,0.3603880603765022,1.3796593937742594,5676.44140625,11.967888888888888,0.1022222222222222,179.0282102473064,-3.922468120152256,98.00460779241888,1553.0,1435.0,1200.0,1604.0,1471.0,994.0,160.0,293.7,1649260700.1446192,1649260701.2720604,a4e00ba4-edff-4d44-8f06-9d132b406861
-0.0304084905967267,0.1493736330264537,-0.1553211115774421,-0.0098307803993463,-0.3198507668373845,0.1290194517586894,-0.4777403429509958,-0.5068121177088414,-15.061336339003908,24.88883263812508,35.18278549086025,0.4673837376678716,0.346804185730567,1.3744311858292135,5680.203125,11.968444444444446,0.1055555555555555,179.0355094427994,-3.91448495710485,97.9645168587206,1553.0,1435.0,1200.0,1604.0,1471.0,994.0,160.0,293.7,1649260701.379681,1649260702.7064934,a4e00ba4-edff-4d44-8f06-9d132b406861
-0.0986633755973768,0.122668631584449,-0.3239268633503483,0.0196222996540105,-0.4738614765923,0.1333322240182761,-0.6604941274854496,-0.690867627466632,-16.34299760892027,25.47437170983733,34.579076943412936,0.4053809584256243,0.2467610510359243,2.069268837802593,5680.203125,11.965333333333334,0.1033333333333333,179.07350350842248,-3.918934872780983,97.92227062088423,1553.0,1435.0,1200.0,1676.0,1471.0,994.0,160.0,293.7,1649260704.0187347,1649260705.1617937,0b30c405-814a-46f5-afdc-73bf77a239b2
-0.091023982723804,0.1257585751413424,-0.3149068564049146,0.0209108718840671,-0.4670373016870199,0.1306498900512233,-0.6512900368676279,-0.6756282828382565,-16.098067789763956,25.504546077939704,34.865161524677426,0.3972647532286735,0.2544947858272985,2.0355217187031323,5683.9697265625,11.961111111111112,0.1088888888888889,179.06121372137585,-3.905162839820776,97.85928944654756,1553.0,1435.0,1200.0,1676.0,1471.0,994.0,160.0,293.7,1649260705.2703257,1649260706.5950325,0b30c405-814a-46f5-afdc-73bf77a239b2
-0.092825354155153,0.1336083466416247,-0.3083851019613436,0.0219496189271727,-0.4618830114215439,0.1252720734048482,-0.6468457758466779,-0.6692643113211167,-16.090134080346907,25.4871807845364,35.37211482758392,0.3831313504493295,0.2796721923533569,2.0149704582872063,5688.161295572917,11.958555555555556,0.1011111111111111,179.07814955487785,-3.917214044565093,97.81048698601792,1553.0,1435.0,1200.0,1676.0,1471.0,994.0,160.0,293.7,1649260706.703379,1649260707.825709,0b30c405-814a-46f5-afdc-73bf77a239b2
-0.1429876334770643,0.1070348320602413,-0.5150037576575929,0.062710577448614,-0.6479239692900761,0.1206305837360368,-0.8705577913643134,-0.8925029771412923,-17.65389019509015,25.832910899462803,34.69444636823061,0.2718630453059044,0.1789681918408935,2.863477923194272,5688.580891927083,11.959222222222222,0.1022222222222222,179.0553655616265,-3.915460393495693,97.7647694942634,1553.0,1435.0,1200.0,1747.0,1471.0,994.0,160.0,293.7,1649260709.9624665,1649260710.9693587,4f648707-5976-46d6-9278-debd4f8e22b3
-0.1585688397741855,0.1043656467553433,-0.5247337954581212,0.0635783913997091,-0.6549979703799031,0.1209855985340747,-0.8802746829576509,-0.9088468153749484,-17.843402868064512,25.741229249960373,34.414136404268525,0.2694708967656646,0.1720575945010363,2.899405246175311,5691.51806640625,11.94988888888889,0.1088888888888888,179.05483128905146,-3.918757525021909,97.68491851158667,1553.0,1435.0,1200.0,1747.0,1471.0,994.0,160.0,293.7,1649260711.076728,1649260712.3312786,4f648707-5976-46d6-9278-debd4f8e22b3
-0.154413851390709,0.0959767786803996,-0.5137414824095512,0.0650773427676923,-0.6459779614887867,0.121827115071752,-0.8675730356992054,-0.8956849632571182,-17.532836658356743,25.93565137247663,33.64918713508289,0.2698512150714767,0.1456914519256066,2.8521080834951857,5691.51806640625,11.948,0.1,179.0501989029744,-3.9104833674567376,97.63979221065031,1553.0,1435.0,1200.0,1747.0,1471.0,994.0,160.0,293.7,1649260712.465373,1649260713.5580626,4f648707-5976-46d6-9278-debd4f8e22b3
0.0063158189096016,0.1762758646896599,-0.0001138937025916,-0.031854847194868,-0.1576878770185132,0.1210381933104346,-0.2837970363204846,-0.3052688605894221,-13.36291072485529,21.7875846294164,36.28420149521569,0.4873299348044156,0.4384193985390174,0.6729370737901449,7990.765625,11.679333333333334,6.88,179.85153946369752,-4.096475679562925,85.60597788686887,1553.0,1435.0,1350.0,1528.0,1471.0,994.0,160.0,293.7,1649260718.5163486,1649260719.495031,de03832d-77ea-41ac-8e67-1e9f1543b0ca
0.0104971043344328,0.1743167090231347,-0.007016959406811,-0.0362465119404537,-0.1632234786615975,0.1224714011747601,-0.2885963111506216,-0.3141310831334691,-13.368711241170791,21.631642047312155,35.59742948744035,0.4989671798779427,0.4372997169282638,0.6955352958901042,7995.7333984375,11.679,6.913333333333332,-179.9110774637826,-4.105873213519086,80.68623512666355,1553.0,1435.0,1350.0,1528.0,1471.0,994.0,160.0,293.7,1649260719.603197,1649260720.7286236,de03832d-77ea-41ac-8e67-1e9f1543b0ca
0.0028051169603845,0.1672032645946018,0.0013982063530878,-0.0258458928627226,-0.1533619556709266,0.1217613715902047,-0.2819167725270585,-0.307951194836374,-13.500134557364014,21.81917197629689,35.92351696441549,0.4755584028324329,0.4079161704246714,0.6606440185341163,7995.7333984375,11.68,6.940000000000001,-179.76411759578076,-4.064085499562647,76.79913197105444,1553.0,1435.0,1350.0,1528.0,1471.0,994.0,160.0,293.7,1649260720.8373454,1649260721.952252,de03832d-77ea-41ac-8e67-1e9f1543b0ca
0.2574953576904876,0.5929448693720478,0.0313509367867069,-0.2303344308010707,-0.2251406951866142,-0.1025816872627139,-0.3453329442434298,-0.3694345087772073,-12.801629087676314,20.87813985530402,36.44282407764226,0.4283932572297529,2.0222193812118747,0.8592004433164585,7995.7333984375,11.671666666666663,6.985555555555555,179.971386516334,-3.9519816995789663,68.37747229675314,1637.0,1435.0,1350.0,1528.0,1535.0,994.0,160.0,293.7,1649260723.8882616,1649260725.024635,5baade9e-fec0-4c4c-8c52-937aedaa1f78
0.258507807257205,0.6002555437796103,0.0303910819309726,-0.2350811106524426,-0.226626498047644,-0.1051456831752862,-0.3464111375560914,-0.3696711853921453,-12.809344026232898,20.72460900558099,36.4692985121442,0.4322737306238839,2.0499797817117686,0.8650055954446377,7995.7333984375,11.643777777777778,6.991111111111112,179.90421388257664,-3.946527746094842,65.96379272709737,1637.0,1435.0,1350.0,1528.0,1535.0,994.0,160.0,293.7,1649260725.1330192,1649260726.0857544,5baade9e-fec0-4c4c-8c52-937aedaa1f78
0.2620185089392059,0.602306740195865,0.0326263603187182,-0.2339108765949664,-0.2279545165257805,-0.1079069095522261,-0.34666096280413,-0.3713410700909627,-12.63704733592439,20.988494012048164,36.51918679196312,0.4253844347219722,2.056013482393229,0.8644641786826468,7995.7333984375,11.643666666666668,7.0,179.77915919015297,-3.9004049964495615,63.78701675098365,1637.0,1435.0,1350.0,1528.0,1535.0,994.0,160.0,293.7,1649260726.194659,1649260727.488942,5baade9e-fec0-4c4c-8c52-937aedaa1f78
0.5282532899658705,1.0613539844348865,0.066812970593734,-0.4600553422835623,-0.305886849334514,-0.3454381338289671,-0.4136272854529507,-0.433166252225459,-11.879926057196167,20.159298300014765,36.96898397257678,0.3984048092086683,3.798370897619014,1.0744225928896016,7995.7333984375,11.651,6.98,179.17178993057894,-3.864928282422477,61.07225940707407,1723.0,1435.0,1350.0,1528.0,1599.0,994.0,160.0,293.7,1649260728.327728,1649260729.330066,ecca13f7-23aa-47dd-be43-72b10509958b
0.5192201364726013,1.050611500210234,0.0602780685868942,-0.4572152232075116,-0.3107255702567553,-0.3382326470585059,-0.4185186014750678,-0.4442769030746615,-11.91519492203395,20.27489356202449,36.82365844740336,0.408589868561133,3.75885569425016,1.0953330733791438,7995.7333984375,11.620222222222225,6.993333333333332,179.04560446239267,-3.858489453605532,59.68819215039241,1723.0,1435.0,1350.0,1528.0,1599.0,994.0,160.0,293.7,1649260729.4426796,1649260730.554459,ecca13f7-23aa-47dd-be43-72b10509958b
0.5252321244225551,1.0454653030935457,0.0634094811470722,-0.4501609460618789,-0.304147175427491,-0.3373349955219945,-0.4151651775178384,-0.4441428875483443,-12.124776285928585,20.213116564384613,37.18450402475051,0.3943927096963104,3.737168460980322,1.0771569327891388,7995.7333984375,11.62475,6.998749999999999,178.95203542422294,-3.854939290843892,58.62513666992096,1723.0,1435.0,1350.0,1528.0,1599.0,994.0,160.0,293.7,1649260730.6625206,1649260731.7813442,ecca13f7-23aa-47dd-be43-72b10509958b
0.7153460708326582,1.4105965028589416,0.1177773166259016,-0.6709736422996193,-0.3514207917878253,-0.5094155601542455,-0.435138557110922,-0.4549404981550597,-10.942463418962902,19.933686752297767,34.80646988013902,0.5068749027321635,5.149969455899703,1.1357061016246457,8003.19873046875,11.613111111111111,6.9944444444444445,178.35750236682912,-3.8091002134215617,56.22778798770694,1813.0,1435.0,1350.0,1528.0,1662.0,994.0,160.0,293.7,1649260733.9227188,1649260735.0588386,d8a5377f-17fd-4791-a4eb-8d4916736b0c
0.7164111151308427,1.4102151906468408,0.1154368487508346,-0.6659245410258618,-0.3528934459985533,-0.5109802554258265,-0.4378208917469788,-0.4627245281997462,-10.925569127922206,19.915076857680653,35.17244916542367,0.4917962245543499,5.144405723225431,1.1452550643494943,8010.67919921875,11.577333333333334,7.01,178.2076100709436,-3.80346478560574,55.4455962417769,1813.0,1435.0,1350.0,1528.0,1662.0,994.0,160.0,293.7,1649260735.166869,1649260736.3169715,d8a5377f-17fd-4791-a4eb-8d4916736b0c
0.7181861889483447,1.410188893255496,0.1162257705367971,-0.6649515371929957,-0.3530380816375755,-0.5124397611107043,-0.4371371593498996,-0.4597660707810603,-10.806644165434866,19.960072446978355,35.093217879713855,0.4867064602521483,5.144098574188449,1.143361487553173,8003.19873046875,11.582333333333333,7.024444444444445,178.11786138524965,-3.791396078501674,54.8592632059366,1813.0,1435.0,1350.0,1528.0,1662.0,994.0,160.0,293.7,1649260736.426153,1649260737.5234566,d8a5377f-17fd-4791-a4eb-8d4916736b0c
-0.2581044804585187,-0.3445177249118598,-0.0552463786240717,0.2247288082741062,-0.0879997824374717,0.3913490764967976,-0.2288091817626678,-0.2521612690739996,-14.337803493952446,23.111797169385618,35.746777290618496,0.5214214489647876,-1.5382735614646128,0.5121304615356574,8010.67919921875,11.626444444444443,7.032222222222221,179.12788395677427,-3.791371129338456,54.03961166695857,1470.0,1435.0,1350.0,1528.0,1403.0,994.0,160.0,293.7,1649260738.427429,1649260739.7712257,f0ec54f7-ff17-4020-83e6-49f114081196
-0.2763680219596559,-0.3407046023535131,-0.0462132239562296,0.2150908143846457,-0.0805970660630822,0.3940840051039745,-0.2168307181875048,-0.236777292608778,-14.189196120861808,22.964093088884862,35.487077198803696,0.5488122016813644,-1.5209653323922712,0.4728548727355477,8010.67919921875,11.66888888888889,7.054444444444444,179.0196482257268,-3.776875950099872,53.63002305681575,1470.0,1435.0,1350.0,1528.0,1403.0,994.0,160.0,293.7,1649260739.8798103,1649260741.0048358,f0ec54f7-ff17-4020-83e6-49f114081196
-0.2806019026964136,-0.3415329703626035,-0.0501052382164092,0.2199952778651501,-0.0864482362192322,0.3897186382893263,-0.2228922678207736,-0.2458235968049728,-14.01104751801408,23.173029744264795,35.35143369394798,0.529198694680296,-1.5249779370764056,0.4945502660924558,8014.841796875,11.668,7.044444444444444,178.93606644194344,-3.738746703649492,53.3189899023917,1470.0,1435.0,1350.0,1528.0,1403.0,994.0,160.0,293.7,1649260741.1344197,1649260742.2143383,f0ec54f7-ff17-4020-83e6-49f114081196
-0.5222881372716891,-0.7881548714620977,-0.0842129577066936,0.4381584312901021,-0.0171020096330897,0.6209515896657117,-0.1664186120133187,-0.1891527098934979,-14.945508129275613,24.700674628496515,34.64482253729484,0.5645329715090338,-3.2162019441259755,0.3117788232927734,8010.67919921875,11.652222222222225,7.045555555555556,178.93802139386585,-3.6832109572586793,52.56075770116016,1385.0,1435.0,1350.0,1528.0,1331.0,994.0,160.0,293.7,1649260744.345398,1649260745.5105464,2c580a8f-e40f-4ff9-8f7a-d1dd05681182
-0.5240895091282775,-0.7981873313416428,-0.0955339857855339,0.4460870944399502,-0.024478428455548,0.6240152355934017,-0.1800012164077522,-0.2033007084119011,-15.36442080540928,24.86067418297037,34.62526430276708,0.5538152285347404,-3.2523826307424577,0.3550656973407853,8010.67919921875,11.607111111111111,7.04,178.920451111681,-3.685191142935553,52.336137823385386,1385.0,1435.0,1350.0,1528.0,1331.0,994.0,160.0,293.7,1649260745.6258924,1649260746.740383,2c580a8f-e40f-4ff9-8f7a-d1dd05681182
-0.5285600671100553,-0.7967015279794327,-0.093430194254702,0.4457057822900687,-0.0234133840045085,0.6231211243357997,-0.176477365518124,-0.1983830955139122,-15.140410686944756,24.802609354023765,34.676340093698464,0.5525069267143006,-3.248668804659182,0.3461591194555861,8010.67919921875,11.607888888888889,7.029999999999999,178.93458201416382,-3.672315050553348,52.14577437993788,1385.0,1435.0,1350.0,1528.0,1331.0,994.0,160.0,293.7,1649260746.8525207,1649260747.9576752,2c580a8f-e40f-4ff9-8f7a-d1dd05681182
-0.8076412484751523,-1.281152417695661,-0.1278797804603982,0.676702056318686,0.0499431933492221,0.8812563048136604,-0.1108653664113548,-0.1340728168963714,-15.804337970117746,26.66691216902096,34.23302442198768,0.621738602256394,-5.087618863339956,0.141337967512215,8010.67919921875,11.587666666666667,7.023333333333333,179.02464944201907,-3.649819585362565,51.81213254045118,1297.0,1435.0,1350.0,1528.0,1253.0,994.0,160.0,293.7,1649260749.907008,1649260751.0344772,3bef582a-8bb8-453e-ac35-25f36fb56ac2
-0.7916392778069813,-1.291868614784476,-0.1398845410009823,0.6821061699502502,0.040870592901968,0.8894084957957734,-0.1218971232627289,-0.1406997601844239,-15.959582097860084,26.770838573201026,34.51740191388232,0.6279256767923556,-5.130657405917987,0.1847664514775313,8010.67919921875,11.549333333333331,7.031111111111112,179.02327429726614,-3.6429478933069697,51.6788190109561,1297.0,1435.0,1350.0,1528.0,1253.0,994.0,160.0,293.7,1649260751.1430576,1649260752.2674153,3bef582a-8bb8-453e-ac35-25f36fb56ac2
-0.795518144932947,-1.2739206282545603,-0.1264597212009351,0.6673796315876818,0.0487203645782831,0.8834915829838991,-0.1085774931396777,-0.1306147097007378,-15.695465780169178,26.61504484673477,34.351999661799134,0.6475913205034689,-5.06108336661969,0.1388688990786476,8008.185709635417,11.555,7.026666666666666,179.05193377102353,-3.642100902418019,51.62773678506349,1297.0,1435.0,1350.0,1528.0,1253.0,994.0,160.0,293.7,1649260752.397232,1649260753.4950955,3bef582a-8bb8-453e-ac35-25f36fb56ac2
-0.0052681826793614,0.1613652436440078,-0.0184826228041121,-0.0199289794215191,-0.1684172141270288,0.119368308928909,-0.3003118012120084,-0.3253732201148318,-13.56799562670212,21.57639517300513,35.40093177442954,0.4541169724752473,0.3891390511110325,0.7331007865433214,8003.19873046875,11.580555555555556,7.038888888888889,178.521874663755,-3.6414143261108247,51.59118768390484,1553.0,1435.0,1350.0,1528.0,1471.0,994.0,160.0,293.7,1649260754.418712,1649260755.5420206,3ae7c7d2-1083-40cc-bcbc-2c211c157c46
0.0116278921985511,0.1631140201807651,-0.017851485370771,-0.0194950724521831,-0.166523801698521,0.1187634689007561,-0.3002460576918798,-0.3282396363300098,-13.728896404983956,21.499400158643443,35.61967343514564,0.4512539208671361,0.3948834224330457,0.7300109767114558,8010.67919921875,11.67088888888889,7.062222222222221,178.54492123983442,-3.645800635650312,51.590049319043175,1553.0,1435.0,1350.0,1528.0,1471.0,994.0,160.0,293.7,1649260755.650266,1649260756.7685702,3ae7c7d2-1083-40cc-bcbc-2c211c157c46
0.0041725813296199,0.1500705139084283,-0.0106197022296472,-0.0151954486319675,-0.1589764493910304,0.1280990430509382,-0.2914495786256633,-0.3153933580953146,-13.718674662902083,21.77400459983201,35.751082895710645,0.4647398778941468,0.3446590556941263,0.6958884025607927,8013.1767578125,11.671,7.063333333333333,178.54873552103092,-3.6527174354135497,51.615135086044816,1553.0,1435.0,1350.0,1528.0,1471.0,994.0,160.0,293.7,1649260756.8771973,1649260758.0002353,3ae7c7d2-1083-40cc-bcbc-2c211c157c46
0.0487203646745075,0.1555798174719521,-0.0435308898447288,-0.463000650901941,-0.2378949319637648,0.5542351113196904,-0.2018412029178365,-0.2330167652613262,-13.371759075352026,20.627473009640426,38.70570123247532,2.423869703201792,0.3897087696419677,0.7222771877681318,8010.67919921875,11.668333333333331,7.056666666666667,178.56097066656417,-3.5160915961941,51.68326849974541,1553.0,1522.0,1350.0,1528.0,1471.0,994.0,160.0,293.7,1649260758.9081051,1649260760.0485182,44fa9b63-7a27-41df-b2cd-58a5a0a2f7d2
0.0077298095114377,0.1514678157029219,-0.0473177145060224,-0.4596937530396147,-0.239326622905261,0.5559798420043809,-0.2054560833204322,-0.228946737371347,-13.5270134441598,20.600007426907457,38.786470132174685,2.419894887309684,0.3740215822713149,0.7340839401371168,8016.5068359375,11.659444444444444,7.052222222222222,178.5583918906975,-3.5116208342114383,51.68672419601049,1553.0,1522.0,1350.0,1528.0,1471.0,994.0,160.0,293.7,1649260760.157067,1649260761.2759178,44fa9b63-7a27-41df-b2cd-58a5a0a2f7d2
0.037086802745348,0.1569422246562911,-0.044207542065367,-0.4650543765666454,-0.2391496212236372,0.5542603972720355,-0.2026493421362031,-0.2292754549213809,-13.363876840941732,20.63158952137159,38.624463730687104,2.4285438401259287,0.39569287358903,0.7260951779742104,8018.171875,11.660333333333334,7.0633333333333335,178.58204407688334,-3.5170065569516664,51.72135932638172,1553.0,1522.0,1350.0,1528.0,1471.0,994.0,160.0,293.7,1649260761.3928611,1649260762.5029645,44fa9b63-7a27-41df-b2cd-58a5a0a2f7d2
0.0495092863972106,0.157512675766977,-0.0709459226095437,-0.9632955980195222,-0.3198507668586028,1.0318877578693233,-0.095231565711172,-0.1199248190312265,-13.011087868678691,19.7721538674323,41.69750445951406,4.619385168863024,0.4277336884988969,0.7201544801362155,8018.171875,11.649444444444445,7.043333333333333,178.60777264057683,-3.34243097719096,51.80117122519817,1553.0,1613.0,1350.0,1528.0,1471.0,994.0,160.0,293.7,1649260764.4394102,1649260765.578664,aefde468-229b-4441-99b0-9bed321addad
0.053427597892613,0.1563029957415638,-0.0697493911645944,-0.9566423536964463,-0.3175891907115694,1.0258525066617066,-0.0966647736484818,-0.1155331540601792,-13.133858988781038,19.83622252335746,41.54105860770261,4.591212624330932,0.4247099558629129,0.7170628703390064,8010.67919921875,11.640666666666666,7.066666666666666,178.6443991505461,-3.3518843858890808,51.78351860128828,1553.0,1613.0,1350.0,1528.0,1471.0,994.0,160.0,293.7,1649260765.6872456,1649260766.803953,aefde468-229b-4441-99b0-9bed321addad
0.051021386487259,0.1536601078818412,-0.0690130641566818,-0.9496472431059616,-0.3159061573399964,1.023433146703114,-0.0959021492339761,-0.118544205652565,-13.054840275894218,19.835685569189387,41.74992272987024,4.57010291857678,0.4115725093195657,0.7127726171774514,8010.67919921875,11.637999999999998,7.059999999999999,178.67403761808453,-3.3666368118704657,51.80622898027856,1553.0,1613.0,1350.0,1528.0,1471.0,994.0,160.0,293.7,1649260766.9132645,1649260768.0340912,aefde468-229b-4441-99b0-9bed321addad
0.0763063292924616,0.1454158755733418,-0.1010038437120201,-1.4212256152555975,-0.4005969248789745,1.487029879246775,-0.0033616217199636,-0.0229268821915162,-12.932862342064531,19.540033978360203,45.00773046978491,6.672659823882387,0.4069427604361441,0.7396425623093446,8003.19873046875,11.622333333333334,7.059999999999999,178.7197710469471,-3.2584412556162405,51.92580586098789,1553.0,1710.0,1350.0,1528.0,1471.0,994.0,160.0,293.7,1649260769.9675608,1649260771.105469,e5ded018-4fb1-46a8-b319-d773ab2c3ce1
0.0598178642616899,0.1446401025072134,-0.0948108074471624,-1.416807648691874,-0.3931416126284803,1.4837164075255531,0.0031206856313493,-0.0220196221544289,-12.924413285096646,19.45261699227413,45.05674870364205,6.654989101270215,0.4033860687488871,0.7118727335058711,8003.19873046875,11.612222222222222,7.055555555555555,178.74431115772506,-3.271148490543964,51.93990754543929,1553.0,1710.0,1350.0,1528.0,1471.0,994.0,160.0,293.7,1649260771.214525,1649260772.3372347,e5ded018-4fb1-46a8-b319-d773ab2c3ce1
0.0475238332999598,0.1307287822237615,-0.117781581088581,-1.4076955927674089,-0.4099587984892856,1.485793901693763,-0.0178909313779756,-0.0426762245372555,-13.067540250359183,19.328709968442347,44.44047543788751,6.636967472567233,0.3551049764942995,0.7934842939197427,8003.19873046875,11.598888888888888,7.055555555555555,178.7778504221895,-3.267772669546686,51.99009311927586,1553.0,1710.0,1350.0,1528.0,1471.0,994.0,160.0,293.7,1649260772.466201,1649260773.5629714,e5ded018-4fb1-46a8-b319-d773ab2c3ce1
0.076990061484738,0.1417868355091705,-0.1182812316404817,-1.6929306032637397,-0.4546380782075229,1.752107635072939,0.0422380573557493,0.0181759429315854,-13.02209998421903,20.15110604473416,46.71879485230596,7.884643225419609,0.4111659041011389,0.7711539765956138,8003.19873046875,11.568555555555555,7.0377777777777775,178.85743426857866,-3.2225607778022822,52.04713961813372,1553.0,1814.0,1350.0,1528.0,1471.0,994.0,160.0,293.7,1649260775.5009892,1649260776.5464706,113611b9-93b1-4231-9c50-55ef9f964d3f
0.0697845759929571,0.1421418502980037,-0.1203324283393948,-1.6987028880433428,-0.455979245430613,1.7562889211335733,0.0424747339082181,0.0128507209651653,-13.048702896450084,20.00559984610537,46.60200569172213,7.905961271569261,0.4142990028463851,0.7753084632145544,7997.392361111111,11.552555555555555,7.032222222222223,178.89641643490162,-3.186811377958959,52.07053263658606,1553.0,1814.0,1350.0,1528.0,1471.0,994.0,160.0,293.7,1649260776.654525,1649260777.8624048,113611b9-93b1-4231-9c50-55ef9f964d3f
0.0866017583730591,0.1360934501795181,-0.1191490456710352,-1.6928648601220373,-0.4536256284005792,1.760036300915665,0.0441577669538739,0.0249869677495233,-13.07169633188194,20.098541071093408,47.06622989104568,7.901950442510325,0.3870199697020317,0.7680132444186563,7995.7333984375,11.551666666666668,7.03,178.91425385337408,-3.215990254400403,52.08527294372485,1553.0,1814.0,1350.0,1528.0,1471.0,994.0,160.0,293.7,1649260777.9704592,1649260779.0936763,113611b9-93b1-4231-9c50-55ef9f964d3f
-0.0201788045720712,0.160839295814445,0.0195302587795755,0.4592357895778932,-0.0871845631941713,-0.3417302008495925,-0.4001761664113374,-0.4290770067917925,-13.90869950715065,23.33590355144308,32.248238683948514,-1.6500285465280156,0.3609642996246757,0.7115595438142549,7995.7333984375,11.596666666666668,7.063333333333333,178.85930877605085,-3.8871909994309175,52.16480366642048,1553.0,1349.0,1350.0,1528.0,1471.0,994.0,160.0,293.7,1649260780.0022838,1649260781.1409194,fdcff16e-72fa-417b-b68c-19b192f3ea26
0.0023712099718676,0.1626275184428928,0.0210160614295403,0.4631803980926397,-0.0856330170103838,-0.345753702573595,-0.4001893151377729,-0.4251718432331591,-13.921366153945392,23.349868281951423,32.44716507496905,-1.66777607161549,0.365606556598519,0.7079566307210291,8001.539767795139,11.671666666666663,7.08,178.86776455024332,-3.923934239230348,52.30712507706594,1553.0,1349.0,1350.0,1528.0,1471.0,994.0,160.0,293.7,1649260781.2496054,1649260782.374484,fdcff16e-72fa-417b-b68c-19b192f3ea26
-0.0302623377020262,0.1705334246600178,0.0152523809343424,0.4552911810403574,-0.0924025730185467,-0.3495986854518245,-0.4064541644616509,-0.4231428978911464,-13.927885056613794,23.2013727771499,31.92487335120641,-1.6599780459544264,0.4005371357080897,0.7341605343953641,8018.171875,11.671444444444443,7.06,178.87699441254173,-3.922591016125448,52.47815035769839,1553.0,1349.0,1350.0,1528.0,1471.0,994.0,160.0,293.7,1649260782.4888792,1649260783.546481,fdcff16e-72fa-417b-b68c-19b192f3ea26
-0.0307109105868432,0.1709506428995032,0.0473791976043318,0.8788500936191183,-0.0227953952354464,-0.7513253569925229,-0.4971215259562258,-0.5171338473019487,-14.334690935595608,24.897276841294257,30.07773640434028,-3.505813816690454,0.3712686202489407,0.7248302024759827,8018.171875,11.656777777777778,7.044444444444444,178.874210731,-4.051351513060674,52.765566994702255,1553.0,1264.0,1350.0,1528.0,1471.0,994.0,160.0,293.7,1649260785.5320332,1649260786.6696846,63b4a279-ff6e-4f65-8bea-5f1305fb95f1
-0.0238209935619577,0.1767097716520616,0.0557549171005931,0.8684889218643714,-0.018285392331995,-0.7474201925116453,-0.4881935589491478,-0.513333872784846,-14.219108205876315,24.9741239059708,30.14378761964649,-3.472670931961708,0.3932733394326512,0.6953073223123256,8019.006130642361,11.645444444444443,7.0488888888888885,178.86891809330317,-4.064541841576569,52.847710264755406,1553.0,1264.0,1350.0,1528.0,1471.0,994.0,160.0,293.7,1649260786.7785282,1649260787.8989494,63b4a279-ff6e-4f65-8bea-5f1305fb95f1
-0.0212175516186977,0.1828765099660851,0.0576220319641074,0.8603104335216198,-0.0183379871222665,-0.7485772782786283,-0.4871022168804938,-0.5161213972043278,-14.25191824429859,24.955672984838152,29.77966760052817,-3.4569262943212915,0.4209867645624863,0.6914255714544332,8025.68017578125,11.642555555555557,7.042222222222222,178.9042711524471,-4.075193569019073,52.95757461646497,1553.0,1264.0,1350.0,1528.0,1471.0,994.0,160.0,293.7,1649260788.007038,1649260789.3407898,63b4a279-ff6e-4f65-8bea-5f1305fb95f1
-0.0401911208563987,0.1863740630387378,0.0928999837487597,1.3205673766946755,0.0536774230919171,-1.1930560775281638,-0.5911478797319829,-0.6111339045136623,-14.71408334548846,27.18241867177513,27.043052402875727,-5.478107305983311,0.4072370746571767,0.692751027110863,8023.177408854167,11.634666666666666,7.046666666666666,178.9236537114918,-4.2414700657673245,53.19705129404937,1553.0,1178.0,1350.0,1528.0,1471.0,994.0,160.0,293.7,1649260791.4711568,1649260792.6129577,afe17e68-5b95-4003-8e1d-4fa9bcbe951e
-0.0468180639719625,0.1843360151969183,0.0876142079342892,1.3124283335550524,0.0476553202156644,-1.184851284421344,-0.5944745009488095,-0.6150390686247345,-14.721266194096266,27.21442498334451,26.82673437311535,-5.441399473752131,0.402228759027713,0.7122536184887626,8018.171875,11.611,7.04,178.9210673465261,-4.2300445822419706,53.289542300695096,1553.0,1178.0,1350.0,1528.0,1471.0,994.0,160.0,293.7,1649260792.721405,1649260793.837672,afe17e68-5b95-4003-8e1d-4fa9bcbe951e
-0.0407302174147113,0.1835865395363286,0.0871671522318621,1.3092332003175151,0.0482996063050529,-1.1795918017333231,-0.5947374749901136,-0.6186023667046736,-14.953958078716436,27.20570519926043,27.05023777644768,-5.422534844447517,0.3994487010156389,0.7123972643955666,8018.171875,11.62211111111111,7.045555555555556,178.8887074280584,-4.219829227996439,53.37061512832333,1553.0,1178.0,1350.0,1528.0,1471.0,994.0,160.0,293.7,1649260793.9457104,1649260795.0692194,afe17e68-5b95-4003-8e1d-4fa9bcbe951e
-0.0456215326017171,0.188661936087943,0.112833406863143,1.5308150421867135,0.0849450225003569,-1.3982679681879833,-0.6431772884331514,-0.6653459982511891,-15.137958388623431,28.906234638753567,25.57049233119501,-6.401541213800484,0.4072762554932806,0.6961102442072132,8010.67919921875,11.601555555555557,7.044444444444444,178.87507285265525,-4.263182573092625,53.46881124020079,1553.0,1088.0,1350.0,1528.0,1471.0,994.0,160.0,293.7,1649260795.9769058,1649260797.1211302,34b1792d-53e9-4490-b413-51bd903ca808
-0.0525114496868173,0.1922778274174325,0.1092701103108066,1.526265592850856,0.0816841459432386,-1.3968742049874356,-0.644202886990356,-0.6704213967660011,-15.029198224984318,28.681093937328733,25.66114586228799,-6.38974751420689,0.4195952311116704,0.7075630277761691,8010.67919921875,11.581777777777775,7.04,178.88138698308796,-4.2769191744465145,53.5143462141225,1553.0,1088.0,1350.0,1528.0,1471.0,994.0,160.0,293.7,1649260797.2284892,1649260798.3492584,34b1792d-53e9-4490-b413-51bd903ca808
-0.0431495776289664,0.1925670987166544,0.114897752207152,1.5313804361073613,0.0854315243425059,-1.4008056691032755,-0.6425592994607284,-0.6612567521595265,-15.079751426323655,28.97050602216425,25.83678306747288,-6.407918555191701,0.4192132334168851,0.6926211860225616,8003.19873046875,11.590666666666667,7.04,178.8935356128917,-4.267075828351402,53.53234907495484,1553.0,1088.0,1350.0,1528.0,1471.0,994.0,160.0,293.7,1649260798.463744,1649260799.5748928,34b1792d-53e9-4490-b413-51bd903ca808
-0.0064682540984003,0.1619235575025393,-0.018731942286781,-0.0533231288714543,-0.1727613414149269,0.1519735347779583,-0.2933880001982794,-0.3175993050307415,-13.6821591076519,21.639846248905595,35.76765866385719,0.6031234898258829,0.3928876025445186,0.7296855876749772,8010.67919921875,11.63011111111111,7.062222222222222,178.90448516504114,-3.781585080941381,53.57134072765167,1553.0,1435.0,1350.0,1528.0,1471.0,994.0,160.0,293.7,1649260800.4972649,1649260801.6163025,643f4b9c-981f-4bea-83e0-d6e73ae178eb
-0.005754684449985,0.1623250984452767,-0.0182722436019063,-0.0530636949395903,-0.1719673623302575,0.1518455878477439,-0.2911997533451865,-0.3161165364184167,-13.553821087434825,21.521459993519755,35.85024630669478,0.6015666167749103,0.3927485008840897,0.7251676238903529,8018.171875,11.665444444444445,7.05111111111111,178.92505465918157,-3.771790969126537,53.56392200384818,1553.0,1435.0,1350.0,1528.0,1471.0,994.0,160.0,293.7,1649260801.7243805,1649260802.8510869,643f4b9c-981f-4bea-83e0-d6e73ae178eb
0.0334203393749878,0.1643889379667994,-0.0094393538861655,-0.0530829122769587,-0.1648594800427389,0.148964506306472,-0.2835517625876693,-0.3090905801012301,-13.496682180912025,21.60974038281628,35.78775765443287,0.5961796329898201,0.401202395459249,0.6927222692825359,8018.171875,11.661888888888887,7.047777777777778,178.9266073888529,-3.793669013675472,53.53849358902317,1553.0,1435.0,1350.0,1528.0,1471.0,994.0,160.0,293.7,1649260802.9594166,1649260804.080614,643f4b9c-981f-4bea-83e0-d6e73ae178eb
