raw_voltage_G-,raw_voltage_G0,raw_voltage_G1,raw_voltage_G2,raw_voltage_G3,raw_voltage_G4,raw_voltage_G5,raw_voltage_G6,load_x,load_y,load_z,load_l,load_m,load_n,rpm,voltage,current,roll,pitch,yaw,aileron1_pwm,elevator_pwm,throttle_pwm,rudder_pwm,aileron2_pwm,pbaro,pdiff,Tt,sample_start_time,sample_end_time,uid
-0.07076184075044,0.0753859205696357,-0.1576089848604763,0.0008459611387461,-0.3201268894847009,0.0660897923738919,-0.5260881115485371,-0.550768221358107,-18.062039639975087,27.932899987522525,17.124057673693855,0.3175647036025904,0.2491896202071173,1.409085863644208,5609.97998046875,11.974222222222222,0.1211111111111111,178.94717688299332,0.914625437966726,90.92998891930856,1553.0,1435.0,1200.0,1528.0,1471.0,994.0,160.0,293.7,1649256978.9361732,1649256979.9322577,fc144202-caed-4245-b8da-4ef12f2ef5d1
-0.1013790872036411,0.0882276452118076,-0.1523302885970144,-0.0082888429143442,-0.3182946689228888,0.0624739009105019,-0.5216822856593258,-0.5393192439751308,-17.95930588492303,27.8464351582977,17.24067208981916,0.3298051531872116,0.2970510851355121,1.394867472128403,5611.20458984375,11.976,0.1255555555555555,178.9463633315722,0.8982327823732512,90.8301512853006,1553.0,1435.0,1200.0,1528.0,1471.0,994.0,160.0,293.7,1649256980.0406835,1649256981.1665046,fc144202-caed-4245-b8da-4ef12f2ef5d1
-0.0857776525861447,0.0944515299430338,-0.140607719339045,-0.0112245422644917,-0.3086480759209919,0.0558338093048025,-0.5100598465660489,-0.529164907330345,-17.7806606200046,27.76177524235789,16.86952794717978,0.3215594470618675,0.3235226309023136,1.3495649956511386,5613.24560546875,11.972375,0.13,178.94173891404915,0.8734206387083892,90.73207669387212,1553.0,1435.0,1200.0,1528.0,1471.0,994.0,160.0,293.7,1649256981.2780664,1649256982.3859088,fc144202-caed-4245-b8da-4ef12f2ef5d1
0.1140036408965999,0.4454165110281197,-0.1244479705010704,-0.216094391160861,-0.3787700848262371,-0.0875527266797963,-0.5641010032900095,-0.5832586598949416,-17.676593218740585,27.078605585368305,18.4143395378426,0.4580614113259304,1.6516632244789908,1.5431917465861913,5620.60791015625,11.943,0.12,178.72159850200504,0.8665257161537134,90.66522877869156,1631.0,1435.0,1200.0,1528.0,1531.0,994.0,160.0,293.7,1649256982.9340842,1649256984.0308735,9e884dfc-16ce-440c-a1d6-5e3be7df22b7
0.129413912626729,0.4631541007268829,-0.1252763384442175,-0.2296769958736377,-0.3842004974410152,-0.0943769003935544,-0.5672040965694117,-0.5963153194722697,-17.58968690416376,26.97927631561,18.122640317472648,0.4726631452471562,1.7217783022056308,1.5578527480740256,5620.60791015625,11.944,0.12,178.74214371102846,0.8733626287911904,90.64887502908884,1631.0,1435.0,1200.0,1528.0,1531.0,994.0,160.0,293.7,1649256984.165342,1649256985.257129,9e884dfc-16ce-440c-a1d6-5e3be7df22b7
0.1174354505834772,0.4454033623310169,-0.1225677068505688,-0.2141220865267784,-0.3739971072299623,-0.0887229607177648,-0.5595647017942447,-0.5923049660428917,-17.66967851845952,26.773625973664306,18.53260085458759,0.4490769132581247,1.6503880147743224,1.527981549882112,5616.92431640625,11.943,0.12,178.7534150409788,0.8717891773220017,90.61421106014112,1631.0,1435.0,1200.0,1528.0,1531.0,994.0,160.0,293.7,1649256985.3668778,1649256986.391366,9e884dfc-16ce-440c-a1d6-5e3be7df22b7
0.353770105428738,0.8765359232603287,-0.1010827358502571,-0.4778323838444218,-0.4620144983819631,-0.2617861159046966,-0.6228099507206752,-0.6495675572505517,-17.34642225828495,26.02944886649284,19.30778330048671,0.6514695728409188,3.2920566877413693,1.7601054559991745,5618.561469184027,11.916,0.1155555555555555,178.4645830369969,0.8783621138202282,90.45155086396716,1712.0,1435.0,1200.0,1528.0,1591.0,994.0,160.0,293.7,1649256988.623732,1649256989.7619207,3a3f41f0-a96a-4446-bf69-68c58ba17c24
0.3677997633025521,0.8858057533275556,-0.085803950035114,-0.4755971048580765,-0.4504567917071798,-0.271884315910975,-0.6108051870770467,-0.6358403132857426,-17.16705433766076,26.131537313372164,19.55875414129903,0.6253031609697307,3.324025430439538,1.708023308320298,5609.57177734375,11.919888888888888,0.12,178.4843177302388,0.8816959398262821,90.43508327787826,1712.0,1435.0,1200.0,1528.0,1591.0,994.0,160.0,293.7,1649256989.873853,1649256990.9888852,3a3f41f0-a96a-4446-bf69-68c58ba17c24
0.3804093620701924,0.8766148154301576,-0.0940481829855461,-0.4715867515367498,-0.4554927435022881,-0.2680054500207775,-0.6163276413049767,-0.6462409359109698,-17.165877139688572,26.04304778222687,19.303144253441744,0.6239358473124667,3.2907930558863905,1.7325827363623134,5605.90283203125,11.917,0.12,178.49948075019623,0.887173858262338,90.41493649655644,1712.0,1435.0,1200.0,1528.0,1591.0,994.0,160.0,293.7,1649256991.0978544,1649256992.2246668,3a3f41f0-a96a-4446-bf69-68c58ba17c24
0.6116423136232556,1.3218296514713848,-0.0708012869285336,-0.7298403783103333,-0.5475599385720986,-0.4644470077019216,-0.6863576226192145,-0.705607321351556,-16.589163452558847,25.56203932743425,19.40727131936875,0.7633381259026649,4.988876786899237,1.9783555137635995,5609.97998046875,11.873888888888889,0.11,178.42588318515962,0.9222871908102204,90.29799910450636,1796.0,1435.0,1200.0,1528.0,1650.0,994.0,160.0,293.7,1649256993.9554436,1649256995.0864012,5b5687f3-d530-4732-8547-1a87a7a75a75
0.6057779956595538,1.3161099685059812,-0.067290584865336,-0.7269871100795061,-0.5434443954571241,-0.4607785205859729,-0.6809272089972691,-0.7077374110085425,-16.494866847914622,25.5904196672004,19.539087524984343,0.7655768572026114,4.96546054906143,1.959805916671485,5613.24560546875,11.881444444444444,0.11,178.12972314710825,0.9565230989960536,90.2456624005362,1796.0,1435.0,1200.0,1528.0,1650.0,994.0,160.0,293.7,1649256995.194759,1649256996.4163516,5b5687f3-d530-4732-8547-1a87a7a75a75
0.6196367201590366,1.3249064464548568,-0.0670933543956779,-0.7285912516546145,-0.5440886817361423,-0.4667743274952352,-0.6846482913896331,-0.7059097416436434,-16.709554329523836,25.60355844253816,19.68933779159661,0.7557348307217334,4.998850760827593,1.9668193352143384,5603.053765190973,11.88577777777778,0.1177777777777777,178.1401080702863,0.9611189506758586,90.19767425033758,1796.0,1435.0,1200.0,1528.0,1650.0,994.0,160.0,293.7,1649256996.525237,1649256997.5445726,5b5687f3-d530-4732-8547-1a87a7a75a75
0.720631846238974,1.4924076971806768,-0.024859740716458,-0.8328210146894183,-0.5562117834127865,-0.557552950665304,-0.6885403072699091,-0.7208072204962079,-16.457136961717183,26.395606876125107,16.610103611707476,0.7938497019699963,5.668110651011923,1.946166009071784,5605.495822482639,11.828555555555557,0.11,178.12081809825034,0.9702301858693096,90.11700819841992,1886.0,1435.0,1200.0,1528.0,1710.0,994.0,160.0,293.7,1649256999.4783528,1649257000.4826224,9925d02d-672d-4420-ba78-fb72385d5474
0.7097184293845697,1.4941170272643414,-0.0303690445794547,-0.8442735342467707,-0.5632594866814142,-0.5488222137185169,-0.6920773078193732,-0.7180065472243284,-16.45876951204886,26.391963468918725,16.555406190262826,0.838994891867761,5.676078742755413,1.9683405785656072,5593.709147135417,11.824333333333334,0.1033333333333333,178.11613410629954,0.9888499574509012,90.01682070694446,1886.0,1435.0,1200.0,1528.0,1710.0,994.0,160.0,293.7,1649257000.5918891,1649257001.5365603,9925d02d-672d-4420-ba78-fb72385d5474
0.6879441905176655,1.4840056795325594,-0.0410589349535158,-0.8393559196948661,-0.569584011460853,-0.5434969903288482,-0.6993485396377159,-0.7185324951365248,-16.49969513443185,26.240172288936105,16.480696918164757,0.8382974090033914,5.637821129067276,2.0006269428372616,5591.27587890625,11.821444444444444,0.1,178.0943837483426,0.9974132241170334,89.90093212838694,1886.0,1435.0,1200.0,1528.0,1710.0,994.0,160.0,293.7,1649257001.6453848,1649257002.6866145,9925d02d-672d-4420-ba78-fb72385d5474
-0.3554311447112592,-0.3906696571305705,-0.1778711274402287,0.2850813208234226,-0.2279808138435163,0.2553258229487188,-0.4620013496565299,-0.4923616970274808,-18.55978710731501,29.4746876062285,16.469588103470254,0.1104948954630071,-1.525732494711303,1.1641487069432817,5593.303602430556,11.97011111111111,0.13,179.23460793928544,0.9228728202417128,89.60551430422537,1475.0,1435.0,1200.0,1528.0,1408.0,994.0,160.0,293.7,1649257004.597784,1649257005.7356274,c65bfcc9-5dc6-453b-809e-63936bcf7014
-0.3576269774010304,-0.4011623188271517,-0.1708891691530195,0.291589925075516,-0.2206832866378632,0.2590600524819101,-0.4527183679789502,-0.47159990068495,-18.34974063883625,29.60639303792398,16.450849821539396,0.1055278824314774,-1.566763431836955,1.1303289078224008,5605.90283203125,11.973,0.13,179.28778020306405,0.925707277599464,89.493714732251,1475.0,1435.0,1200.0,1528.0,1408.0,994.0,160.0,293.7,1649257005.8430605,1649257006.964853,c65bfcc9-5dc6-453b-809e-63936bcf7014
-0.3498473307827061,-0.4026338773915505,-0.1661490637590235,0.2936854984207633,-0.2149362100688638,0.2620875396245635,-0.4494350282075514,-0.4738012118811051,-18.61587585090489,29.702715098249257,16.981411285097767,0.1084291152850815,-1.5750572633792626,1.1117280985980196,5605.90283203125,11.967444444444446,0.13,179.3002248077318,0.9342090132732298,89.37380848464169,1475.0,1435.0,1200.0,1528.0,1408.0,994.0,160.0,293.7,1649257007.07598,1649257008.193861,c65bfcc9-5dc6-453b-809e-63936bcf7014
-0.5782753021293603,-0.7998440678687639,-0.18251261764693,0.5336048088451223,-0.1389641321471631,0.4235633797081521,-0.393575519650927,-0.4184528581475738,-18.725259141049,31.18176687280902,16.151021022608823,-0.0611097077932091,-3.0872545441057566,0.9032111131445544,5607.941134982639,11.918333333333331,0.11,179.45243329665584,0.919954704924596,89.1074918198038,1396.0,1435.0,1200.0,1528.0,1340.0,994.0,160.0,293.7,1649257010.129794,1649257011.2654164,f3b7b906-503d-487b-9d96-77f12f0b57f7
-0.5839686894339146,-0.8043277754111634,-0.1916115163309212,0.5270304613275693,-0.1464194435111672,0.4310449872426998,-0.4005048840028023,-0.4234888099735308,-18.878719819291128,31.11484648685369,15.669646431128749,-0.0305180892492456,-3.098487119333888,0.9342752922394904,5606.310492621527,11.918222222222225,0.12,179.4672077547405,0.936985556318644,88.9402212459401,1396.0,1435.0,1200.0,1528.0,1340.0,994.0,160.0,293.7,1649257011.3735936,1649257012.4936683,f3b7b906-503d-487b-9d96-77f12f0b57f7
-0.5819832355770554,-0.8016585888016563,-0.1939519844786358,0.5284636690852449,-0.1480893280644867,0.430952946383033,-0.4033187055503985,-0.4276437988716371,-18.949676984288665,31.057886767052835,16.19686845672161,-0.0344036912564432,-3.092972382588199,0.9447992272315324,5596.549913194444,11.919000000000002,0.12,179.4541818250834,0.9597546441050832,88.77716262206455,1396.0,1435.0,1200.0,1528.0,1340.0,994.0,160.0,293.7,1649257012.6011083,1649257013.7229483,f3b7b906-503d-487b-9d96-77f12f0b57f7
-0.8786310949689942,-1.3108816471189686,-0.2119657001701148,0.846175586275086,-0.0496450338248036,0.634915503720828,-0.3373779817952013,-0.3614006539601699,-19.467378373698462,33.531367503498785,16.009742077485487,-0.2775432235671345,-5.037762958964157,0.6809122330379089,5594.92578125,11.875333333333334,0.11,179.51620904966595,0.9493809622800418,88.5947935355856,1314.0,1435.0,1200.0,1528.0,1268.0,994.0,160.0,293.7,1649257014.633281,1649257015.7714298,76a33687-7254-4cfd-a4c4-04053e231c18
-0.8640886294116982,-1.3127093175792843,-0.2199995544115519,0.8518689712581962,-0.0563245717799503,0.6339819463778186,-0.3462927993566098,-0.3763244272988446,-19.51259380289964,33.550470943806324,16.302325333229735,-0.2927334473260334,-5.0481009258160405,0.7138558076369996,5588.441840277777,11.880111111111113,0.1111111111111111,179.66910055750702,0.935138547472619,88.34064675002885,1314.0,1435.0,1200.0,1528.0,1268.0,994.0,160.0,293.7,1649257015.8794734,1649257017.0016043,76a33687-7254-4cfd-a4c4-04053e231c18
-0.8501773016099352,-1.314339757446246,-0.2265739032222905,0.8510274547670007,-0.061925916583417,0.6342843663624506,-0.3537218139615682,-0.372129992004963,-19.666889781088024,33.57087790723693,15.954927659422092,-0.2904807385256044,-5.0503578446722805,0.7402130227812584,5587.63134765625,11.881,0.11,179.66128909782623,0.9321186907959904,88.13920967266199,1314.0,1435.0,1200.0,1528.0,1268.0,994.0,160.0,293.7,1649257017.1183107,1649257018.2245798,76a33687-7254-4cfd-a4c4-04053e231c18
-0.9347158783192508,-1.4854949948423402,-0.1965933555956716,0.9512119147429298,0.0029634069074943,0.6794132160754554,-0.297775114020693,-0.3228208554964232,-19.554822599182245,34.46171172100686,11.96668553134716,-0.4082428448902099,-5.668158677582559,0.5055647697909652,5587.63134765625,11.722111111111111,0.06,179.71762981046987,0.9577136744877842,87.73224461407035,1227.0,1435.0,1200.0,1528.0,1189.0,994.0,160.0,293.7,1649257020.572821,1649257021.718888,73cf87f3-f642-4728-9c80-e900c3f54cf7
-0.939596070338424,-1.488567241814431,-0.1998552440191538,0.9439674893831318,0.0002704527289711,0.6880610116108349,-0.298799195379362,-0.3290664874321632,-19.66364170632174,34.43623751716041,11.80425924064095,-0.3728804052305848,-5.67678697116967,0.5144070626725518,5580.35546875,11.732333333333331,0.06,179.71054766321043,0.948151860252524,87.41386824737863,1227.0,1435.0,1200.0,1528.0,1189.0,994.0,160.0,293.7,1649257021.852094,1649257022.9352045,73cf87f3-f642-4728-9c80-e900c3f54cf7
-0.9398362870360438,-1.4756334616844202,-0.1904741540037629,0.941059604832672,0.0046196370060156,0.6788948540622861,-0.2938178615323687,-0.3210634816061093,-19.54229171125717,34.587830131155066,11.974828769790038,-0.3853581943454914,-5.629692766053152,0.4904062120739673,5576.72509765625,11.73488888888889,0.0644444444444444,179.69496876062354,0.9472535006491904,87.19881291117161,1227.0,1435.0,1200.0,1528.0,1189.0,994.0,160.0,293.7,1649257023.042888,1649257024.1679127,73cf87f3-f642-4728-9c80-e900c3f54cf7
-0.068986766787371,0.1116237269730502,-0.1456962651556545,-0.0241891571007597,-0.3159719008349288,0.0539009509349571,-0.5199345200848573,-0.5444173994734616,-18.1980171328668,27.73574327597022,17.23425321869458,0.3458831589665594,0.3889233997176679,1.3827333811462983,5585.208984375,11.973555555555556,0.1355555555555555,179.1808816712741,0.9886945469313484,87.02508097835307,1553.0,1435.0,1200.0,1528.0,1471.0,994.0,160.0,293.7,1649257025.0777366,1649257026.2162716,7ed35faf-770d-4616-82d0-f734fcce95b8
-0.0703805285729686,0.1231814307354791,-0.1342174525001236,-0.0270687216229186,-0.3099892431266662,0.0456304209942747,-0.5121110437111147,-0.5305718182150776,-17.988418923974702,27.910191474330123,17.36247519383211,0.3356477180981906,0.4307370931913508,1.3494279976199026,5600.614420572917,11.973,0.1322222222222222,179.18165120592064,1.0336375829829536,87.22734944152393,1553.0,1435.0,1200.0,1528.0,1471.0,994.0,160.0,293.7,1649257026.3248758,1649257027.4444437,7ed35faf-770d-4616-82d0-f734fcce95b8
-0.0603086268603057,0.1253641142805503,-0.138556522596607,-0.0248465918951419,-0.3123560088220164,0.0407128086129428,-0.5157400848504744,-0.5434969904931009,-17.97034845172153,27.673911062033834,17.230459666467294,0.3177902702805004,0.4394129626742456,1.363940233057277,5605.90283203125,11.972,0.13,179.1864976045917,1.0205282680997143,87.36252875102728,1553.0,1435.0,1200.0,1528.0,1471.0,994.0,160.0,293.7,1649257027.552672,1649257028.6724217,7ed35faf-770d-4616-82d0-f734fcce95b8
-0.050065792076753,0.1086652703838823,-0.1591999772546382,-0.3687376277645556,-0.3670414456480357,0.3905996008588095,-0.4381627579752206,-0.4627376769936105,-17.83389676740722,27.1609746767292,19.849741034925923,1.8758245246525016,0.3936247122192816,1.3550738695998918,5607.125813802083,11.962000000000002,0.13,179.20676049912942,1.1794153657976263,87.68329113046906,1553.0,1522.0,1200.0,1528.0,1471.0,994.0,160.0,293.7,1649257030.6077335,1649257031.672923,1b35fa2e-7b69-4323-a481-436ba44e3743
-0.0625702026823904,0.0973968378547715,-0.1702711804107408,-0.3608221112005761,-0.3721036946258572,0.3983178849471392,-0.4460914236008851,-0.4695355545289384,-18.04092602401885,26.996651022216053,20.34318941146253,1.873646925412716,0.3467739091797264,1.3876733836224175,5610.798014322917,11.955333333333334,0.1166666666666666,179.19527667440488,1.1912219881082278,87.74206718500675,1553.0,1522.0,1200.0,1528.0,1471.0,994.0,160.0,293.7,1649257031.7806492,1649257032.7434576,1b35fa2e-7b69-4323-a481-436ba44e3743
-0.0625702027175162,0.087890330595881,-0.1780026144581682,-0.3567723119645639,-0.3779811629185364,0.4032617943536452,-0.4532837620533661,-0.47885798284547,-18.12645611337928,27.117944147442767,20.19361125766872,1.8759733907926084,0.3120631037931792,1.415022520698981,5606.718153211806,11.962222222222222,0.12,179.17711747813155,1.190218068879909,87.81664981510364,1553.0,1522.0,1200.0,1528.0,1471.0,994.0,160.0,293.7,1649257032.8512192,1649257033.8046396,1b35fa2e-7b69-4323-a481-436ba44e3743
-0.0702753389716344,0.0721776387152733,-0.2236811897117625,-0.7938219624437903,-0.467458059922162,0.8407057291245953,-0.3803347800157476,-0.4069608953045064,-18.243683723433115,26.6326636930166,23.08893403317071,3.8397563053524566,0.2792056499295694,1.4937618643725274,5613.24560546875,11.949,0.12,179.16095725055527,1.3339089443119276,87.89571684384562,1553.0,1613.0,1200.0,1528.0,1471.0,994.0,160.0,293.7,1649257035.951729,1649257036.9634142,4e1b995e-1b87-41e0-90a1-2982ed150a1a
-0.0616629426117627,0.0712177838989675,-0.2265344572412647,-0.7962676209519928,-0.4712054393977846,0.8446240402490656,-0.380900174153804,-0.4053173082084823,-18.043967644247733,26.61177165665278,23.17807538171727,3.853912252162333,0.2735218885932203,1.503696629647299,5609.57177734375,11.939888888888888,0.1088888888888888,179.15557354366948,1.3805858879173638,87.87798036039091,1553.0,1613.0,1200.0,1528.0,1471.0,994.0,160.0,293.7,1649257037.0709002,1649257038.1962078,4e1b995e-1b87-41e0-90a1-2982ed150a1a
-0.0552200812023176,0.0736239952852191,-0.2154238076097139,-0.7973458146286292,-0.4611729816591651,0.8389043578929101,-0.3682905720195299,-0.3966128692281415,-17.789996881991236,26.477379178964625,22.650902674977747,3.843197643216668,0.2862562454851343,1.4567045669049106,5609.57177734375,11.959444444444443,0.1288888888888889,179.14720580302634,1.3809330773422053,87.85606228334434,1553.0,1613.0,1200.0,1528.0,1471.0,994.0,160.0,293.7,1649257038.3047185,1649257039.425558,4e1b995e-1b87-41e0-90a1-2982ed150a1a
-0.0734310261987508,0.051507888261087,-0.2715555985168266,-1.2131341533467093,-0.5586574414263761,1.266250112017483,-0.3105677858191472,-0.3357606918053414,-17.952534138528545,26.20676039877421,25.90054101971128,5.73726447730197,0.2232857320132763,1.5820697936030856,5611.20458984375,11.913111111111112,0.11,179.17798718888585,1.5481120365504804,87.82244561006935,1553.0,1710.0,1200.0,1528.0,1471.0,994.0,160.0,293.7,1649257041.5646677,1649257042.7012851,01c8c147-6940-4219-8d4c-63b2bfe393bb
-0.0351930989243733,0.0596418740428288,-0.2580255883831402,-1.2117363445981038,-0.5464625278739325,1.256274297304788,-0.2977118990553772,-0.3284469813374917,-17.774372046400394,26.05717069936849,25.900799968097527,5.711466155099685,0.2532129349499555,1.5298957657073204,5613.654351128473,11.918555555555557,0.11,179.15819026503152,1.5439217866424817,87.68948383531652,1553.0,1710.0,1200.0,1528.0,1471.0,994.0,160.0,293.7,1649257042.810588,1649257043.9264865,01c8c147-6940-4219-8d4c-63b2bfe393bb
-0.0428800293277823,0.0555581924217098,-0.2698467735253114,-1.2108513354884805,-0.5561596941541297,1.2584994612712137,-0.3099250167786668,-0.3354006200392376,-17.96732626423111,26.06427988115103,25.67270829008607,5.71379505607302,0.2404256562202579,1.575660186163352,5614.063096788194,11.917222222222223,0.11,179.14327009624458,1.5601260309933829,87.59793197968169,1553.0,1710.0,1200.0,1528.0,1471.0,994.0,160.0,293.7,1649257044.0344455,1649257045.15668,01c8c147-6940-4219-8d4c-63b2bfe393bb
-0.0475543910106517,0.055334158867364,-0.2441274150287582,-1.391207114152334,-0.5636276506397502,1.4337250618768942,-0.2442589018050842,-0.2670981901697323,-17.53161457667199,27.0105041045418,27.27893598880341,6.522417481581528,0.2461177526054676,1.4578522539184522,5613.654351128473,11.87211111111111,0.1,179.1266757722011,1.643763772524468,87.41909637773331,1553.0,1802.4444444444443,1200.0,1528.0,1471.0,994.0,160.0,293.7,1649257046.9889305,1649257048.1292524,97d019d9-5e2f-43f5-8402-8c96ddff88e0
-0.0445301907531549,0.0547161701510169,-0.2465073291572466,-1.3992541231883129,-0.5650082638330053,1.439904949251626,-0.2438118460497003,-0.2731202938057602,-17.609536204451466,26.851601378401234,27.01303154741928,6.553203094848129,0.2475453239652121,1.4618306275530788,5581.972330729167,11.866666666666667,0.1,179.12684728584023,1.6282136017923663,87.22580733659132,1553.0,1814.0,1200.0,1528.0,1471.0,994.0,160.0,293.7,1649257048.2374508,1649257049.3611703,97d019d9-5e2f-43f5-8402-8c96ddff88e0
-0.0452139229809503,0.0486677698758426,-0.2366852519189995,-1.3578882825391596,-0.5497163256019693,1.4080325074235205,-0.2390783148761835,-0.2646919784172843,-17.350594804192404,26.75154817850804,27.110419944875343,6.388241938466902,0.2176922211604091,1.4208646904827305,5565.459581163194,11.88722222222222,0.1,179.1098112762304,1.6275494133274515,87.11634748386261,1553.0,1814.0,1200.0,1528.0,1471.0,994.0,160.0,293.7,1649257049.4690945,1649257050.493863,97d019d9-5e2f-43f5-8402-8c96ddff88e0
-0.0829638314993142,0.1172645175460505,-0.1009512489763048,0.4472178822562388,-0.2306894456622717,-0.4044757909615154,-0.6103055365635456,-0.6328029637108252,-18.26130013157089,29.378803217493136,14.374135357193206,-1.7348970973813365,0.3807010120220544,1.3343156190710967,5553.040852864583,11.976000000000004,0.12,179.1062216323666,1.0091284452156168,87.02503847939823,1553.0,1349.0,1200.0,1528.0,1471.0,994.0,160.0,293.7,1649257052.6535578,1649257053.7610924,857df1a9-0089-4040-841f-9d64c005b859
-0.080097415564817,0.122879010736437,-0.1121407900881043,0.4452850240651876,-0.2419052848204727,-0.4063692036143337,-0.624137969551399,-0.6522761894176518,-18.44867611617252,29.38183352396437,14.538521359841855,-1.7353969862929457,0.4011566975979182,1.385300989482149,5559.847819010417,11.972555555555555,0.12,179.10658894476197,1.0029010202398578,87.30069353065134,1553.0,1349.0,1200.0,1528.0,1471.0,994.0,160.0,293.7,1649257053.8693855,1649257054.9865386,857df1a9-0089-4040-841f-9d64c005b859
-0.083752753315423,0.1243648133797407,-0.1016612785420104,0.4372643200433924,-0.233713646085441,-0.4045678318324402,-0.6107394435650341,-0.6336444802409678,-18.198298623087062,29.31211267110431,14.043343581544672,-1.7131495989808292,0.4109966817521621,1.3403970685863884,5570.68505859375,11.974666666666668,0.1266666666666666,179.11545453030465,1.009251234467102,87.52948437727926,1553.0,1349.0,1200.0,1528.0,1471.0,994.0,160.0,293.7,1649257055.094278,1649257056.2185633,857df1a9-0089-4040-841f-9d64c005b859
-0.0998599070265158,0.1302291317771521,-0.0734836210731396,0.826886450622107,-0.1716649423281222,-0.7845784246152832,-0.6985464687486251,-0.7241601395029836,-18.61132496216969,30.841282624830825,11.597767364859957,-3.435033843762949,0.4114312436409871,1.342253854428516,5569.076117621527,11.961111111111112,0.12,179.11353297041816,0.9009488260694544,88.04807939148091,1553.0,1273.4444444444443,1200.0,1528.0,1471.0,994.0,160.0,293.7,1649257058.571893,1649257059.7315817,05dd1c4a-1d79-4637-b0cf-6a6fe040cdff
-0.0955208370955254,0.1317543804737241,-0.0754296282462313,0.8186948135865975,-0.1737424365099037,-0.775269143362111,-0.7003609895570636,-0.7278812219552396,-18.885233760825265,30.88451699863138,12.047475291432647,-3.3955128045484413,0.4159906953325915,1.3508572979940323,5569.47802734375,11.937,0.1033333333333333,179.11527694538623,0.8800637202711096,88.18504365708736,1553.0,1264.0,1200.0,1528.0,1471.0,994.0,160.0,293.7,1649257059.8400338,1649257060.8267524,05dd1c4a-1d79-4637-b0cf-6a6fe040cdff
-0.0955339856988336,0.1213274646171222,-0.0678691275650875,0.8182740553454403,-0.1651563371453406,-0.768471264411301,-0.6874226674896606,-0.7090917279688645,-18.64627452084798,30.816477142062563,11.585148241545598,-3.379315928954409,0.3798196654418923,1.3087131278603474,5559.444173177083,11.944555555555556,0.11,179.1174261782451,0.8721360228657913,88.29028245290901,1553.0,1264.0,1200.0,1528.0,1471.0,994.0,160.0,293.7,1649257060.9346955,1649257062.0530522,05dd1c4a-1d79-4637-b0cf-6a6fe040cdff
-0.0993208104672739,0.1450871581550065,-0.0393364556760229,1.1915918156145526,-0.1115753961618983,-1.1482715828551546,-0.7806338141518653,-0.8116910491369582,-19.055757763193625,32.73219899210108,9.503459944661795,-5.061309028480182,0.4461590364357384,1.3316931520238762,5566.262749565973,11.919777777777776,0.1,179.09917894842243,0.7532656813516291,88.55554119733544,1553.0,1178.0,1200.0,1528.0,1471.0,994.0,160.0,293.7,1649257063.9933088,1649257064.992803,01f5b976-2bf3-4456-aece-a9baf2667833
-0.1218050823321349,0.1452712398895977,-0.0466471310304358,1.185030616347477,-0.1192016404418633,-1.1421311370730465,-0.785511982618827,-0.8066945424388304,-18.988973577894644,32.65644926955777,9.496751931770604,-5.033543797604097,0.4467793073295605,1.3590241766829536,5567.870388454861,11.919888888888888,0.11,179.11132302476668,0.7316069854819763,88.67569864412422,1553.0,1178.0,1200.0,1528.0,1471.0,994.0,160.0,293.7,1649257065.1022158,1649257066.155968,01f5b976-2bf3-4456-aece-a9baf2667833
-0.1279455238811623,0.1422075937630477,-0.0470547405793157,1.1861219581409534,-0.1192016404034251,-1.1420785421976327,-0.7865901761143362,-0.8056820921963289,-19.06386307544724,32.732649589472246,9.214288150950177,-5.035485288535028,0.4381633749921001,1.3602717422975596,5569.47802734375,11.921333333333331,0.11,179.1035608942299,0.7227612798214935,88.74487555894801,1553.0,1178.0,1200.0,1528.0,1471.0,994.0,160.0,293.7,1649257066.2650864,1649257067.2123315,01f5b976-2bf3-4456-aece-a9baf2667833
-0.1112598273504122,0.1586829096625534,-0.0239261832578827,1.3531498473280823,-0.0915499307212498,-1.317390259563716,-0.8235643276914212,-0.8490465138016922,-19.084639524208995,34.088718683531766,8.382920043488523,-5.796209911013131,0.4883957887131363,1.3454400324327844,5565.86083984375,11.892222222222223,0.1,179.10051311204032,0.6807448316046475,88.9995642061789,1553.0,1088.0,1200.0,1528.0,1471.0,994.0,160.0,293.7,1649257069.1088068,1649257070.4526188,714cd9b4-22f8-43fa-8ae3-49cde0a88e78
-0.1062107277092697,0.1562898470253645,-0.0171151584323081,1.351335327011643,-0.0843181473769608,-1.3151944246566618,-0.8148598866122987,-0.8329262040628629,-19.057497387922943,34.028932944598324,8.184646929903849,-5.787257590053714,0.4816397081058368,1.3133710369632765,5554.240071614583,11.886666666666663,0.1,179.11910033350165,0.6432130132632312,89.0216902245402,1553.0,1088.0,1200.0,1528.0,1471.0,994.0,160.0,293.7,1649257070.5605724,1649257071.6810343,714cd9b4-22f8-43fa-8ae3-49cde0a88e78
-0.1163220756672866,0.1603001992750921,-0.0264507330096443,1.3561477506169242,-0.0928122056285733,-1.3225708517151218,-0.826825205882018,-0.8460880553008979,-19.11956852190797,33.98028104615133,8.243471100386678,-5.815498291888904,0.4954137713019515,1.3552887072311792,5551.44189453125,11.888333333333334,0.1,179.11342672303107,0.6310138092289288,89.03721903907318,1553.0,1088.0,1200.0,1528.0,1471.0,994.0,160.0,293.7,1649257071.788643,1649257072.9110124,714cd9b4-22f8-43fa-8ae3-49cde0a88e78
-0.0683819266957724,0.103905442366543,-0.1357164039617057,0.0041857300259577,-0.3037962062479681,0.036557820540545,-0.513688887632553,-0.5339773315795414,-17.981324179302927,27.88662931664861,17.467474997924555,0.2445474626734892,0.3535160745363891,1.343386977104508,5548.647515190973,11.973555555555556,0.12,179.12290550777925,1.0235086733191057,89.13341466443372,1553.0,1435.0,1200.0,1528.0,1471.0,994.0,160.0,293.7,1649257074.0238838,1649257075.0955093,d1196042-6742-47bd-a2b1-ca69b6201013
-0.0770469178531959,0.1035241302225782,-0.1380568720886012,0.0054217074961296,-0.3061235258446836,0.0351640587686269,-0.5171732931457848,-0.5400783285692882,-18.027034179232828,27.94265194687153,17.35523426692469,0.2388413715432845,0.3531046346970378,1.354459671109972,5568.674207899306,11.970222222222224,0.12,179.13161324006109,1.0520391561080913,89.12008441190358,1553.0,1435.0,1200.0,1528.0,1471.0,994.0,160.0,293.7,1649257075.206271,1649257076.391178,d1196042-6742-47bd-a2b1-ca69b6201013
-0.0669224213095087,0.1114790912885308,-0.1412783029052962,0.0062763727814314,-0.3107124215358997,0.0260125661190036,-0.5241158066350284,-0.546692124485928,-18.05509608119616,27.96304293152902,17.2350477381998,0.2162903146218793,0.3838952973775904,1.3757582768810404,5562.24951171875,11.974,0.12,179.14340366438836,1.04217064740635,89.11625798814856,1553.0,1435.0,1200.0,1528.0,1471.0,994.0,160.0,293.7,1649257076.498902,1649257077.621585,d1196042-6742-47bd-a2b1-ca69b6201013
-6.1298914047635e-05,0.1463757303522762,0.0783969719678207,-0.0113428805283934,-0.1137317823798672,-0.0016917372685317,-0.297918738146773,-0.3227040344169173,-16.357608239874114,27.87126555192645,17.559473093063822,0.205015910661561,0.5159831272233458,0.4917158596752779,5570.28271484375,11.974555555555554,0.12,179.1054399551616,1.043560685766186,88.95869690764498,1553.0,1435.0,1200.0,1435.0,1471.0,994.0,160.0,293.7,1649257079.555024,1649257080.692914,3287baea-e58d-452f-b5dd-e5033c09d67a
-0.0095020630180977,0.1349626623165642,0.0743603222493529,-0.0052418853766274,-0.1133241727856479,0.0034625517396562,-0.2986550652469874,-0.322796075317504,-16.426655876079877,27.751179144084887,17.484602330570834,0.2017921787980469,0.4733203611335,0.4962793635737753,5572.69677734375,11.971111111111112,0.12,179.1289570553839,1.0241192756297504,88.93526556424229,1553.0,1435.0,1200.0,1435.0,1471.0,994.0,160.0,293.7,1649257080.801324,1649257081.9214258,3287baea-e58d-452f-b5dd-e5033c09d67a
-0.0196265593372334,0.1261004412591021,0.0612773695228516,-0.0054391157677059,-0.1250133645002387,0.0093794651804211,-0.3129477002356614,-0.3344852682326501,-16.692189440737778,27.969704000905367,16.95920735433223,0.2161129469257096,0.445816187577305,0.5482931738616993,5578.339789496527,11.960333333333333,0.1044444444444444,179.10368990891428,1.0246236305533063,88.94857304947521,1553.0,1435.0,1200.0,1435.0,1471.0,994.0,160.0,293.7,1649257082.0317166,1649257083.153002,3287baea-e58d-452f-b5dd-e5033c09d67a
0.0760433553725203,0.1688731489541045,0.3130880420568432,-0.0153137868646176,0.1017359074997883,-0.0332880550953348,-0.0570740474896717,-0.0758635351892275,-14.778768169015692,27.86096945142368,17.504254287759245,0.1553758975332667,0.60504377761463,-0.4608623699243705,5592.492513020833,11.964000000000002,0.11,179.07497882928317,1.0327268080878471,88.8856571413906,1553.0,1435.0,1200.0,1330.0,1471.0,994.0,160.0,293.7,1649257085.082405,1649257086.3280828,005dfbc4-c51d-4a7e-8420-62a49395d78d
0.0733478726573991,0.1745665342270065,0.3135613951163633,-0.0169047791493797,0.1004999301042766,-0.0369433927454707,-0.0576525901004598,-0.0802552000837741,-14.686296565131784,27.854585423086952,17.568521298767497,0.1507887962742547,0.6253991307548629,-0.4581675540205009,5587.63134765625,11.963,0.12,179.06939173454214,1.041092011126017,88.88585521687652,1553.0,1435.0,1200.0,1330.0,1471.0,994.0,160.0,293.7,1649257086.4364536,1649257087.5538018,005dfbc4-c51d-4a7e-8420-62a49395d78d
0.0853657809486332,0.1743430064020601,0.3154548072458701,-0.0168390356729634,0.1005788222745594,-0.0367987570957302,-0.0577840770891026,-0.0857119094192478,-14.705742816158184,28.06928370983477,17.570855470587887,0.1524736342145633,0.6247932925317636,-0.4607936213993662,5590.873318142361,11.964555555555556,0.11,179.07642075810796,1.023438628306211,88.88691769074741,1553.0,1435.0,1200.0,1330.0,1471.0,994.0,160.0,293.7,1649257087.662573,1649257088.7830293,005dfbc4-c51d-4a7e-8420-62a49395d78d
0.1527265504351946,0.2148409892097592,0.5682516201791326,-0.0147746903639612,0.3278277295658781,-0.0934696403231407,0.192172637776722,0.1681762680016947,-12.918826388626597,28.28844061913536,17.349449099942863,0.0353745414728997,0.781775836111116,-1.4650240605888225,5591.27587890625,11.96,0.11,179.05237090313042,1.0226625599197356,88.8307629110312,1553.0,1435.0,1200.0,1210.0,1471.0,994.0,160.0,293.7,1649257090.5415275,1649257091.6490324,cc9366fd-bdbd-4fa6-9a70-2f09402fe47b
0.1426809467997254,0.2041773970348598,0.5695007461971476,-0.0078716246517136,0.3305889555739632,-0.0892620572601609,0.1926328421162127,0.1666904652812695,-13.074265723101892,28.52806833366895,17.37041783745409,0.0308337349785001,0.7419285347675337,-1.4725501240150969,5583.9912109375,11.958444444444446,0.11,179.0347824071077,1.006170190679159,88.86712683817234,1553.0,1435.0,1200.0,1210.0,1471.0,994.0,160.0,293.7,1649257091.7571962,1649257092.8781826,cc9366fd-bdbd-4fa6-9a70-2f09402fe47b
0.1514511269606401,0.2105545144393213,0.5726827303931501,-0.0113034344205196,0.3328768285888479,-0.0909976852586414,0.1965774508801226,0.1723969993445407,-12.977672503809767,28.382159011721768,17.59125791621943,0.0339498859586772,0.763827414723042,-1.4844395161334916,5577.532443576389,11.96288888888889,0.1088888888888888,179.02074712727327,1.0010358924197844,88.87502633140242,1553.0,1435.0,1200.0,1210.0,1471.0,994.0,160.0,293.7,1649257092.9862795,1649257094.1039908,cc9366fd-bdbd-4fa6-9a70-2f09402fe47b
0.2101469048660307,0.2524857047112319,0.7900964019033765,0.0201088013985594,0.5257550378854896,-0.1737292877688596,0.3958985249504668,0.3648018607450804,-11.505915916589448,29.149258842260583,17.37043034496553,-0.2062007889736833,0.9225636884452146,-2.321544067243687,5586.822428385417,11.955222222222222,0.11,179.0088550090184,0.984307170174804,88.83599483593542,1553.0,1435.0,1200.0,1071.0,1471.0,994.0,160.0,293.7,1649257096.0393288,1649257097.1848197,6243a264-ad54-4aea-88df-c37f2af9df34
0.1981421456858415,0.2375882326159502,0.7795774458821072,0.0261703504271183,0.5201010990355472,-0.1637231290720647,0.3901788425700212,0.3678655067426838,-11.522780793154771,29.046073282422785,17.450065666647703,-0.1985925822026519,0.8646877679972249,-2.292967667762344,5593.710828993056,11.942666666666668,0.11,179.00232079471238,0.9927522484807668,88.87901060841826,1553.0,1435.0,1200.0,1071.0,1471.0,994.0,160.0,293.7,1649257097.2959793,1649257098.3636265,6243a264-ad54-4aea-88df-c37f2af9df34
0.2050057648438746,0.2414933952217199,0.7844161656469134,0.0266437034765205,0.5236512466958263,-0.1665895450854032,0.3940971537357026,0.3702191231199401,-11.455959135447731,29.062910953464097,17.68151253497517,-0.2056784850368477,0.8770590017619077,-2.309134714718717,5597.361979166667,11.938,0.1,179.00282471089116,0.9739688606662452,88.87078098937829,1553.0,1435.0,1200.0,1071.0,1471.0,994.0,160.0,293.7,1649257098.4739563,1649257099.6361449,6243a264-ad54-4aea-88df-c37f2af9df34
-0.1641570361249775,0.0547819136289414,-0.411865360001369,0.055676024959791,-0.5515965896248067,0.0501930186251217,-0.8069575161572535,-0.8362659740586167,-20.00581112640872,28.47064285095681,17.1154085478071,0.1480840085091649,0.1628861277078956,2.467229020174205,5602.23974609375,11.963875,0.11,179.1659910999736,1.0086985850071883,89.13576244709718,1553.0,1435.0,1200.0,1613.0,1471.0,994.0,160.0,293.7,1649257101.5712168,1649257102.913144,8a333049-971a-428f-8b54-da8d1caceca0
-0.1821839002101464,0.0456567184275614,-0.4151919807530576,0.0671153906174793,-0.5522934706647287,0.0522705126377436,-0.8111519521576426,-0.8317428203369808,-20.134921775075984,28.6182833612607,17.606819457965997,0.1277744346889247,0.1236027316732575,2.478223089796592,5612.022623697917,11.966333333333331,0.11,179.14720580302634,1.0100429316544906,89.09887515671087,1553.0,1435.0,1200.0,1613.0,1471.0,994.0,160.0,293.7,1649257103.0210714,1649257104.1410816,8a333049-971a-428f-8b54-da8d1caceca0
-0.1527702642079833,0.0468926958685973,-0.3965208283445685,0.0678517176016486,-0.5359890826828754,0.0472740080018183,-0.7922441181328702,-0.8233407994020461,-19.88933911757247,28.6630588606179,17.30808814681385,0.1161881698406516,0.1302416261932384,2.403532401615836,5617.742892795139,11.967222222222222,0.11,179.13749023838693,0.999493123441008,89.05152752647444,1553.0,1435.0,1200.0,1613.0,1471.0,994.0,160.0,293.7,1649257104.2522194,1649257105.330945,8a333049-971a-428f-8b54-da8d1caceca0
-0.2674066785163822,0.0097273999080933,-0.6457099303705383,0.1214281026817203,-0.76050820822299,0.0433450764505868,-1.062713459987833,-1.0924244770934577,-21.76213646411737,29.25904226031762,16.58872857427227,-0.0230103586344308,-0.0119035175636244,3.427502326287354,5615.69970703125,11.946333333333332,0.1088888888888888,179.14552102303108,0.977314752154036,89.00224695270289,1553.0,1435.0,1200.0,1694.0,1471.0,994.0,160.0,293.7,1649257107.442991,1649257108.552105,f36a9f5e-e2d4-463a-ba14-930e8983bd4f
-0.2565134880394877,0.0051061388255785,-0.6525786095128528,0.12502224813883,-0.7645923974526682,0.0490490820423649,-1.068550979472716,-1.0959660306955157,-21.925375490368523,29.21843168922479,17.178477944442765,-0.0188995956939331,-0.0341862670108131,3.4509459299280563,5605.90283203125,11.939333333333334,0.1033333333333333,179.14957815539805,0.9600797777107302,88.94732008921746,1553.0,1435.0,1200.0,1694.0,1471.0,994.0,160.0,293.7,1649257108.6655557,1649257109.774731,f36a9f5e-e2d4-463a-ba14-930e8983bd4f
-0.2472568047792258,0.0039884996171543,-0.6451232961114722,0.1273364186376245,-0.7578602620069239,0.0475895767463221,-1.0619634781245313,-1.092350136369345,-21.906084957422426,29.3210695257645,17.17099047408012,-0.0263393603709775,-0.0382588220854788,3.4220807688004555,5609.164116753473,11.938111111111112,0.1,179.1641492256274,0.9435116716329506,88.8864889066495,1553.0,1435.0,1200.0,1694.0,1471.0,994.0,160.0,293.7,1649257109.8833587,1649257111.001252,f36a9f5e-e2d4-463a-ba14-930e8983bd4f
-0.3197192798293906,-0.0172729426466665,-0.8412887786363811,0.1961172464927355,-0.9367089185887636,0.0170057090619053,-1.2879240026000058,-1.3125120870748128,-23.419966889852347,30.250189006786947,17.23711344120843,-0.2545780862319501,-0.1287617998536243,4.251477570071823,5594.92578125,11.894,0.09,179.18954386896152,0.9058335971227446,88.83097009343602,1553.0,1435.0,1200.0,1774.0,1471.0,994.0,160.0,293.7,1649257112.1177948,1649257113.2638886,54643589-fe61-463f-bb2b-4763e3d15185
-0.3242292833651293,-0.0298562452782673,-0.8444576160749121,0.2064784187056948,-0.9378660044948516,0.0190437570018243,-1.2911848823398495,-1.3179950985747888,-23.43420726019681,30.44994072401288,17.103434817708465,-0.2722326724636447,-0.176144437005535,4.2603036195462565,5601.833116319444,11.901222222222223,0.0911111111111111,179.1752186855423,0.9006519796448234,88.74740576458053,1553.0,1435.0,1200.0,1774.0,1471.0,994.0,160.0,293.7,1649257113.3775008,1649257114.4249134,54643589-fe61-463f-bb2b-4763e3d15185
-0.3248078260889027,-0.0259510824047633,-0.8386195920330377,0.1981421456319967,-0.9307788532001908,0.0229489198143314,-1.2811261205924842,-1.3056879079871988,-23.427163409565534,30.09260838595325,17.176699815170608,-0.2467155406037121,-0.1608064892619461,4.229025607862337,5596.955946180556,11.899444444444445,0.1,179.19615549207808,0.8799007384394303,88.65438465936424,1553.0,1435.0,1200.0,1774.0,1471.0,994.0,160.0,293.7,1649257114.5333016,1649257115.5857835,54643589-fe61-463f-bb2b-4763e3d15185
-0.389499423004524,-0.0404540947815122,-1.0068046610049186,0.2787567983115634,-1.086577854807448,-0.0314472375618718,-1.4853913228382871,-1.512556560235443,-24.57594433650783,31.28450858574029,16.534775291062832,-0.5519517117643713,-0.2219486654957168,4.9580684120189344,5603.867784288194,11.863666666666669,0.09,179.1976034921821,0.8796916587598371,88.51506929086347,1553.0,1435.0,1200.0,1856.0,1471.0,994.0,160.0,293.7,1649257117.6482084,1649257118.785806,e02bc652-f1cd-4ec1-91c9-9930b3f33019
-0.3574879046064503,-0.031501349522383,-1.0154792660116327,0.2724737447450783,-1.0928037667937458,-0.0326645034624434,-1.4920314218470156,-1.5218309529871612,-24.68723452717329,30.828128221041425,16.73328085976086,-0.5439957569905309,-0.18912617802366,4.989244503243592,5603.053765190973,11.87311111111111,0.09,179.19243531571016,0.8697343575988856,88.38919801137905,1553.0,1435.0,1200.0,1856.0,1471.0,994.0,160.0,293.7,1649257118.8937948,1649257120.017215,e02bc652-f1cd-4ec1-91c9-9930b3f33019
-0.3756143971833055,-0.0350631291345634,-1.01245860399823,0.2706177557849154,-1.0916269577275424,-0.0304216392704902,-1.4894674231570075,-1.5162381994209404,-24.633813725237346,31.03954587120344,16.331957800012063,-0.533254245902258,-0.1988826089278469,4.978810872855679,5606.313096788194,11.869555555555555,0.09,179.1978008087582,0.8673738276205749,88.35046628532561,1553.0,1435.0,1200.0,1856.0,1471.0,994.0,160.0,293.7,1649257120.125389,1649257121.2433271,e02bc652-f1cd-4ec1-91c9-9930b3f33019
-0.0854489351578272,0.0723880178474842,-0.1922820998590713,0.0294180784019769,-0.3237822275895445,0.0478394019938406,-0.5432471648716827,-0.5665203640787044,-18.450037803469705,25.2518155203284,17.68670912262086,0.1924966022486199,0.2299436530832325,1.4872690516239238,7944.680121527777,11.675555555555556,6.992222222222222,179.1109025886778,0.7399060684944304,77.47764827557288,1553.0,1435.0,1350.0,1528.0,1471.0,994.0,160.0,293.7,1649257125.997637,1649257126.9834225,5e1ec3b3-6f02-4ad4-ba52-078f6eab69c0
-0.0834108871302384,0.0683250707291335,-0.1905201744285903,0.0300492158450798,-0.3223358707818517,0.0512449143427566,-0.5392499600949856,-0.5648241817673687,-18.267004975679512,25.26930940531645,17.708493063086586,0.1990248595163463,0.2132508860971312,1.476871655770797,7958.61328125,11.677555555555555,7.003333333333334,179.1087548736388,0.6802851337859775,72.66569273065949,1553.0,1435.0,1350.0,1528.0,1471.0,994.0,160.0,293.7,1649257127.0955918,1649257128.206359,5e1ec3b3-6f02-4ad4-ba52-078f6eab69c0
-0.1012779434678084,0.0648128516870651,-0.1904109390713565,0.0328893342723716,-0.3220749196836114,0.0502102130955583,-0.5412409767137419,-0.5649718519225815,-18.398709609831204,25.43961889085236,17.435543516285705,0.1913177711726758,0.203089381156859,1.4782550644553596,7958.61328125,11.674444444444443,7.078888888888889,179.114275184308,0.6630771421472832,69.04296646616399,1553.0,1435.0,1350.0,1528.0,1471.0,994.0,160.0,293.7,1649257128.3153276,1649257129.432166,5e1ec3b3-6f02-4ad4-ba52-078f6eab69c0
0.1002501048612657,0.429059534278663,-0.183472472602403,-0.1705998978790955,-0.4015962259962316,-0.1089062105426323,-0.6051643944648322,-0.6328555582158828,-18.013881861769793,24.37163251360843,18.704711648082608,0.2864454780828679,1.580739209053385,1.7129085554489674,7958.61328125,11.652333333333337,7.053333333333333,178.95524561313283,0.7759073730662838,61.2278738836642,1631.0,1435.0,1350.0,1528.0,1531.0,994.0,160.0,293.7,1649257131.5746138,1649257132.7122877,7e78f4bf-c2fc-41fa-8df5-a27230ffeaaa
0.1046680667168829,0.4421161885524322,-0.1646303892653311,-0.1823153872980913,-0.3873035903581817,-0.1130217527335715,-0.5872558644523007,-0.6120806110732981,-17.92233330747242,24.33163054909898,18.546284313133825,0.3043184401588958,1.633102016979077,1.6435938303126805,7958.61328125,11.648999999999996,7.059999999999999,178.9072567040243,0.815178114881703,58.91413819540349,1631.0,1435.0,1350.0,1528.0,1531.0,994.0,160.0,293.7,1649257132.8202257,1649257133.94081,7e78f4bf-c2fc-41fa-8df5-a27230ffeaaa
0.1046680667207769,0.4259301448338191,-0.1790808076616753,-0.1740317079384554,-0.3980066312011403,-0.104304166591241,-0.599339520138454,-0.6289898400314852,-17.966434773640636,24.437694031893315,18.51219832739365,0.3051780093118408,1.5710745756327202,1.6930654929930098,7958.61328125,11.652375,7.063750000000001,178.94083391398414,0.8521626020615436,57.23798544053344,1631.0,1435.0,1350.0,1528.0,1531.0,994.0,160.0,293.7,1649257134.0529735,1649257135.1665213,7e78f4bf-c2fc-41fa-8df5-a27230ffeaaa
0.3238436748935174,0.8578253301121704,-0.1697452325111992,-0.419517902691907,-0.4941367712418341,-0.2917782960624951,-0.6794019595400244,-0.7066329206338814,-17.81559638458616,23.61592043527901,19.620723535932424,0.4329251657331142,3.2108541764004443,1.977377806149484,7963.544270833333,11.626,7.050000000000001,178.62497864600607,0.9624228527611618,54.7247961333817,1712.0,1435.0,1350.0,1528.0,1591.0,994.0,160.0,293.7,1649257136.079381,1649257137.3125515,513ed3ae-e770-4bb1-a1a3-2d189805dbcb
0.3449736282884947,0.8716709060590321,-0.1509951901522674,-0.4259739139393899,-0.4811853021705042,-0.2953152958580224,-0.6644781837386116,-0.6888690248048235,-17.780041364132405,23.81480739209527,20.327975887845582,0.4419229447693598,3.258250393660416,1.915490252373404,7966.009765625,11.620444444444445,7.050000000000001,178.59097341085828,0.999978031298177,53.6299164299737,1712.0,1435.0,1350.0,1528.0,1591.0,994.0,160.0,293.7,1649257137.4258,1649257138.5868022,513ed3ae-e770-4bb1-a1a3-2d189805dbcb
0.3544669862988497,0.8736037642425165,-0.1570567396094309,-0.4305102150960169,-0.4855506704390273,-0.2967353552518683,-0.6663715967243672,-0.6874752624384525,-17.594500654871837,23.423777794956933,19.774928933044777,0.4460758961579072,3.269255830942852,1.9320987338113893,7973.419921875,11.621,7.0633333333333335,178.6033633740127,1.051126306068706,52.715614026752405,1712.0,1435.0,1350.0,1528.0,1591.0,994.0,160.0,293.7,1649257138.6954648,1649257139.7348557,513ed3ae-e770-4bb1-a1a3-2d189805dbcb
0.6043316392192648,1.3207514583579962,-0.1245268626845641,-0.6866994888438798,-0.5691501041618865,-0.4960696299862194,-0.729432768507411,-0.7479461407144607,-17.11505796516618,23.053131651386646,20.06894267333278,0.5754963194889846,4.973930651422256,2.144168765659692,7966.009765625,11.571666666666664,7.067777777777778,178.20668571867594,1.1936631166903384,50.91514997914523,1796.0,1435.0,1350.0,1528.0,1650.0,994.0,160.0,293.7,1649257142.0210123,1649257143.1529229,e5871b8a-884c-474e-99dd-c2a38c4b36fa
0.5970209648064166,1.3062221487836418,-0.1236327513572931,-0.6820579972236473,-0.5658892265847271,-0.4854323320149489,-0.7244625594103858,-0.7495765799400945,-17.054851044157033,23.123543901761124,20.186263844687343,0.5894899808156373,4.917457371475519,2.1298933675142293,7966.009765625,11.57522222222222,7.062222222222221,178.18065966229858,1.2195445177245148,50.43972631395751,1796.0,1435.0,1350.0,1528.0,1650.0,994.0,160.0,293.7,1649257143.2611475,1649257144.3858156,e5871b8a-884c-474e-99dd-c2a38c4b36fa
0.597191897847201,1.3112843968928365,-0.1317060514982398,-0.682228930506768,-0.5748040455139507,-0.490152715177759,-0.7345344649476371,-0.75847825126961,-17.041111949416813,23.12312775047681,20.128073988773373,0.5788611181269218,4.936371607304732,2.1679194583838868,7966.009765625,11.577333333333334,7.08,178.1802923499032,1.255957418270649,50.02142541807336,1796.0,1435.0,1350.0,1528.0,1650.0,994.0,160.0,293.7,1649257144.4942894,1649257145.61457,e5871b8a-884c-474e-99dd-c2a38c4b36fa
0.7024340523686,1.4765109213849457,-0.1233303313156727,-0.7975824911543511,-0.6138688343549115,-0.5710040708333719,-0.7596747827966849,-0.790206069107998,-16.49835990223756,22.960093587405687,16.485193728104974,0.6564154907190805,5.599247524694843,2.259794046433941,7973.419921875,11.397777777777778,6.995555555555557,178.1497264944575,1.2892170481499607,49.45970307163244,1886.0,1435.0,1350.0,1528.0,1710.0,994.0,160.0,293.7,1649257146.5245154,1649257147.6727836,9701b1d2-0b65-41c2-b019-bea4e43475c9
0.7066810808473832,1.4869641357534753,-0.1302728433268483,-0.803262730544795,-0.6229808838219405,-0.5767369041431872,-0.7700491086113262,-0.801040599769139,-16.58297360873128,22.97182937506244,16.316424026439257,0.6560088891648888,5.640807550538057,2.297352236149867,7966.009765625,11.404333333333334,7.01,178.17455195536073,1.3052934636132705,49.23819965739397,1886.0,1435.0,1350.0,1528.0,1710.0,994.0,160.0,293.7,1649257147.7811234,1649257148.897714,9701b1d2-0b65-41c2-b019-bea4e43475c9
0.6838635436034325,1.4855167676197785,-0.1289787080969053,-0.8035954939666643,-0.6212584040185447,-0.5750230216148419,-0.7662354792913988,-0.7913318002819177,-16.436005974811266,22.85986711036849,16.33511870906288,0.6600100325184207,5.634294261525715,2.287809359243417,7966.009765625,11.409777777777778,7.0088888888888885,178.16321991261782,1.3330554552568914,49.08173899625668,1886.0,1435.0,1350.0,1528.0,1710.0,994.0,160.0,293.7,1649257149.009462,1649257150.116613,9701b1d2-0b65-41c2-b019-bea4e43475c9
-0.3644643006802088,-0.4174404080968676,-0.205062633873883,0.325723938304549,-0.2196445394947923,0.2452670708500645,-0.4633556656622574,-0.4824212798492422,-18.55585939010865,26.6994137255378,16.554496926801956,-0.0235243203853008,-1.633694270956391,1.190166295454944,7967.656467013889,11.677777777777775,7.096666666666668,179.32107965199762,1.2576483881248544,48.677399386491,1475.0,1435.0,1350.0,1528.0,1408.0,994.0,160.0,293.7,1649257152.0548232,1649257153.1925,6caa1810-4eb5-4420-8580-a4d03a39f391
-0.3687507764627514,-0.414481950850334,-0.1955035308037731,0.3298657773286645,-0.2125968376276426,0.2393764552278899,-0.4586484313101676,-0.4831839045135644,-18.63355543691993,26.99367430052848,16.723067967238126,-0.0436898648927029,-1.623441347320819,1.1612918018165983,7973.419921875,11.678999999999998,7.12,179.3926645879588,1.2697330204790167,48.50611835321964,1475.0,1435.0,1350.0,1528.0,1408.0,994.0,160.0,293.7,1649257153.3029263,1649257154.432451,6caa1810-4eb5-4420-8580-a4d03a39f391
-0.3655556426673151,-0.4195179025417304,-0.2078370090260762,0.3259343174424025,-0.2224057659955116,0.2483833117033553,-0.4647231303714839,-0.4889035889695742,-18.460634422033724,26.6991799457946,16.71910917821496,-0.0170617960384489,-1.6438208581069986,1.1997052705787423,7980.84423828125,11.67911111111111,7.104444444444444,179.38004998747166,1.279846977246088,48.365314003479824,1475.0,1435.0,1350.0,1528.0,1408.0,994.0,160.0,293.7,1649257154.545308,1649257155.6520336,6caa1810-4eb5-4420-8580-a4d03a39f391
-0.5955526945045809,-0.814596912003313,-0.2147006293029616,0.5596786710364822,-0.1397136079777426,0.4127157061878852,-0.402937393225904,-0.4222002372151608,-18.840704051242884,28.49051026328093,15.84043025386129,-0.1638531588687252,-3.14431327119287,0.9604663123220236,7980.84423828125,11.618666666666666,7.083333333333333,179.49987730845058,1.263601965203578,48.172318281017176,1396.0,1435.0,1350.0,1528.0,1340.0,994.0,160.0,293.7,1649257157.5841017,1649257158.7232945,755491c5-6283-41a6-9966-dea90565b52d
-0.5946585828339522,-0.8264044469186811,-0.2196708369726846,0.5717228756527251,-0.1391745113490528,0.4126105166252217,-0.4089857947304818,-0.4342444456178381,-19.20678814268996,28.517823946121545,15.716727467149983,-0.191528722431833,-3.186708798987146,0.9733538168200796,7979.194390190973,11.612333333333332,7.075555555555557,179.51023035741252,1.265635025556682,48.14640492276109,1396.0,1435.0,1350.0,1528.0,1340.0,994.0,160.0,293.7,1649257158.83154,1649257159.9504268,755491c5-6283-41a6-9966-dea90565b52d
-0.5949084082975709,-0.824261208454128,-0.225758684071069,0.5677125236822591,-0.1459855365647374,0.4172520060232993,-0.4133643115340989,-0.4382679477656034,-19.10351708047401,28.460705305410343,16.109711433859168,-0.1726194570815448,-3.182777431413568,0.9980372607572257,7980.84423828125,11.622333333333334,7.095555555555555,179.51249646239714,1.2816285538285015,48.13845534147711,1396.0,1435.0,1350.0,1528.0,1340.0,994.0,160.0,293.7,1649257160.0583,1649257161.1752214,755491c5-6283-41a6-9966-dea90565b52d
-0.8778158755872357,-1.3270282612297544,-0.2447717009253968,0.8898292540666333,-0.0486194354817845,0.6079080842536013,-0.3509211411139485,-0.3807686870761512,-19.53784418411644,30.814448061113584,15.490774572252064,-0.4564669847017045,-5.100724746905232,0.742278949689822,7980.84423828125,11.572111111111113,7.105555555555556,179.67700688092626,1.25466878924724,48.16793975030424,1314.0,1435.0,1350.0,1528.0,1268.0,994.0,160.0,293.7,1649257162.9328918,1649257164.0462265,a8765797-22a8-4979-8c09-2f8880b16c7c
-0.8833777769625031,-1.3346282148725002,-0.2478090501253747,0.8900790792779029,-0.0492637216157489,0.6154948812518696,-0.3496062712578439,-0.3705521482229303,-19.47165950547806,30.6820335038428,15.537983862443609,-0.4409701740051786,-5.130341603669782,0.744674447270896,7980.84423828125,11.582666666666666,7.076666666666666,179.67192370236393,1.227291790228242,48.18710070765585,1314.0,1435.0,1350.0,1528.0,1268.0,994.0,160.0,293.7,1649257164.1543283,1649257165.281607,a8765797-22a8-4979-8c09-2f8880b16c7c
-0.870531493988447,-1.324608898821985,-0.2419710283173038,0.8851877646862616,-0.0457661682836886,0.6124180866293386,-0.346989680270113,-0.3764559140881105,-19.6197835399218,30.73862355885348,15.888336590838511,-0.4362034117960218,-5.093846573974877,0.7297640988941381,7973.419921875,11.58211111111111,7.08,179.66130351711448,1.2410127390652823,48.21048917264875,1314.0,1435.0,1350.0,1528.0,1268.0,994.0,160.0,293.7,1649257165.3943322,1649257166.504865,a8765797-22a8-4979-8c09-2f8880b16c7c
-0.975760569472908,-1.5283481621009478,-0.2403537385675054,0.9928755787301556,-0.001520804340608,0.681908939523196,-0.3136314325312086,-0.333656900055208,-19.80843445719521,31.81807574832343,11.6102839041783,-0.5165060707822309,-5.831879026367967,0.5894837061747814,7966.009765625,11.415666666666668,7.04,179.71574467825894,1.209944568266389,48.30673602442807,1227.0,1435.0,1350.0,1528.0,1189.0,994.0,160.0,293.7,1649257168.6434567,1649257169.781409,9d8ce381-386b-414c-a663-9e5268974eed
-1.000509971221663,-1.5207436553966365,-0.2316902638457939,0.9898614931730204,0.0041644897647973,0.6776811283743192,-0.3070550605658789,-0.3297997799735739,-19.750348229897,31.89028281834405,11.73136323700178,-0.5182488959125362,-5.803920204704227,0.5616429839587099,7958.61328125,11.421333333333331,7.036666666666666,179.7347978704036,1.2068185116345405,48.371733242934766,1227.0,1435.0,1350.0,1528.0,1189.0,994.0,160.0,293.7,1649257169.889764,1649257171.2097309,9d8ce381-386b-414c-a663-9e5268974eed
-0.9634139361800752,-1.5151468557514776,-0.2289538175009668,0.9865773536143952,0.0047248265855771,0.6753345920404721,-0.3044799385107348,-0.323085346541958,-19.59714208154385,31.872235798002013,11.76728052955879,-0.5160141957661959,-5.783753974808191,0.5542969056886833,7958.61328125,11.426666666666668,7.0377777777777775,179.75996028730594,1.1949200967989997,48.44458555844195,1227.0,1435.0,1350.0,1528.0,1189.0,994.0,160.0,293.7,1649257171.3178446,1649257172.4450295,9d8ce381-386b-414c-a663-9e5268974eed
-0.0613605225919886,0.1123863513469665,-0.1741631947972809,0.0120355017530349,-0.3132632689525,0.0264990678726455,-0.532570420495266,-0.5629307689117142,-18.498005815800383,24.99444778126287,18.062908878174724,0.1829847574442262,0.3802514237644031,1.4383324488749327,7962.722439236111,11.671333333333331,7.12,179.20274890135684,1.2206557989888498,48.65754592384854,1553.0,1435.0,1350.0,1528.0,1471.0,994.0,160.0,293.7,1649257174.582679,1649257175.7195368,adba47d0-2041-48fc-9691-62b2e483287b
-0.0753112899025426,0.1051545685410628,-0.1887319515594321,0.0107337808252635,-0.3253469227154956,0.0334415795606295,-0.5430762317865121,-0.5685452639743482,-18.4224726696802,24.84748788379177,17.77712341711568,0.1998146955448776,0.3543603415178324,1.4884312800021962,7979.194390190973,11.670333333333332,7.102222222222221,179.195950586403,1.235443419417208,48.71258396763546,1553.0,1435.0,1350.0,1528.0,1471.0,994.0,160.0,293.7,1649257175.828001,1649257176.949689,adba47d0-2041-48fc-9691-62b2e483287b
-0.0680137631638414,0.1117815113192081,-0.1745839531437153,0.0106811859894441,-0.3137760682179639,0.0247765886495202,-0.5314133349354292,-0.5614712636053601,-18.3384765387776,24.90017240310849,17.559931432256597,0.181523332826914,0.3814501459020702,1.437312785871481,7980.84423828125,11.669666666666666,7.110000000000001,179.1477476647005,1.2188003354121335,48.76809139720033,1553.0,1435.0,1350.0,1528.0,1471.0,994.0,160.0,293.7,1649257177.0573702,1649257178.3835037,adba47d0-2041-48fc-9691-62b2e483287b
-0.0749957211582675,0.0931892551202788,-0.225640345714203,-0.4357696949012699,-0.4081048319618607,0.4764342827631312,-0.456163327114684,-0.4806199083131853,-18.189241277814062,24.15261446380167,20.8337514842071,2.196641351718549,0.3333641242673026,1.5271119000215363,7980.84423828125,11.670333333333332,7.113333333333334,179.13889725735595,1.3328245213435477,48.82453683941123,1553.0,1522.0,1350.0,1528.0,1471.0,994.0,160.0,293.7,1649257179.497525,1649257180.6347773,f84a357c-d226-4bba-becf-d359c3ebaf7c
-0.0709196251551594,0.0838273834973719,-0.2251275464849028,-0.4079470476541475,-0.4000052334094605,0.4599852652142358,-0.4594899480958926,-0.4872862986964685,-18.47499913969858,24.04840292382138,20.82544784158724,2.0961066735855103,0.2969527105711991,1.5190597372401455,7980.84423828125,11.65988888888889,7.102222222222221,179.16460760721168,1.3220562537983302,48.819535623118966,1553.0,1522.0,1350.0,1528.0,1471.0,994.0,160.0,293.7,1649257180.742487,1649257181.8675797,f84a357c-d226-4bba-becf-d359c3ebaf7c
-0.0681321014764391,0.0835512608759208,-0.2233919184001007,-0.4108266127019405,-0.4016093746982867,0.4626807477101357,-0.4575044944519594,-0.4839596778275192,-18.236684987096805,24.24315585945107,20.803945168637128,2.1101533729666,0.2948888000593263,1.5160496624049902,7980.84423828125,11.665666666666668,7.1,179.18374276162643,1.3193273797814986,48.82814583547767,1553.0,1522.0,1350.0,1528.0,1471.0,994.0,160.0,293.7,1649257181.975318,1649257183.0925305,f84a357c-d226-4bba-becf-d359c3ebaf7c
-0.0615183069482932,0.0695478994855872,-0.2843229843421037,-0.9088205180932256,-0.5107698763348448,0.9592412160472868,-0.3827935866227595,-0.407618330077402,-18.41475897984652,23.47490255407311,24.3147683327263,4.3416864918503055,0.2699496827379204,1.640495163262816,7988.28173828125,11.64488888888889,7.107777777777778,179.17519440042523,1.458435376149948,48.85505867808229,1553.0,1613.0,1350.0,1528.0,1471.0,994.0,160.0,293.7,1649257184.0036695,1649257185.1404798,1b33ca29-7e37-4ff5-98ae-24638fe35dde
-0.0587439319294665,0.069916062982611,-0.2839679694485312,-0.9031008321763008,-0.5101387386691867,0.950050278059644,-0.383608805900689,-0.4070266386284412,-18.290083610464123,23.43342635231049,23.806587643889205,4.307855494984377,0.274269677583256,1.6397944707097278,7988.28173828125,11.656666666666668,7.102222222222223,179.17502440460586,1.4777132412012568,48.82444121676284,1553.0,1613.0,1350.0,1528.0,1471.0,994.0,160.0,293.7,1649257185.2486694,1649257186.3697665,1b33ca29-7e37-4ff5-98ae-24638fe35dde
-0.0613868199653603,0.0741104970570627,-0.2762891298438313,-0.9027721144068628,-0.5033934557843931,0.9458295468720078,-0.3758247763174176,-0.3994529881258741,-18.16003052208844,23.354872732544745,23.893582858959352,4.297570388155787,0.2887548284455381,1.609813545747312,7980.84423828125,11.643999999999998,7.1,179.16802421961654,1.473320362347881,48.8460352392788,1553.0,1613.0,1350.0,1528.0,1471.0,994.0,160.0,293.7,1649257186.47804,1649257187.6068752,1b33ca29-7e37-4ff5-98ae-24638fe35dde
-0.0621858561282449,0.0652679988578235,-0.3140466280138154,-1.375968768148431,-0.5923818348217436,1.4091026086404566,-0.2888238847678551,-0.3113663163366211,-18.151521587338284,22.964629940603253,26.7686495062704,6.402018079667291,0.2859086107447171,1.657617994964845,7988.28173828125,11.605222222222222,7.073333333333333,179.1281708247194,1.634631892609932,48.824337246105486,1553.0,1710.0,1350.0,1528.0,1471.0,994.0,160.0,293.7,1649257189.53343,1649257190.6708045,f477a08a-1886-4661-96c7-cb21cc946211
-0.0377090515084697,0.0664564387164067,-0.3148304926551638,-1.3738194596382338,-0.591850829569524,1.4080279555017945,-0.2896709643302312,-0.320077328946294,-18.224300670351628,22.87024561013656,27.05784231704772,6.394099624672821,0.2880020672363007,1.6597276697764878,7980.84423828125,11.591333333333331,7.08,179.14876763961652,1.66144828250846,48.79103969444671,1553.0,1710.0,1350.0,1528.0,1471.0,994.0,160.0,293.7,1649257190.7787206,1649257191.9018767,f477a08a-1886-4661-96c7-cb21cc946211
-0.0359966865810813,0.0598836077682545,-0.3269247665708263,-1.3658563990954584,-0.6029028180923004,1.4084927113635646,-0.3031519200223099,-0.3310666065151066,-18.23914778005581,23.047868174249043,27.1502026112465,6.377763795975194,0.2608923288615629,1.7097822039596533,7973.419921875,11.598999999999998,7.09,179.14615395389416,1.6597286045153996,48.79158269448573,1553.0,1710.0,1350.0,1528.0,1471.0,994.0,160.0,293.7,1649257192.0143993,1649257193.137627,f477a08a-1886-4661-96c7-cb21cc946211
