raw_voltage_G-,raw_voltage_G0,raw_voltage_G1,raw_voltage_G2,raw_voltage_G3,raw_voltage_G4,raw_voltage_G5,raw_voltage_G6,load_x,load_y,load_z,load_l,load_m,load_n,rpm,voltage,current,roll,pitch,yaw,aileron1_pwm,elevator_pwm,throttle_pwm,rudder_pwm,aileron2_pwm,pbaro,pdiff,Tt,sample_start_time,sample_end_time,uid
0.1011614106745402,0.2382112785256227,0.2403605845198554,-0.0590756836436047,-0.0070245451293624,-0.0552322184045925,-0.1166770905236066,-0.1427342683123324,-10.231870734671048,27.36707859312393,17.786187707501117,0.2002188801223139,0.8311924467798681,-0.116942826598902,5719.36865234375,11.973333333333333,0.1266666666666666,178.87089277688318,0.68417382372734,92.72932788297749,1553.0,1435.0,1200.0,1528.0,1471.0,994.0,160.0,293.7,1649256242.5899718,1649256243.5423462,d5396f50-527d-435f-a801-79772fdefd12
0.0841035061290622,0.2399812952367128,0.2466739812582771,-0.0648843733246619,-0.0031117965061302,-0.0529322079169839,-0.110957407319121,-0.1307856425541475,-10.235107485426006,27.500346734160782,17.644140546754276,0.2196638347532111,0.8402306247926674,-0.1391156597405476,5727.43701171875,11.972444444444443,0.1255555555555555,178.88153117597045,0.6650526557850365,92.09237707410811,1553.0,1435.0,1200.0,1528.0,1471.0,994.0,160.0,293.7,1649256243.650254,1649256244.600916,d5396f50-527d-435f-a801-79772fdefd12
0.0892011544333779,0.2361125444006263,0.2358343989068842,-0.0622996429568226,-0.0105140069120922,-0.0526783369484371,-0.1202424103286126,-0.1397631685142871,-10.319691568388908,27.312095394057604,17.405085291439498,0.2125354342951665,0.8274292630472249,-0.101802684029199,5725.73583984375,11.967666666666666,0.12,178.90764374807728,0.6667133344617506,91.53531063995142,1553.0,1435.0,1200.0,1528.0,1471.0,994.0,160.0,293.7,1649256244.7106068,1649256245.8184357,d5396f50-527d-435f-a801-79772fdefd12
0.3065005456838129,0.6150478256241876,0.2737734427332633,-0.1972391587779282,-0.057652590074081,-0.2915021734105794,-0.1786469005794361,-0.2067325186117173,-9.967149385928431,26.63717696700487,18.49882560463383,-0.0219763226067054,2.255485588191688,0.0405764374981296,5688.167697482639,11.946222222222222,0.1277777777777777,178.63163125025764,0.6313920665281201,90.84856243966333,1631.0,1435.0,1200.0,1528.0,1531.0,994.0,160.0,293.7,1649256246.452399,1649256247.678254,fde37633-b7ad-4d30-896c-b127360eeb9e
0.307342062191724,0.6196761662539402,0.2639119211047135,-0.2138328151265862,-0.0690130641213024,-0.283389426664241,-0.1853264389028668,-0.2093228119981484,-9.926599354332836,26.48031404503734,18.0628586067672,0.0321053408094496,2.277836846996165,0.0788947717106531,5666.019205729167,11.946666666666664,0.12,178.61401391565846,0.631159851954307,90.46325629038472,1631.0,1435.0,1200.0,1528.0,1531.0,994.0,160.0,293.7,1649256247.8016803,1649256249.0028636,fde37633-b7ad-4d30-896c-b127360eeb9e
0.3074472517617384,0.6087890468177537,0.2646613967350096,-0.2078370090122494,-0.06513419859126,-0.2763680219220546,-0.1813818297083282,-0.205365054070205,-9.938200852272203,26.45120282388384,18.347733300763927,0.0342422130206302,2.2338696121067194,0.0661145702767861,5659.367567274306,11.944555555555556,0.1244444444444444,178.63354522104504,0.6546860472374948,90.13380818704844,1631.0,1435.0,1200.0,1528.0,1531.0,994.0,160.0,293.7,1649256249.1165702,1649256250.3269646,fde37633-b7ad-4d30-896c-b127360eeb9e
0.5578378537398883,1.0750286278046055,0.3085780395370867,-0.3805977539185995,-0.1311538060627869,-0.5724635765376562,-0.2611681271717699,-0.2890170696842568,-9.534314015799836,26.12808270322901,18.446262775967345,-0.2411543538264587,4.002868782636131,0.2652254157376826,5661.44384765625,11.92677777777778,0.12,178.25806695507222,0.6785435956301828,89.5760063691911,1712.0,1435.0,1200.0,1528.0,1591.0,994.0,160.0,293.7,1649256251.9515488,1649256253.2966695,21c1f431-ebec-48f7-a181-ff62270381e9
0.5303965272603723,1.0515713549858194,0.3006625248856507,-0.3678829623182034,-0.1331787054639011,-0.5604851107244844,-0.2632193240903681,-0.2888198393529637,-9.468312254258,26.12596604434772,18.50742401249228,-0.2432837947730597,3.911813232613368,0.2791000269812471,5654.389702690973,11.929333333333334,0.12,178.25997333676057,0.6895636493242571,89.41087364453762,1712.0,1435.0,1200.0,1528.0,1591.0,994.0,160.0,293.7,1649256253.4053032,1649256254.6276138,21c1f431-ebec-48f7-a181-ff62270381e9
0.5659243011720235,1.0708341939189934,0.3018459074730955,-0.3782309881781107,-0.1373994372552563,-0.5721480077288803,-0.2683341675826532,-0.2880572145787122,-9.540810716237912,26.21544364551484,18.162346814714805,-0.2455886893369128,3.988982728209496,0.2921841317270352,5665.18603515625,11.926333333333332,0.1122222222222222,178.28016489376694,0.7051209229787767,89.29381482690229,1712.0,1435.0,1200.0,1528.0,1591.0,994.0,160.0,293.7,1649256254.735956,1649256255.862519,21c1f431-ebec-48f7-a181-ff62270381e9
0.7960133146531316,1.4870561766512171,0.3446449108857555,-0.528652108040153,-0.194675162862261,-0.8425773512910532,-0.3340908071596484,-0.363688527515616,-8.67003892661818,25.87988640233838,17.914523994515637,-0.5136608645321126,5.567329160267999,0.4549205663054269,5658.952311197917,11.879,0.11,178.12134326390654,0.7236000590680827,88.97925122358727,1796.0,1435.0,1200.0,1528.0,1650.0,994.0,160.0,293.7,1649256257.995638,1649256259.133742,38742616-1eac-497f-b9f5-8d5692425b19
0.793475616511694,1.4846631137251531,0.3601340739453333,-0.5231428027824937,-0.179409525098908,-0.8419199162100959,-0.3167082279286635,-0.3407571974115713,-8.467885230119482,25.87319383935505,18.521043460180152,-0.5236858301626292,5.551850861879574,0.3890239976525707,5654.804307725694,11.884222222222222,0.1122222222222222,178.1462355088817,0.7491889003328106,88.8325387602154,1796.0,1435.0,1200.0,1528.0,1650.0,994.0,160.0,293.7,1649256259.242726,1649256260.366455,38742616-1eac-497f-b9f5-8d5692425b19
0.7854023177660581,1.4764846240108418,0.3470511221456418,-0.5143594712471885,-0.1872198513137081,-0.84167009080435,-0.3296465470768126,-0.3522886060889938,-8.726665976731796,25.76725094127156,18.46965970998765,-0.5444296895636063,5.521550950147488,0.4347943094580506,5653.97509765625,11.88577777777778,0.11,178.15510261224418,0.7555545180595893,88.71653103280237,1796.0,1435.0,1200.0,1528.0,1650.0,994.0,160.0,293.7,1649256260.4747686,1649256261.5914366,38742616-1eac-497f-b9f5-8d5692425b19
0.9339694238097288,1.7151466420069768,0.407679755867122,-0.6333683580909819,-0.1970419285493642,-0.9814539587647034,-0.3354845692693422,-0.3599279998539524,-8.3985697718269,26.56137334663173,16.463518737185304,-0.5819592143792356,6.45064635658222,0.3987496176399183,5653.147406684027,11.826666666666666,0.1,177.98961168211423,0.7615975397857253,88.56568782280245,1886.0,1435.0,1200.0,1528.0,1710.0,994.0,160.0,293.7,1649256262.501766,1649256263.6387017,fa5123d4-f777-4b83-90eb-59ba3776707d
0.9583076587443314,1.748912501560807,0.4144776312873535,-0.6489101225287389,-0.1967658058318666,-1.0004143905082572,-0.3321053538407488,-0.3530775277878163,-8.122929726577917,26.179504055333705,16.479194784038768,-0.5915591431542023,6.577537007149732,0.38861699176326,5637.037923177083,11.829,0.1,177.99575278108796,0.7612621668253071,88.40594563522392,1886.0,1435.0,1200.0,1528.0,1710.0,994.0,160.0,293.7,1649256263.7462971,1649256264.8664377,fa5123d4-f777-4b83-90eb-59ba3776707d
0.9350081707466518,1.7305832146927782,0.4127288548427895,-0.6398506674815865,-0.1962267092026458,-0.9938663357750036,-0.3307247404669193,-0.3504477881379267,-7.971749713284064,26.34720506087945,16.038915472711693,-0.5962501509297596,6.510399774913303,0.3855783077958022,5632.92041015625,11.829666666666666,0.1066666666666666,178.00548959520478,0.8089008508693438,88.27527045602324,1886.0,1435.0,1200.0,1528.0,1710.0,994.0,160.0,293.7,1649256264.9871304,1649256266.0980804,fa5123d4-f777-4b83-90eb-59ba3776707d
-0.1706919387217059,-0.2477301578435219,0.2076749500080042,0.1095725303792455,0.0655506957703396,0.2654240211123376,-0.0226639083072239,-0.0443855553158498,-10.437169953595236,28.429591931893857,17.984410965644823,0.5456914716946879,-1.0145054601490469,-0.3627138605033904,5635.38916015625,11.965666666666667,0.1233333333333333,179.25716274174465,0.8879899591464488,88.1205712247819,1475.0,1435.0,1200.0,1528.0,1408.0,994.0,160.0,293.7,1649256267.0093482,1649256268.1456196,f696dcb1-eb8f-40f0-8b3d-26d90730ca5a
-0.1733085294639536,-0.2493342990125199,0.1980369561259147,0.1128202582772918,0.0580953850778468,0.2636226498216049,-0.0351420213165487,-0.0569951553366493,-10.761714047170685,28.48180338150341,17.846072701052886,0.5339982605492062,-1.0180088097472806,-0.322264765891177,5648.59521484375,11.964,0.1277777777777777,179.2629668847193,0.8846843313866558,87.90918977143842,1475.0,1435.0,1200.0,1528.0,1408.0,994.0,160.0,293.7,1649256268.2539108,1649256269.3732216,f696dcb1-eb8f-40f0-8b3d-26d90730ca5a
-0.1694954072406794,-0.2504387896002204,0.1987075395826127,0.1136880722561207,0.0612379234502324,0.263911921130997,-0.0294617844239894,-0.0563377207691888,-10.53750667482971,28.106551020849047,17.87470454420037,0.5303539377894958,-1.0240626680382183,-0.3353213904302984,5665.18603515625,11.966,0.13,179.28068022142187,0.901331559751305,87.74462793676307,1475.0,1435.0,1200.0,1528.0,1408.0,994.0,160.0,293.7,1649256269.4821618,1649256270.602251,f696dcb1-eb8f-40f0-8b3d-26d90730ca5a
-0.3775998506349118,-0.6219289876769974,0.1719893898475341,0.2505134003815751,0.1117946600200267,0.4988133617840769,0.0320083716519566,0.0137842784657851,-10.845343499820292,29.47257332112512,17.553234477714945,0.7570833616179149,-2.430865548390028,-0.500262097622722,5672.6845703125,11.920333333333332,0.12,179.4284411188313,0.9141589573907554,87.4310249236638,1396.0,1435.0,1200.0,1528.0,1340.0,994.0,160.0,293.7,1649256272.5366127,1649256273.6795805,995ac2e4-1db2-440f-88bb-320a2f68ddcc
-0.3735369027505913,-0.6326583275053673,0.1929747082293352,0.2647928837058819,0.1314125143659452,0.4973012618498185,0.0503771003306127,0.0292471453051461,-10.763475575947163,29.941617395483284,17.858292168051477,0.7257185720586707,-2.474810053853013,-0.582618821749036,5675.189127604167,11.921,0.12,179.41746272810536,0.90321560695822,87.24905502379632,1396.0,1435.0,1200.0,1528.0,1340.0,994.0,160.0,293.7,1649256273.7874546,1649256274.729586,995ac2e4-1db2-440f-88bb-320a2f68ddcc
-0.3893153411920322,-0.6486471477381731,0.1877283786675936,0.2738391862044123,0.129519102178849,0.5044935980364517,0.0479445915416339,0.0283267365633122,-10.739226941351768,30.030144620798936,17.807133297261732,0.7218041463376607,-2.53594093836032,-0.571372087708111,5676.44140625,11.924,0.12,179.4491229316381,0.8992660144967579,87.0863872385233,1396.0,1435.0,1200.0,1528.0,1340.0,994.0,160.0,293.7,1649256274.837703,1649256275.8819785,995ac2e4-1db2-440f-88bb-320a2f68ddcc
-0.6602574508343129,-1.1434723050500908,0.1477431946925772,0.4788141965760258,0.1974978595816167,0.8033634351617376,0.1245488950863728,0.1008023499970278,-11.03973263103115,31.55641136958824,18.32578856489495,0.9390893930794282,-4.422051826627778,-0.7767073081151463,5683.9697265625,11.872444444444444,0.1044444444444444,179.6450916836645,0.9234968576293188,86.77731283057125,1314.0,1435.0,1200.0,1528.0,1268.0,994.0,160.0,293.7,1649256278.066369,1649256279.2112167,0e2084b0-cddd-4acc-848f-0aade7d2d454
-0.6673708980276161,-1.1450370010238868,0.1418394302475535,0.4699388273968132,0.1896217908488117,0.8097668496408295,0.1155157409724012,0.0869699216243863,-11.369203016437428,31.89456841339968,17.796809798159632,0.9751969253727116,-4.420175936347723,-0.7464534690680662,5672.6845703125,11.88,0.11,179.652362040581,0.9147296694993724,86.5832413533143,1314.0,1435.0,1200.0,1528.0,1268.0,994.0,160.0,293.7,1649256279.32507,1649256280.4324696,0e2084b0-cddd-4acc-848f-0aade7d2d454
-0.6700926792537669,-1.1562002527073072,0.1323066256683814,0.4771969070844819,0.1856903307994896,0.8157232084944507,0.1095330842596734,0.0785153099878367,-11.49050254156689,31.705773385959777,17.9818137601603,0.970451426025108,-4.464327230367743,-0.7206199139559554,5671.017252604167,11.87888888888889,0.11,179.64301378833702,0.9157885148322668,86.44681743156221,1314.0,1435.0,1200.0,1528.0,1268.0,994.0,160.0,293.7,1649256280.5412755,1649256281.6618822,0e2084b0-cddd-4acc-848f-0aade7d2d454
-0.9065457923960852,-1.5882010995167135,0.1144112504781494,0.6633824283181089,0.2543528194499716,1.0678757374345365,0.1860453456028308,0.166059328015744,-11.48952041939453,33.790752277552166,18.226920589777663,1.130052978904018,-6.110794921342209,-0.9498334775571132,5672.6845703125,11.796444444444443,0.09,179.77299077042255,0.9343047663592504,86.14709962386314,1227.0,1435.0,1200.0,1528.0,1189.0,994.0,160.0,293.7,1649256283.5962222,1649256284.7470138,04870f8c-955f-4d6c-b752-6f100982ce80
-0.8953961974697418,-1.5901157543718678,0.100289045236479,0.668198896427264,0.2447476973575488,1.0680835879565436,0.1734792381954638,0.1483450002890561,-11.621692587743068,33.514940362747,18.52136918132085,1.117104097427342,-6.121143209884565,-0.8993627555733887,5672.6845703125,11.793333333333331,0.09,179.79091622244428,0.9374391117102476,85.94632773103042,1227.0,1435.0,1200.0,1528.0,1189.0,994.0,160.0,293.7,1649256284.8552544,1649256285.9630773,04870f8c-955f-4d6c-b752-6f100982ce80
-0.9233624784871536,-1.595577527296451,0.1012751974200167,0.6663656649181361,0.2445959816294676,1.0733809951108753,0.1738332415323711,0.1536550506163928,-11.690160535567882,33.76779585239074,18.27631869011972,1.1347951856641143,-6.138679188367091,-0.9021786015803543,5668.93310546875,11.798666666666668,0.0844444444444444,179.797386688318,0.947828291898562,85.75739331493925,1227.0,1435.0,1200.0,1528.0,1189.0,994.0,160.0,293.7,1649256286.0718918,1649256287.300197,04870f8c-955f-4d6c-b752-6f100982ce80
0.0975809195875979,0.2449252047732382,0.232105226556261,-0.0615314556059417,-0.0165366156446494,-0.057415913515561,-0.1289185275231549,-0.1461696183869989,-10.44410899467402,27.484034044889828,18.010144010904956,0.2011445602197332,0.8556719993098209,-0.0743945831451561,5668.93310546875,11.952444444444446,0.1166666666666666,179.16294255887405,0.8806899158087659,85.57831486182042,1516.7777777777778,1435.0,1200.0,1528.0,1439.6666666666667,994.0,160.0,293.7,1649256287.9289887,1649256289.133032,deee88c1-d871-49a7-8213-2e7a4c7bc559
0.1037608067014593,0.2534587081858164,0.2377065708334289,-0.0661992429885321,-0.0145117164507946,-0.0622809313324898,-0.1276825500909623,-0.1571487805394746,-10.538897210878272,27.677515409726617,17.920694929736502,0.2022411485363852,0.8900745792877618,-0.0858278152528005,5700.353895399306,11.971333333333332,0.1277777777777777,179.01758095513802,0.9103378222891524,85.90244072997348,1553.0,1435.0,1200.0,1528.0,1471.0,994.0,160.0,293.7,1649256289.2419877,1649256290.3657663,deee88c1-d871-49a7-8213-2e7a4c7bc559
0.0931103628991202,0.2381010317642186,0.2248865926885757,-0.057652590048702,-0.0179172287462786,-0.057087196092811,-0.1333890845003741,-0.1584899475618198,-10.645785818081038,27.16315351107321,17.574294080664167,0.1904758702138624,0.8344269111850167,-0.0577250104502761,5719.793891059027,11.973,0.12,179.03109562277575,0.8960797312489469,86.13912727528192,1553.0,1435.0,1200.0,1528.0,1471.0,994.0,160.0,293.7,1649256290.4742882,1649256291.5907795,deee88c1-d871-49a7-8213-2e7a4c7bc559
0.119210524529262,0.2446490821523744,0.2028625274371681,-0.4172037315554969,-0.0805707686557318,0.2832405034912394,-0.0612027382403659,-0.0820171255041686,-10.38394016477902,26.60793843911021,19.99663773425473,1.762037640001866,0.8785264484264165,-0.0436781504869764,5728.712890625,11.969111111111111,0.1277777777777777,179.0185371816218,0.9829003172173236,86.57472638414903,1553.0,1522.0,1200.0,1528.0,1471.0,994.0,160.0,293.7,1649256293.5290115,1649256294.6667738,0d977429-4915-461c-91cd-86c2c32fcab1
0.1178956549461652,0.2551548899096651,0.2130264691210823,-0.4220161554199895,-0.0759818735724473,0.2830301243629228,-0.0536685351119968,-0.078466977339994,-10.236853754133625,26.8370955169129,20.864188023939167,1.774658077678171,0.9104402356498292,-0.0720486407537406,5733.39501953125,11.966888888888889,0.12,179.03208068783604,0.9959915131265148,86.69611098825868,1553.0,1522.0,1200.0,1528.0,1471.0,994.0,160.0,293.7,1649256294.7747147,1649256295.8934069,0d977429-4915-461c-91cd-86c2c32fcab1
0.1201177845430425,0.2624655646258786,0.2013109813638421,-0.4333240366114952,-0.0884599867566037,0.279874437441758,-0.0658573768676651,-0.0885388789978068,-10.3054165521569,26.675741582681,19.864506825136463,1.791227781804008,0.9478519368598488,-0.0223354298537515,5733.39501953125,11.969666666666669,0.1133333333333333,179.01769630944398,1.010790303760078,86.80358780939838,1553.0,1522.0,1200.0,1528.0,1471.0,994.0,160.0,293.7,1649256296.003225,1649256297.1240091,0d977429-4915-461c-91cd-86c2c32fcab1
0.1450214146830152,0.2517888238357471,0.2030597578917497,-0.8727536246303259,-0.1331918540677769,0.7191591923711232,0.0627105774411895,0.0405813215920644,-9.758295360467091,25.83147659154652,23.808309487427305,3.764999184689789,0.9231811874445148,-0.1456995004158472,5716.82568359375,11.954666666666668,0.1166666666666666,179.007492006824,1.149464666122003,86.98907525668841,1553.0,1613.0,1200.0,1528.0,1471.0,994.0,160.0,293.7,1649256299.0083444,1649256300.060189,6ba94865-ee64-4343-9fc2-196fbde8fef4
0.1648102019542863,0.2561147446772427,0.2071490022400696,-0.8720567434126824,-0.1323634861567362,0.7110727449635249,0.062329265229144,0.0316928027044581,-9.72689987536635,26.078047412043148,23.36394831235316,3.747038999128832,0.9432997900680252,-0.1520353769852348,5717.672688802083,11.953555555555557,0.11,179.01701784398645,1.1581827148354205,87.0165280636924,1553.0,1613.0,1200.0,1528.0,1471.0,994.0,160.0,293.7,1649256300.1908324,1649256301.4264266,6ba94865-ee64-4343-9fc2-196fbde8fef4
0.1399854640995064,0.2526434890533823,0.2002327882647488,-0.8636021273075624,-0.1369655302120427,0.7103890128241303,0.0542428170145006,0.0315350185150523,-9.848822578955222,26.10630763073448,23.83225538545896,3.7262872563720766,0.9255139001066244,-0.1246085339809659,5718.09619140625,11.953444444444443,0.11,179.0128377682144,1.1502432365395805,87.02375136819465,1553.0,1613.0,1200.0,1528.0,1471.0,994.0,160.0,293.7,1649256301.535642,1649256302.6603775,6ba94865-ee64-4343-9fc2-196fbde8fef4
0.1749609951144554,0.2379826935026118,0.1822848186178862,-1.2911059898730477,-0.2039055484954867,1.1330406730226168,0.1509383277769414,0.1269682551543399,-9.55224242837,25.97775667356976,26.21284757674521,5.639168847284228,0.8988236432202018,-0.1485471258249324,5714.28466796875,11.926777777777778,0.1055555555555555,178.99164596794955,1.30021934453799,86.98974840977661,1553.0,1710.0,1200.0,1528.0,1471.0,994.0,160.0,293.7,1649256304.588771,1649256305.7252553,955671b7-85f6-4cc4-9d08-3ad300e0b88e
0.1675117532123534,0.2469096463638173,0.1837959071760583,-1.292006676372143,-0.2044193591544585,1.1261401363590642,0.1503046617561698,0.1311505518811227,-9.470813709063725,25.95185406640006,26.36057838355044,5.625662216996631,0.930625726572446,-0.1476566696133366,5717.672688802083,11.920444444444444,0.11,179.00676800677198,1.3174809756918064,86.90065769897268,1553.0,1710.0,1200.0,1528.0,1471.0,994.0,160.0,293.7,1649256305.8335009,1649256306.9565337,955671b7-85f6-4cc4-9d08-3ad300e0b88e
0.1780509386247165,0.2428345621732501,0.1839941490357901,-1.2910402463845367,-0.2029719910197354,1.1309631791088008,0.1519244799413547,0.1255876420557156,-9.522230065859857,25.944578606963464,26.612314048762336,5.6342960964208375,0.9133679245844628,-0.1523670703792419,5710.4775390625,11.927222222222222,0.1044444444444444,179.00928455202617,1.3036535660242654,86.84203342641655,1553.0,1710.0,1200.0,1528.0,1471.0,994.0,160.0,293.7,1649256307.0699008,1649256308.1231415,955671b7-85f6-4cc4-9d08-3ad300e0b88e
0.1653098523680369,0.245280219556585,0.1632060609985679,-1.4503368623743524,-0.2485322285125581,1.2837641761670224,0.164231659133602,0.1393017317820992,-9.509568431664896,26.56160410687393,27.78130080678471,6.34024242229792,0.9303957440643724,-0.079195162615088,5711.74658203125,11.866666666666664,0.09,179.0110528121113,1.390153559988475,86.73649486118133,1553.0,1814.0,1200.0,1528.0,1471.0,994.0,160.0,293.7,1649256309.0935316,1649256310.227103,a47f0233-26aa-4b6b-bf16-aafa97ac7126
0.1596953592543903,0.2283972944073981,0.185927007279227,-1.439778446861017,-0.2237074871971139,1.285920562071606,0.1870446463382233,0.1634164399539602,-9.64871594348304,26.837081537917133,27.29140730634118,6.324080300216255,0.8725463674522825,-0.1793109218549108,5707.521213107639,11.87788888888889,0.1,178.99550274810088,1.386882765007652,86.58278600736963,1553.0,1814.0,1200.0,1528.0,1471.0,994.0,160.0,293.7,1649256310.335724,1649256311.4631364,a47f0233-26aa-4b6b-bf16-aafa97ac7126
0.1625354775622833,0.2391003326117536,0.1696094758346658,-1.4461161256769726,-0.2413661882631113,1.2812527751134446,0.171397698369123,0.146112756296154,-9.420961410756169,26.58626042267439,27.16784785988561,6.325507132474635,0.9119139874431512,-0.1094111755932923,5676.861545138889,11.880000000000004,0.0944444444444444,179.00969588119622,1.4123270813668172,86.48145483866314,1553.0,1814.0,1200.0,1528.0,1471.0,994.0,160.0,293.7,1649256311.5715244,1649256312.6878543,a47f0233-26aa-4b6b-bf16-aafa97ac7126
0.061921655681493,0.2330650813548208,0.2553521202966674,0.3944653172526524,0.0496670707229601,-0.4866420123579056,-0.2351337054786972,-0.2629037553108255,-10.86325891742267,29.285911538509687,14.695532634948696,-1.7796377487139248,0.7888946075985827,-0.048171157132309,5672.6845703125,11.977,0.12,178.97782014724964,0.7731689830306867,86.38148591324111,1553.0,1349.0,1200.0,1528.0,1471.0,994.0,160.0,293.7,1649256314.6233013,1649256315.8602648,35d8d6bd-28c7-4b9f-b9ee-fa54b67db114
0.087732546247276,0.241887856089665,0.2508684151164058,0.3932556373000908,0.0430795738964437,-0.4905734735421492,-0.2445087269813273,-0.2671244874685893,-11.04662898455575,29.44454995935216,15.152651815241606,-1.7849345870383326,0.8190991744499331,-0.0182305984230853,5683.9697265625,11.9755,0.11875,178.9970258802858,0.7708410691325827,86.65183608937511,1553.0,1349.0,1200.0,1528.0,1471.0,994.0,160.0,293.7,1649256315.9714413,1649256317.0828617,35d8d6bd-28c7-4b9f-b9ee-fa54b67db114
0.0808163320683176,0.2424532500038999,0.2432684691230564,0.3860107062338356,0.0384380841478078,-0.4850641684197452,-0.2440879685892315,-0.2716607883040241,-10.79022926587101,28.87259320576597,15.044139942390675,-1.760269882673099,0.8207672592201917,-0.0018823387090689,5687.74169921875,11.973,0.1133333333333333,179.0005707484651,0.7637915601870823,86.88810684691782,1553.0,1349.0,1200.0,1528.0,1471.0,994.0,160.0,293.7,1649256317.1925583,1649256318.320901,35d8d6bd-28c7-4b9f-b9ee-fa54b67db114
0.057293314602866,0.2480019995322696,0.2790723670191762,0.7934887651894752,0.1102036677905368,-0.8859680713615674,-0.3272929300398319,-0.3539847882517009,-11.04104065358788,30.291963712147744,11.969800105909371,-3.56974949641974,0.8227259984158454,-0.0308179904205507,5675.606553819444,11.944,0.11,179.00233445509073,0.6270024308288031,87.3362871642361,1553.0,1264.0,1200.0,1528.0,1471.0,994.0,160.0,293.7,1649256320.4606674,1649256321.5977688,fd8ec8a7-15c1-42f7-9163-857516d842eb
0.0539929918476895,0.2484885012589002,0.2838847895494029,0.791108851393227,0.1124520947998459,-0.8835355612311531,-0.3257413836403422,-0.3541820184325244,-11.20023026325116,30.61724339918323,12.093186223884931,-3.556579337596143,0.825187429339575,-0.0426821636628879,5676.44140625,11.933333333333332,0.1033333333333333,179.01065666113942,0.6081660379004101,87.47915499001516,1553.0,1264.0,1200.0,1528.0,1471.0,994.0,160.0,293.7,1649256321.7059915,1649256322.8306522,fd8ec8a7-15c1-42f7-9163-857516d842eb
0.0585029946422223,0.249185382135573,0.2957054667604383,0.7900438070943744,0.1230367950832609,-0.8827860851480287,-0.3157746703145309,-0.3361157067244947,-11.34590687931484,30.77869733531736,12.240009465096032,-3.550883722732625,0.8284141647269854,-0.0872883418212439,5676.44140625,11.945666666666666,0.1077777777777777,179.00211285339765,0.5861650499464143,87.62732228368024,1553.0,1264.0,1200.0,1528.0,1471.0,994.0,160.0,293.7,1649256322.93871,1649256324.0510795,fd8ec8a7-15c1-42f7-9163-857516d842eb
0.0253814287001258,0.2480019995204366,0.3142845733455131,1.1586148863201675,0.1732385159164118,-1.236972759580407,-0.4046204267501017,-0.4199781076192674,-11.525038457972558,32.311624174991614,9.685966863548664,-5.167604753004479,0.8037048498373253,-0.0557610296192576,5672.6845703125,11.921,0.1,179.00480546575045,0.4623583433632003,87.78131800543707,1553.0,1178.0,1200.0,1528.0,1471.0,994.0,160.0,293.7,1649256324.9724965,1649256326.1050332,71bc43f8-faf0-4ed5-9eb5-2026c17a5679
0.0185142691703748,0.2483130167454484,0.3132347005782698,1.160781892536205,0.1722275834771475,-1.2400692801769415,-0.4087425438700928,-0.430033321877368,-11.710238578634764,32.44081524600557,9.552366973124014,-5.178761658397786,0.8070350767256139,-0.0473983290218442,5668.93310546875,11.928777777777777,0.1055555555555555,178.99866284895688,0.4572522848529725,87.92342388566873,1553.0,1178.0,1200.0,1528.0,1471.0,994.0,160.0,293.7,1649256326.2134311,1649256327.335681,71bc43f8-faf0-4ed5-9eb5-2026c17a5679
0.0643804618747192,0.2604538141993892,0.3225945488052689,1.1447956070429917,0.1771699759324012,-1.2360786475287957,-0.3964024899955033,-0.4202147837299176,-11.439074072285848,32.27471887860381,9.802024500892704,-5.134191751363388,0.8509973061314285,-0.0825193677184582,5665.18603515625,11.924333333333337,0.1,179.01332195273557,0.4475166387459452,88.0738056784447,1553.0,1178.0,1200.0,1528.0,1471.0,994.0,160.0,293.7,1649256327.4438,1649256328.561342,71bc43f8-faf0-4ed5-9eb5-2026c17a5679
0.0380304745454914,0.2554573098958507,0.3265786034520506,1.325024785073557,0.1941975368680149,-1.4027911245994755,-0.4481557695509,-0.4717445366021396,-11.659848613480673,33.485966562201085,8.802711639487612,-5.90741235836293,0.8207598901063728,-0.0385418488715742,5663.938639322917,11.882,0.1,179.02661198304057,0.3740913907257779,88.27015692106461,1553.0,1088.0,1200.0,1528.0,1471.0,994.0,160.0,293.7,1649256330.4997845,1649256331.8354132,7d7de9e4-48f3-43de-a053-cd970598806c
0.0343619882362312,0.2625576054852601,0.3114576038358495,1.317148716011924,0.1772225707183815,-1.405591800276216,-0.4676289930823447,-0.4965298346377689,-11.89940392066285,33.6143186593433,8.229446833012783,-5.896053399440795,0.8541799593039814,0.0326773107825412,5657.70654296875,11.891,0.1,179.02193558018885,0.3865335852616856,88.32382627083285,1553.0,1088.0,1200.0,1528.0,1471.0,994.0,160.0,293.7,1649256331.943885,1649256333.0663178,7d7de9e4-48f3-43de-a053-cd970598806c
0.0358477909652434,0.2624918620028546,0.3321273528802498,1.317714110022043,0.1935795481394835,-1.4031724378267436,-0.4489052454558529,-0.4745583576324032,-11.801369821006064,33.99389530498152,8.784476588061887,-5.888208861571222,0.8495674824378848,-0.0437426587933645,5665.18603515625,11.894333333333332,0.1,179.0083526106594,0.3486644729691471,88.36954755713691,1553.0,1088.0,1200.0,1528.0,1471.0,994.0,160.0,293.7,1649256333.1748106,1649256334.301388,7d7de9e4-48f3-43de-a053-cd970598806c
0.1028535467016685,0.2496455864757734,0.2352083186965176,-0.0354444413428093,-0.0140252146451245,-0.0868821431150193,-0.1366499615063235,-0.1555446395417104,-10.417980558504889,27.77968918541936,17.87226864879706,0.0781897162699831,0.8714032196614585,-0.0705347747328243,5659.36865234375,11.97388888888889,0.11,178.9984776749394,0.79375378580693,88.37519991813005,1553.0,1435.0,1200.0,1528.0,1471.0,994.0,160.0,293.7,1649256334.9464238,1649256336.1423168,acd856cd-e452-477d-890d-4ef2f85f65ec
0.1004867813786747,0.2466608325935173,0.234235315218641,-0.03845549287443,-0.0153532330038297,-0.0845548237546651,-0.1360582701479621,-0.1602255758092796,-10.326818722011817,27.78503243647221,17.391479108550303,0.0901679280582947,0.864133714662291,-0.0692462065641824,5672.6845703125,11.973222222222224,0.1144444444444444,179.0183322759467,0.8053676390719722,88.37175598496856,1553.0,1435.0,1200.0,1528.0,1471.0,994.0,160.0,293.7,1649256336.2508514,1649256337.3688362,acd856cd-e452-477d-890d-4ef2f85f65ec
0.0917560472157528,0.2500794934227153,0.2202451031181689,-0.0367067162570781,-0.0289095391251665,-0.0900378303700632,-0.1535065912689927,-0.1789230234924973,-10.486594899411353,27.821092682770672,17.196629457744276,0.0733330096442671,0.8787119702245616,-0.0068414985704168,5681.040147569444,11.974777777777778,0.11,179.00136456822855,0.7959490690818052,88.36105307853914,1553.0,1435.0,1200.0,1528.0,1471.0,994.0,160.0,293.7,1649256337.4774182,1649256338.5982037,acd856cd-e452-477d-890d-4ef2f85f65ec
0.1708848993714828,0.2923919955251854,0.4686239578574847,-0.0711825990921945,0.1922778273324968,-0.1072757720893226,0.1056279214719097,0.0802903841329704,-8.6203588548795,27.667025392232684,18.072114001146502,0.124791449023698,1.0364294226915478,-1.008206080251072,5690.678873697917,11.975,0.1122222222222222,178.97485280951025,0.7827236113377575,88.31163058861483,1553.0,1435.0,1200.0,1435.0,1471.0,994.0,160.0,293.7,1649256340.4493887,1649256341.566821,e0e27ed1-6712-4ec2-9e65-bd336877b286
0.1784059533628688,0.2845290756508322,0.4543444749965318,-0.0657390385944142,0.181285517738384,-0.104238423104951,0.0911117610846434,0.0600019459438179,-8.823868906665894,27.702033201354944,18.0110951572619,0.1187463184918714,1.0073450269674185,-0.9542481643263928,5687.74169921875,11.973999999999998,0.11,178.96150206641258,0.7874615096079576,88.31025923841149,1553.0,1435.0,1200.0,1435.0,1471.0,994.0,160.0,293.7,1649256341.675131,1649256342.8948858,e0e27ed1-6712-4ec2-9e65-bd336877b286
0.1718316054640516,0.2861726625750413,0.4479936552608328,-0.0664622169395943,0.1757236194305459,-0.1071705825119577,0.0854972678732045,0.0605804885158818,-8.76476321263686,27.54895218790679,17.684189285132767,0.1124352986211233,1.0156723346231982,-0.9301863266447384,5687.322591145833,11.975555555555555,0.1188888888888888,178.94576682838468,0.7757391440840703,88.30527395922728,1553.0,1435.0,1200.0,1435.0,1471.0,994.0,160.0,293.7,1649256343.0041585,1649256344.1315582,e0e27ed1-6712-4ec2-9e65-bd336877b286
0.2559964063971141,0.321753032352513,0.7414725277788508,-0.0747721933384828,0.4412615233071145,-0.1500879299787597,0.3850771487917869,0.3686281310566563,-6.571149515311308,27.64129997906081,17.721818138163663,0.0510752399433528,1.1528906896068687,-2.1126588942064,5691.51806640625,11.966888888888889,0.1055555555555555,178.8972254328633,0.772799020379628,88.24403751876856,1553.0,1435.0,1200.0,1330.0,1471.0,994.0,160.0,293.7,1649256346.0721798,1649256347.2058232,8e81c782-7d05-441a-8e22-fc99c7c93cbd
0.2478442151741968,0.3378075893524703,0.751018480323801,-0.0825036270771892,0.4463632170549179,-0.1592657206362601,0.3918092807987582,0.3675499380939381,-6.455656837260302,27.59554022390415,17.703896863221754,0.0481189962775847,1.2140027378795843,-2.140255806970267,5694.880045572917,11.961444444444446,0.11,178.89804809120335,0.7699511753767846,88.25364835384069,1553.0,1435.0,1200.0,1330.0,1471.0,994.0,160.0,293.7,1649256347.320877,1649256348.3685863,8e81c782-7d05-441a-8e22-fc99c7c93cbd
0.2651084524003467,0.3208063262816917,0.7492960012786036,-0.073168052314848,0.4478095735258091,-0.1495619820690266,0.3908362773577831,0.3721782788118457,-6.655778613043542,27.85518860823724,17.924758741647295,0.0504357660766524,1.1484423825681582,-2.1404028263204165,5684.388834635417,11.964000000000002,0.1088888888888888,178.89335499233366,0.7770371883335228,88.25105971214526,1553.0,1435.0,1200.0,1330.0,1471.0,994.0,160.0,293.7,1649256348.4770224,1649256349.4235146,8e81c782-7d05-441a-8e22-fc99c7c93cbd
0.3476954082110868,0.3755574935206344,1.0246428267187957,-0.0502630225519063,0.6909552416608556,-0.2404194819221997,0.6468545187480477,0.6226214739240236,-4.9034178322355,28.75353857771628,17.659119687374872,-0.1848958494750072,1.3583947780483885,-3.204111635441929,5689.00048828125,11.947,0.1,178.80887010576004,0.7663162222199011,88.19333550673974,1553.0,1435.0,1200.0,1210.0,1471.0,994.0,160.0,293.7,1649256351.5899544,1649256352.7286243,e5660cf2-0d33-411c-bf27-ba33c237d666
0.3613569026196024,0.3695090937036758,1.0621297575167097,-0.0387184668195774,0.7259439189842347,-0.2434962771496531,0.6857615071506886,0.6607132432398933,-4.465091878673912,28.955853213580166,18.179520940874305,-0.2143401443352514,1.328953455545492,-3.357934708387164,5683.9697265625,11.946,0.1,178.78815186527763,0.7427358478840784,88.1867443741907,1553.0,1435.0,1200.0,1210.0,1471.0,994.0,160.0,293.7,1649256352.8366945,1649256353.952256,e5660cf2-0d33-411c-bf27-ba33c237d666
0.3584291264846995,0.3628805077157073,1.0550223397605123,-0.0362098050597393,0.7221549033857314,-0.2380149137669137,0.6822979217515742,0.6578495670482211,-4.455035978451039,28.77641876132959,18.32515883489032,-0.2091968324452761,1.3019677843388773,-3.338648310227375,5693.619303385417,11.934444444444445,0.1,178.79751226008025,0.7444798584260569,88.18607349783221,1553.0,1435.0,1200.0,1210.0,1471.0,994.0,160.0,293.7,1649256354.0612705,1649256355.185098,e5660cf2-0d33-411c-bf27-ba33c237d666
0.4326622767338504,0.4064043324948559,1.2912589325406438,-0.0005872467788608,0.933167353444544,-0.3319475692447765,0.8976264303716319,0.8761677599057731,-3.0096360194474814,29.595168816936457,17.419035756093987,-0.4828580808510761,1.47361347628506,-4.249677796017459,5683.9697265625,11.929,0.1,178.7622745552422,0.7331008166296685,88.12341030674688,1553.0,1435.0,1200.0,1071.0,1471.0,994.0,160.0,293.7,1649256357.118529,1649256358.2613564,ab9330db-1262-457b-9f70-4a3af57d4400
0.4314000019936959,0.4110589705927002,1.2802929197632862,0.0006618794000895,0.926803384937696,-0.3358658813630868,0.8879095446146681,0.8680418662896437,-3.199001388828175,29.144410615516232,17.600572703040527,-0.4980813224514989,1.4899458978322735,-4.211344405638359,5681.040147569444,11.919555555555556,0.1,178.75487366582152,0.7357362083612193,88.15666270326614,1553.0,1435.0,1200.0,1071.0,1471.0,994.0,160.0,293.7,1649256358.3693187,1649256359.6913254,ab9330db-1262-457b-9f70-4a3af57d4400
0.403853485623967,0.3966874467461275,1.2640279824675782,0.0069995511043216,0.915508655761183,-0.3273586734841281,0.8755103251020606,0.8447029324622412,-3.2499190120609995,29.0573600773363,17.528764735897383,-0.4946847561363638,1.435227870563221,-4.15792037574938,5677.27734375,11.928,0.1,178.76262820725924,0.7365040710343168,88.17815427294454,1553.0,1435.0,1200.0,1071.0,1471.0,994.0,160.0,293.7,1649256359.7985573,1649256360.9166367,ab9330db-1262-457b-9f70-4a3af57d4400
0.0124299627134777,0.1989179187552489,-0.0088972229330634,0.0203060318892887,-0.2312022447529455,-0.0802289024816717,-0.397401790965344,-0.4123124159875708,-12.237563707855347,28.39360823242782,17.10925706203907,-0.0417416153384836,0.6784560836590892,0.9210161307740408,5676.023980034723,11.96922222222222,0.1,178.88277427039938,0.7746677115188775,88.22538503105517,1553.0,1435.0,1200.0,1552.7777777777778,1471.0,994.0,160.0,293.7,1649256361.5009928,1649256362.5703957,b7075305-8873-447e-a00c-f2b877af70f8
0.0021476820919593,0.1997462865701941,0.0001227828145208,0.0169136681867205,-0.2228265243863094,-0.0789140328080747,-0.3853049881703012,-0.4110369918798665,-12.030286130874208,28.25209733053352,17.04941740292762,-0.0315287435727988,0.6816133571787284,0.8802786887972398,5681.877170138889,11.973777777777777,0.1044444444444444,178.99062902867317,0.7737371338183652,88.32403421214758,1553.0,1435.0,1200.0,1613.0,1471.0,994.0,160.0,293.7,1649256362.6783369,1649256363.6863506,b7075305-8873-447e-a00c-f2b877af70f8
0.0052639231541787,0.189634939577744,-0.0001664885304083,0.0317979925129526,-0.2210383015267211,-0.0749825724411435,-0.3885790141752146,-0.4197677282318032,-12.281641299990032,28.59982965508577,18.13111113717904,-0.0539329579343452,0.6340366442739537,0.8830130609708742,5687.74169921875,11.976444444444446,0.1088888888888888,178.98227646622814,0.7878065942436019,88.3140666894188,1553.0,1435.0,1200.0,1613.0,1471.0,994.0,160.0,293.7,1649256363.794916,1649256365.020201,b7075305-8873-447e-a00c-f2b877af70f8
-0.0478173649254677,0.1789581986310961,-0.1831700525351627,0.0623687113645509,-0.3894205308231271,-0.0869741839900323,-0.5886101806517516,-0.6169719279655395,-13.474264488194754,28.84679809167735,17.470166103898663,-0.158020628792966,0.5929302356979499,1.643720071445361,5696.983235677083,11.962666666666667,0.1055555555555555,179.0441837830453,0.7742828730478296,88.2323427170897,1553.0,1435.0,1200.0,1694.0,1471.0,994.0,160.0,293.7,1649256367.156256,1649256368.2926075,1f7af54d-17f1-47a5-a0b7-a11e5e8c125d
-0.0579944561945653,0.1695042863492841,-0.1966080213404107,0.0667077810720762,-0.3997422594178339,-0.08447593157731,-0.6003256726996287,-0.6260708289122516,-13.49701160350569,28.80538166920825,16.980553950505126,-0.1632277731582448,0.5605859050476502,1.6909810907411378,5699.0869140625,11.96022222222222,0.1,179.03674494812924,0.7714771949767373,88.13975419052082,1553.0,1435.0,1200.0,1694.0,1471.0,994.0,160.0,293.7,1649256368.4003627,1649256369.5241632,1f7af54d-17f1-47a5-a0b7-a11e5e8c125d
-0.0585699645039534,0.1810776672210066,-0.1913085905649494,0.0620693256170257,-0.3959225624345268,-0.0913152768832035,-0.5949610029358423,-0.6194251717516946,-13.361119356570216,28.56688413277548,17.056303681645606,-0.1693701492570672,0.6032629440383883,1.6725761359110345,5702.87841796875,11.963555555555557,0.0955555555555555,179.0537703330004,0.7592956830296599,88.10379400345062,1553.0,1435.0,1200.0,1694.0,1471.0,994.0,160.0,293.7,1649256369.6319263,1649256370.7465942,1f7af54d-17f1-47a5-a0b7-a11e5e8c125d
-0.1213580266920131,0.1396567467540244,-0.3848842297999375,0.1314782578941829,-0.5686767509989928,-0.1029235533919216,-0.8136107594746171,-0.833596787523283,-15.082286124865217,29.65505536193483,17.13147177373518,-0.3553046076750579,0.4386261571152444,2.47710156274944,5702.87841796875,11.939666666666668,0.1,179.1313734245302,0.7493826002288038,88.04148218765259,1553.0,1435.0,1200.0,1774.0,1471.0,994.0,160.0,293.7,1649256372.4800255,1649256373.5332758,8795e25b-80ae-4398-9057-9522e37030a0
-0.106394809469764,0.1529632269833284,-0.3905118728562229,0.123049943768714,-0.5780123281685383,-0.1080383965317542,-0.8220785238739571,-0.844799482432129,-15.03606514191274,29.661626100529737,17.099933029482926,-0.3480045532619678,0.4891669893294797,2.511065674865495,5702.87841796875,11.94111111111111,0.09,179.11493847156737,0.747615253207161,87.97454102141711,1553.0,1435.0,1200.0,1774.0,1471.0,994.0,160.0,293.7,1649256373.6413765,1649256374.6407075,8795e25b-80ae-4398-9057-9522e37030a0
-0.1208978222830619,0.1464020277592165,-0.4052910104339562,0.1233392150851257,-0.5862828607130911,-0.1039228543682184,-0.8305462884789452,-0.8558443930401631,-15.068419835630513,29.13462698155058,16.726185280765627,-0.3437142130172284,0.4671185469336532,2.553407479214522,5702.87841796875,11.94511111111111,0.1,179.12337299628246,0.7318784380696152,87.91091780929844,1553.0,1435.0,1200.0,1774.0,1471.0,994.0,160.0,293.7,1649256374.7489798,1649256375.872323,8795e25b-80ae-4398-9057-9522e37030a0
-0.1758725254274482,0.1170146923347733,-0.5463765556155085,0.1981947404821879,-0.7126550253410611,-0.1361897570143558,-1.0000856726970773,-1.0265803133251734,-16.356754204760943,30.311910785505805,16.641594956601956,-0.5849607377446828,0.3486259849393024,3.1548310432231115,5689.001953125,11.910666666666666,0.09,179.13373666998302,0.7281280653879291,87.77588117485773,1553.0,1435.0,1200.0,1856.0,1471.0,994.0,160.0,293.7,1649256378.0114677,1649256379.1477149,df34263f-2761-4385-b25f-d350dedbe6bf
-0.1790282127838873,0.1196707289202675,-0.5468630577329484,0.2054396718037508,-0.713180973609031,-0.1438028527018544,-1.0028731983584762,-1.025462672884614,-16.30151785438163,30.330433980827934,16.86443079833603,-0.6182492764788328,0.3552992656245303,3.1609096233993967,5683.9697265625,11.912,0.09,179.1451248720592,0.7400851475167315,87.69345445195401,1553.0,1435.0,1200.0,1856.0,1471.0,994.0,160.0,293.7,1649256379.2553146,1649256380.5706508,df34263f-2761-4385-b25f-d350dedbe6bf
-0.1741237486912246,0.1166333801533522,-0.5429315962922465,0.2074908683123791,-0.7109193968062841,-0.1460118338394072,-1.0010849742953087,-1.0217810355115389,-16.27687254436526,30.578193696958547,16.41502504407075,-0.6260611912501792,0.3477168888118808,3.1488563775343392,5690.26123046875,11.905666666666669,0.09,179.15350323744107,0.7453219816194274,87.59626086006476,1553.0,1435.0,1200.0,1856.0,1471.0,994.0,160.0,293.7,1649256380.6788871,1649256381.7461388,df34263f-2761-4385-b25f-d350dedbe6bf
0.1002501048941515,0.2339591926633688,0.2004957622145861,-0.0121449509832643,-0.0189033810085375,-0.0936142759344009,-0.1437634066022126,-0.173545206027805,-10.050829140427105,24.974385139759924,17.651200377174945,-0.0096718048143088,0.8068135875855272,-0.0070429239471579,7956.97265625,11.68288888888889,6.96,178.97215109023853,0.5603668740557963,76.27720002998828,1553.0,1435.0,1350.0,1528.0,1471.0,994.0,160.0,293.7,1649256386.5780027,1649256387.55272,c19f5e8d-f8da-4d77-acb4-acd48683bc50
0.0981989083153411,0.2362865117818481,0.1937767787104045,-0.0136439023919159,-0.0265164763327034,-0.0961125283485209,-0.1528491563766345,-0.1766220011620116,-10.130902029543217,25.06823644243351,17.362628438273433,-0.01170316001323,0.8184269882490989,0.0251882153953539,7956.15234375,11.680666666666667,6.989999999999999,178.962831676571,0.4957494662420021,71.35989944186616,1553.0,1435.0,1350.0,1528.0,1471.0,994.0,160.0,293.7,1649256387.6610982,1649256388.7005644,c19f5e8d-f8da-4d77-acb4-acd48683bc50
0.0808294807729227,0.2256097709499545,0.1858349664883319,-0.0065830523529177,-0.0303953418338013,-0.0908267521965324,-0.1573591595412462,-0.1829859709269497,-10.11573414485276,24.95302169735752,17.504458693191523,-0.0168818410041601,0.7756435619124162,0.0467461743029391,7958.61328125,11.684444444444445,6.993333333333333,178.97272786176848,0.4896045074998938,67.68493285495879,1553.0,1435.0,1350.0,1528.0,1471.0,994.0,160.0,293.7,1649256388.8095195,1649256389.998788,c19f5e8d-f8da-4d77-acb4-acd48683bc50
0.2744045801303411,0.5972181952396549,0.2224014891969045,-0.1417911020502893,-0.0781251110136057,-0.3314347699827509,-0.2173172200013779,-0.2371191589909033,-9.812606755917871,24.359519976643213,17.277668488360074,-0.2545611404898747,2.1882207258104382,0.1911939941586,7961.078776041667,11.654999999999998,7.010000000000001,178.68972428587833,0.5164639536777209,61.90008288793906,1631.0,1435.0,1350.0,1528.0,1531.0,994.0,160.0,293.7,1649256391.114248,1649256392.2571278,88f304aa-66fd-4eff-b01f-14c9d6029ea0
0.2832076317355232,0.5994063572280869,0.2202445552500332,-0.1452892034108925,-0.0810112499676361,-0.3281656748620153,-0.2185521018261426,-0.2419869162605037,-9.768910180483644,24.33131613761373,17.576134181219157,-0.2395489822933323,2.193766570855184,0.2005205558831366,7960.256944444444,11.652111111111113,6.996666666666667,178.66296664034982,0.5568934026977274,59.36032106184447,1631.0,1435.0,1350.0,1528.0,1531.0,994.0,160.0,293.7,1649256392.379469,1649256393.4826796,88f304aa-66fd-4eff-b01f-14c9d6029ea0
0.2985718823691858,0.6052520478699261,0.2202976978714003,-0.1494436438242397,-0.0822932479523703,-0.3298963722599708,-0.2168570155935883,-0.2397488984956627,-9.54556336300291,24.168549435222925,17.607989689545352,-0.2350255396403732,2.214340445555284,0.2007196289323862,7966.009765625,11.653555555555556,7.026666666666667,178.6433336410356,0.6037383914868839,57.04107037528393,1631.0,1435.0,1350.0,1528.0,1531.0,994.0,160.0,293.7,1649256393.590749,1649256394.712138,88f304aa-66fd-4eff-b01f-14c9d6029ea0
0.530830434194073,1.053136049748579,0.2569694098694594,-0.316458402627263,-0.1495488333919373,-0.609648101327066,-0.2972876005868416,-0.327266632675318,-9.231835918372084,23.72181735875207,18.19665148640788,-0.4878043268815235,3.909620289706537,0.4108152122262811,7966.009765625,11.624333333333333,7.0088888888888885,178.27030968970453,0.7164285027351771,54.31772710413269,1712.0,1435.0,1350.0,1528.0,1591.0,994.0,160.0,293.7,1649256395.6233528,1649256396.698574,e72cc408-a902-45d5-8fd3-d39b007f0eb0
0.5475950203378355,1.0505589054319124,0.2589548628842024,-0.3179310568557099,-0.1462222130158738,-0.6089512201966728,-0.2915942143156169,-0.3203767147827567,-9.071132463248585,23.50048272326476,17.775594962660815,-0.4842710113493808,3.9028522541252015,0.3947562884893777,7966.009765625,11.623625,7.01375,178.27432014911216,0.7603021339339991,53.10531288887282,1712.0,1435.0,1350.0,1528.0,1591.0,994.0,160.0,293.7,1649256396.8077805,1649256397.846881,e72cc408-a902-45d5-8fd3-d39b007f0eb0
0.5309882185237322,1.0335050474039251,0.2554047150794715,-0.3107518675913104,-0.1470637296519646,-0.5960654936816593,-0.292790745861544,-0.3151566815313126,-9.16451878637096,23.7278385217269,18.151022576018686,-0.4701663229750084,3.83511836133783,0.4008156312178138,7966.009765625,11.618,7.064444444444444,178.27215080514077,0.8139399118642756,52.05555213446145,1712.0,1435.0,1350.0,1528.0,1591.0,994.0,160.0,293.7,1649256397.9541037,1649256399.222492,e72cc408-a902-45d5-8fd3-d39b007f0eb0
0.7906617957646405,1.4742756428469812,0.2969808902014741,-0.4859451313733908,-0.2112425217340972,-0.8691377313203529,-0.3626629289175762,-0.3830960068523904,-8.440604746694811,23.256027437473858,17.686076412062103,-0.689370213598039,5.511470947832866,0.5828809652725845,7958.61328125,11.581111111111111,7.067777777777778,178.10184079709643,0.9541271492693908,49.76038090036483,1796.0,1435.0,1350.0,1528.0,1650.0,994.0,160.0,293.7,1649256401.561328,1649256402.6987886,e61c56dd-9077-4eb0-807d-b1b7b2d0ec86
0.7701366828547759,1.4699102753554838,0.2919580885498958,-0.4837887446187766,-0.2142535734754609,-0.8657716632788589,-0.3669362559654516,-0.3912744973993682,-8.551692716016262,23.2348237156871,17.8038052855649,-0.68709830567822,5.494256715113801,0.599500824920323,7958.61328125,11.581888888888887,7.064444444444444,178.08367249390415,1.0036689066288895,49.10463986163382,1796.0,1435.0,1350.0,1528.0,1650.0,994.0,160.0,293.7,1649256402.807167,1649256404.1319046,e61c56dd-9077-4eb0-807d-b1b7b2d0ec86
0.7800245015002052,1.479337891314926,0.2960473328391555,-0.4869049864724832,-0.2132805698358561,-0.8732795727989396,-0.3651348842437423,-0.3919056349566966,-8.42251798336097,23.250879685025264,17.66361893972202,-0.696587371922233,5.530587392601271,0.5910361430348587,7964.366102430556,11.582,7.077777777777778,178.0991830945994,1.0494345180147566,48.60653579439716,1796.0,1435.0,1350.0,1528.0,1650.0,994.0,160.0,293.7,1649256404.2399795,1649256405.3624585,e61c56dd-9077-4eb0-807d-b1b7b2d0ec86
0.9280130649024286,1.758511051485769,0.3534939827828125,-0.609989968586721,-0.2320700589320778,-1.0473552669313413,-0.384082159353256,-0.4012149142776653,-7.966632080215079,23.712644822867777,15.83232747586839,-0.8042500165124357,6.609464559110089,0.5955460620434554,7973.419921875,11.520666666666664,7.033333333333333,177.9042252105702,1.1369507634932856,47.71331666732388,1886.0,1435.0,1350.0,1528.0,1710.0,994.0,160.0,293.7,1649256407.501582,1649256408.6462767,2e7e5c2a-c19e-48d1-9108-36e28e068f76
0.9100337413908012,1.7428646056436643,0.3486097481830518,-0.6084384219792897,-0.2326764162273766,-1.034683960963004,-0.3830899382716498,-0.4063783066493329,-7.985925023180918,23.61088003048292,15.64382275929706,-0.7802333828131521,6.5520857486073245,0.5994997679979236,7973.419921875,11.522,7.04,177.9458817754082,1.1669114594353505,47.470632457014254,1886.0,1435.0,1350.0,1528.0,1710.0,994.0,160.0,293.7,1649256408.7545495,1649256409.8710518,2e7e5c2a-c19e-48d1-9108-36e28e068f76
0.9402630974271128,1.7268206646379178,0.3542232296361866,-0.6028249395698041,-0.2247366256857765,-1.025315508990304,-0.3720526172250114,-0.3978569384457859,-7.783861334574767,23.6308793706824,15.538545443778974,-0.7713468374959725,6.491079192409335,0.5634114162431608,7966.833116319444,11.525555555555556,7.057777777777777,177.91205564299864,1.1644858647904153,47.23397019682285,1886.0,1435.0,1350.0,1528.0,1710.0,994.0,160.0,293.7,1649256409.9791858,1649256411.0993726,2e7e5c2a-c19e-48d1-9108-36e28e068f76
-0.1967921031185622,-0.277551404741422,0.1584199357284948,0.1740274376955988,0.0518103082444429,0.235379251786306,-0.0545232002535325,-0.0733258368602072,-10.301386187158217,26.029365079230853,17.71299074886525,0.3144435034758077,-1.13600771098457,-0.2338440933859724,7975.069769965277,11.674666666666669,7.095555555555555,179.1970297562918,1.2485494733594376,46.95122654757613,1475.0,1435.0,1350.0,1528.0,1408.0,994.0,160.0,293.7,1649256411.953385,1649256413.1509783,de71494d-ec57-4e11-9298-5e2c5623e79b
-0.1778579787893883,-0.2618387106626406,0.1791291316294853,0.167413643703773,0.0661423871420461,0.2256229196462393,-0.038705318125458,-0.0639508158471854,-10.21722731299712,26.208891635150945,17.78687306886534,0.3097142449556361,-1.0761958310658537,-0.3021824853324059,7988.28173828125,11.67725,7.1075,179.21610419791398,1.2560503106220564,46.72327078643799,1475.0,1435.0,1350.0,1528.0,1408.0,994.0,160.0,293.7,1649256413.2625177,1649256414.368681,de71494d-ec57-4e11-9298-5e2c5623e79b
-0.1937021591877343,-0.2790635050036844,0.1677292123918751,0.1759077012009729,0.0607382730134592,0.2329993378866074,-0.0461737778150065,-0.0653182804073305,-10.325332568918691,26.113297471563587,17.477430133922578,0.3058244394442468,-1.1390616706709338,-0.2711315806318299,7988.28173828125,11.671444444444443,7.097777777777777,179.24938998646914,1.2609052025622194,46.58681318805873,1475.0,1435.0,1350.0,1528.0,1408.0,994.0,160.0,293.7,1649256414.47604,1649256415.6024992,de71494d-ec57-4e11-9298-5e2c5623e79b
-0.4144425047274998,-0.6558526358278104,0.1562766983341869,0.3241855409750046,0.1289405595718811,0.4608136330092033,0.0338228917595892,0.0155987984993889,-10.314030019746252,27.24675985047903,17.0408344687925,0.4901547944458576,-2.567423438786429,-0.5076772148362112,7988.28173828125,11.612,7.062222222222221,179.39379536372138,1.287833460524341,46.50801101887456,1396.0,1435.0,1350.0,1528.0,1340.0,994.0,160.0,293.7,1649256416.5141876,1649256417.6483448,3ca27c25-c94c-4015-8c34-d215fce4f6ad
-0.4122992668201407,-0.6675681285095766,0.1430622589506417,0.3174534089401155,0.1197101749745195,0.4802737017313726,0.0275115174875788,0.0088140709894839,-10.43806004840778,27.07240562098929,17.221593477595754,0.5472227820671165,-2.6120996801635257,-0.469343147774926,7988.28173828125,11.61411111111111,7.07,179.38658116613806,1.2905017640441578,46.4679375401042,1396.0,1435.0,1350.0,1528.0,1340.0,994.0,160.0,293.7,1649256417.7578547,1649256418.8785944,3ca27c25-c94c-4015-8c34-d215fce4f6ad
-0.3937070066722824,-0.6541433046940789,0.154909233942406,0.3135613951194658,0.1263765638443239,0.471621860373224,0.03419105523549,0.0151254454807657,-10.41262565240846,27.266286879025937,17.420865493170552,0.5384800996374474,-2.562461076532454,-0.5022724303742655,7980.84423828125,11.612666666666666,7.073333333333333,179.38066622231682,1.29924808215164,46.43607015416664,1396.0,1435.0,1350.0,1528.0,1340.0,994.0,160.0,293.7,1649256418.9864357,1649256420.0324132,3ca27c25-c94c-4015-8c34-d215fce4f6ad
-0.6803092200245157,-1.1836284546988831,0.1233786611535174,0.5388248407652018,0.2081746004919476,0.7851919386308691,0.1218797098374669,0.1048915944639671,-10.871076622016492,29.27301782792845,17.92763588879426,0.746557650003629,-4.5792985923235605,-0.7580767092427964,7980.84423828125,11.577333333333334,7.056666666666667,179.5742838714489,1.3294233242962274,46.41074267435937,1314.0,1435.0,1350.0,1528.0,1268.0,994.0,160.0,293.7,1649256422.0052948,1649256423.1782253,a613feab-028f-40b5-aa1b-e63ee533447d
-0.6720912817869654,-1.1833917779864405,0.1256139394756683,0.531974370661881,0.2111725031151138,0.7885711532498949,0.1271128908335374,0.1050888250298234,-10.867496301090062,29.07594126955224,17.575545000720016,0.7683547131708045,-4.574333876793356,-0.7731024592151274,7980.84423828125,11.583666666666668,7.069999999999999,179.56169810953827,1.3135701706414125,46.43786990901293,1314.0,1435.0,1350.0,1528.0,1268.0,994.0,160.0,293.7,1649256423.2890513,1649256424.408356,a613feab-028f-40b5-aa1b-e63ee533447d
-0.6759964459764012,-1.1801046013248249,0.1232734716011522,0.5367736443396416,0.2078195857129452,0.7814708579387947,0.1229447542160508,0.1014860823123484,-10.719394064182262,29.10532491980789,17.62606654057467,0.7417342683842003,-4.564239736252372,-0.7588082134994626,7985.802571614583,11.576666666666666,7.066666666666666,179.58545806093102,1.30242216355109,46.46477516251847,1314.0,1435.0,1350.0,1528.0,1268.0,994.0,160.0,293.7,1649256424.5165415,1649256425.6368332,a613feab-028f-40b5-aa1b-e63ee533447d
-0.8015139531351347,-1.4020284986758815,0.1221689811303802,0.5974680204401038,0.2492905716721473,0.9129183627493545,0.1712793602765642,0.1438774781249217,-11.164766943179472,30.097224688003124,13.520541710856005,0.9058445139636886,-5.364575850816666,-0.9154355090790168,7980.84423828125,11.424888888888889,7.01,179.6335608065257,1.3132751799886653,46.60753901764018,1227.0,1435.0,1350.0,1528.0,1189.0,994.0,160.0,293.7,1649256427.5744388,1649256428.708985,81ffb7b0-5c2e-4de6-893d-210822a36840
-0.7847362089736607,-1.4006084380254429,0.1212880184667222,0.5945884562411201,0.2472656725329964,0.913759879238784,0.17150288808771,0.1407612371861514,-11.01793634305508,30.07120340140905,13.458057017337586,0.914078691263339,-5.359436944270351,-0.9116231183064492,7973.419921875,11.432555555555556,7.02888888888889,179.6443403628558,1.2870678745809667,46.66698329235166,1227.0,1435.0,1350.0,1528.0,1189.0,994.0,160.0,293.7,1649256428.8190038,1649256429.9373353,81ffb7b0-5c2e-4de6-893d-210822a36840
-0.8048931696158044,-1.3985703879533136,0.1210776393711518,0.5902493868866877,0.2471078882183878,0.9158768191854592,0.1720288359449694,0.1468885294464813,-11.072833910844574,29.99597833844692,13.477273661638726,0.9280898930689044,-5.351055162889901,-0.9116421333254096,7973.419921875,11.441,7.022222222222222,179.66237661572407,1.2858080841340531,46.73957492230551,1227.0,1435.0,1350.0,1528.0,1189.0,994.0,160.0,293.7,1649256430.0459907,1649256431.16313,81ffb7b0-5c2e-4de6-893d-210822a36840
0.0818550790236275,0.2220596231313697,0.1952625813182893,-0.0035457034624592,-0.0182853922806705,-0.0961651231488646,-0.1482997071514717,-0.1733216781728553,-10.308890123875456,24.845531296331,16.722644711756608,-0.0361943783150712,0.77084653213177,0.0029057998239373,7977.544542100694,11.675777777777776,7.117777777777778,179.01689338276157,1.195611641594496,46.90338638480955,1553.0,1435.0,1350.0,1528.0,1471.0,994.0,160.0,293.7,1649256433.100085,1649256434.238738,a489721c-5526-4aa7-86f3-cbbd26d2010e
0.0838931269822435,0.2204028874829186,0.188569895188142,-0.0016259937801374,-0.0242811979285401,-0.0967305171106743,-0.1561100333044245,-0.1834330265285539,-10.394597313233426,24.897921793891737,16.606860743914623,-0.0418428363509414,0.7656058215102844,0.0308870368490114,7980.84423828125,11.678,7.110000000000001,179.0095319566561,1.1857077131444025,46.97338292233376,1553.0,1435.0,1350.0,1528.0,1471.0,994.0,160.0,293.7,1649256434.3469417,1649256435.4677355,a489721c-5526-4aa7-86f3-cbbd26d2010e
0.0851291043921051,0.2325785796267724,0.1994570152564463,-0.0110667579182455,-0.0178251878942372,-0.0984266990474347,-0.1445917745034377,-0.1691666897952135,-10.12779371057008,24.820648557314595,16.911430401466607,-0.0241456281697746,0.8085355412965096,-0.0071078238882232,7980.84423828125,11.67688888888889,7.107777777777778,178.99415340628488,1.1911846592271391,47.00767957888611,1553.0,1435.0,1350.0,1528.0,1471.0,994.0,160.0,293.7,1649256435.5760107,1649256436.69646,a489721c-5526-4aa7-86f3-cbbd26d2010e
0.1015386770812157,0.2111725031382119,0.1682683089202308,-0.4642760746680283,-0.0915104844592115,0.3636579243112414,-0.0455557890843188,-0.0687632390168572,-10.101671749567773,23.97168224984884,20.56059556587173,2.0299633583235903,0.7495305678553857,-0.0062886817478348,7980.84423828125,11.666222222222224,7.085555555555555,179.00199446345204,1.3294919226371102,47.09311500011922,1553.0,1522.0,1350.0,1528.0,1471.0,994.0,160.0,293.7,1649256438.630888,1649256439.7734556,f792376a-30f9-4ced-8a4a-86ebec55fe0c
0.1034057919575331,0.2209156866068635,0.1801547299083176,-0.4720995507856728,-0.0835555228290021,0.3610807800353539,-0.0336562186071497,-0.0618996192745419,-9.896944271410938,23.94275849119489,20.618030364471405,2.04233235174366,0.7858316582790323,-0.0489222025268092,7980.84423828125,11.666888888888888,7.082222222222224,179.00013058071852,1.3413795230064656,47.158346721787424,1553.0,1522.0,1350.0,1528.0,1471.0,994.0,160.0,293.7,1649256439.8811347,1649256441.0033467,f792376a-30f9-4ced-8a4a-86ebec55fe0c
0.1051151224237845,0.2263198005138447,0.1773146116130291,-0.4789763205822696,-0.0863298978826753,0.3598579513823352,-0.0347081143358643,-0.0610318053246709,-9.837774801024336,23.696160547787848,20.28460073242544,2.0532972876310023,0.8092992096116549,-0.0395084180645227,7988.28173828125,11.665555555555551,7.101111111111111,178.99642254690914,1.3342281726498544,47.17920384278292,1553.0,1522.0,1350.0,1528.0,1471.0,994.0,160.0,293.7,1649256441.1145103,1649256442.2266152,f792376a-30f9-4ced-8a4a-86ebec55fe0c
0.1235364455102397,0.212106060520992,0.1581175157340773,-0.974301063259005,-0.1591342337257761,0.8518163764522235,0.0828412312647164,0.0597784181361335,-9.494732994133052,23.13943342964656,23.78160294030405,4.272208442697655,0.782325877330265,-0.0822060632107502,7980.84423828125,11.652555555555557,7.082222222222224,178.99395608970886,1.4812659712128198,47.19065844947599,1553.0,1613.0,1350.0,1528.0,1471.0,994.0,160.0,293.7,1649256444.574438,1649256445.7085843,bdf74a37-fb7b-4fa5-8987-14fddeab0f6d
0.1198679593406883,0.1949864587375544,0.1510435173550022,-0.9593641353132528,-0.1601861295044439,0.8557741336758435,0.0777526858631695,0.0521784717271444,-9.629998032096715,23.13460702063748,23.868856607232395,4.246969588774013,0.7160134164811853,-0.0657957550830943,7980.84423828125,11.652555555555557,7.098888888888888,179.0073827237973,1.4925624874857204,47.20011105183232,1553.0,1613.0,1350.0,1528.0,1471.0,994.0,160.0,293.7,1649256445.8175142,1649256446.941983,bdf74a37-fb7b-4fa5-8987-14fddeab0f6d
0.1089150955934429,0.2004826135460607,0.1558427913613151,-0.9675426293909984,-0.1586608806090539,0.8572073414481138,0.0835644095659755,0.0569645971163095,-9.428506781004469,23.139047595371995,23.80731495809794,4.268998901280302,0.7370579465510396,-0.0820441825979357,7982.497016059027,11.647777777777778,7.102222222222222,178.9980708992288,1.486697667292305,47.19924172053297,1553.0,1613.0,1350.0,1528.0,1471.0,994.0,160.0,293.7,1649256447.0541737,1649256448.1679351,bdf74a37-fb7b-4fa5-8987-14fddeab0f6d
0.1309988362306039,0.1878416597671612,0.1409741449233865,-1.4390952179378012,-0.2258997795508161,1.324141799177216,0.1950734424023811,0.1692438410090265,-9.313696954105865,22.853474662570346,27.06943029209214,6.379914418219124,0.7170328233228667,-0.129825626985028,7995.7333984375,11.611333333333333,7.066666666666666,178.9985672263085,1.6576532230769698,47.1704259113346,1553.0,1710.0,1350.0,1528.0,1471.0,994.0,160.0,293.7,1649256450.099211,1649256451.240518,ab0312ce-e1ac-4d7a-b531-a3318233a6ed
0.1625304203893587,0.1963250971045262,0.1466761274580675,-1.4469591581803944,-0.2228528217359197,1.3239774404668117,0.2022420101523028,0.1789030752401048,-9.106959673657627,22.72658507254272,27.24816412728185,6.396859516490006,0.7471310647906524,-0.1505483490389337,7989.109700520833,11.603333333333332,7.071111111111112,178.9838261602598,1.6623559269001964,47.22199649575286,1553.0,1710.0,1350.0,1528.0,1471.0,994.0,160.0,293.7,1649256451.3541107,1649256452.470924,ab0312ce-e1ac-4d7a-b531-a3318233a6ed
0.1446663998780132,0.2017711857240904,0.1493604843090082,-1.447746563612374,-0.2217877772079556,1.3181874625565209,0.2021919439724405,0.1809962464057239,-9.136632014836934,22.788957759529552,27.09022867439913,6.386131883776601,0.7694351779515283,-0.1552037987697054,7992.421549479167,11.616666666666667,7.0744444444444445,178.97728739249436,1.6621860970923965,47.21968675344854,1553.0,1710.0,1350.0,1528.0,1471.0,994.0,160.0,293.7,1649256452.5792568,1649256453.6964817,ab0312ce-e1ac-4d7a-b531-a3318233a6ed
