raw_voltage_G-,raw_voltage_G0,raw_voltage_G1,raw_voltage_G2,raw_voltage_G3,raw_voltage_G4,raw_voltage_G5,raw_voltage_G6,load_x,load_y,load_z,load_l,load_m,load_n,rpm,voltage,current,roll,pitch,yaw,aileron1_pwm,elevator_pwm,throttle_pwm,rudder_pwm,aileron2_pwm,pbaro,pdiff,Tt,sample_start_time,sample_end_time,uid
0.0684434089998025,0.2090555631188763,0.149623458194891,-0.05763944140824,-0.0838316455099735,-0.029159364348377,-0.2127151759182486,-0.2423917867147688,-11.9443248261992,27.71488686087345,16.90594622882151,0.2523534924555358,0.7358394910564426,0.2419966207437933,5629.637098524306,11.968555555555556,0.13,178.94109801463202,0.7078853886844865,92.1112921446496,1553.0,1435.0,1200.0,1528.0,1471.0,994.0,160.0,293.7,1649254759.5228355,1649254760.505347,7e849de0-b149-4692-957b-c5a179601d01
0.0665070106388354,0.1949343696599282,0.1445268213995266,-0.0381389127464908,-0.0846650705844549,-0.0299336203071259,-0.2185415660885295,-0.2423103657969843,-12.007184516427154,27.86131795826031,17.337909344080927,0.2073793673332455,0.6767713085271113,0.2573420961011177,5592.497450086806,11.973222222222224,0.1255555555555555,178.9569197683894,0.693269714711093,91.65785485840016,1553.0,1435.0,1200.0,1528.0,1471.0,994.0,160.0,293.7,1649254760.6129868,1649254761.7316377,7e849de0-b149-4692-957b-c5a179601d01
0.0282346958255189,0.1923567195793532,0.1409716163084943,-0.0384160467881789,-0.0873291988666125,-0.0302901522391514,-0.2228396730779683,-0.2396568576106842,-12.137037954343498,27.89374346593567,16.862260547760652,0.2071000800248483,0.6720475775223423,0.2708471553460914,5580.35546875,11.979,0.13,178.9483744428278,0.6818846787122299,91.27353225636206,1553.0,1435.0,1200.0,1528.0,1471.0,994.0,160.0,293.7,1649254761.8417604,1649254762.9713247,7e849de0-b149-4692-957b-c5a179601d01
0.2429134543005331,0.548594321161462,0.1878730142792115,-0.186444078170658,-0.1261835985646835,-0.2333717798599386,-0.2599715956914721,-0.284296687325811,-11.464245001174593,27.387080485162528,18.274611173920388,0.0842039686600679,2.0120658079204907,0.357181733316703,5583.9912109375,11.966,0.12,178.69622662596817,0.6755313576975506,90.7399533249412,1631.0,1435.0,1200.0,1528.0,1531.0,994.0,160.0,293.7,1649254764.084769,1649254765.2135754,f2111d52-82c3-4eac-9e8f-adc918a20e1d
0.267383176737086,0.5646883238447842,0.1822059264224048,-0.2039844406475693,-0.1361766083851681,-0.2357253967647318,-0.2702275800701216,-0.2950523220583471,-11.733423313950052,27.45999771084608,17.82516695297451,0.1184758899938256,2.080118261302589,0.3940612845497975,5583.9912109375,11.948125,0.12125,178.72471989845576,0.6968517776281633,90.4593950516377,1631.0,1435.0,1200.0,1528.0,1531.0,994.0,160.0,293.7,1649254765.321689,1649254766.44221,f2111d52-82c3-4eac-9e8f-adc918a20e1d
0.2484885012384642,0.5589423441282865,0.1698461524006267,-0.1964502369494232,-0.1455253320831525,-0.2361330063983484,-0.2826268022860261,-0.3121193326471332,-11.809122328445124,27.42961790798612,17.85855272039108,0.0997150103850618,2.057095544915663,0.4406735816432882,5605.498426649306,11.94611111111111,0.12,178.72027040966643,0.7090872648190625,90.29245374981024,1631.0,1435.0,1200.0,1528.0,1531.0,994.0,160.0,293.7,1649254766.5509808,1649254767.682462,f2111d52-82c3-4eac-9e8f-adc918a20e1d
0.4965912323080397,1.005682407920138,0.2216914596174655,-0.385291839387326,-0.1983305007256997,-0.4932163621410023,-0.3336437514016982,-0.3645957879684762,-10.996426430273903,26.4557703289126,18.828241504342067,-0.0553157663297076,3.744816654231094,0.5692980312388689,5632.92041015625,11.939,0.1266666666666666,178.30176498756214,0.7192474676586392,90.040129865852,1712.0,1435.0,1200.0,1528.0,1591.0,994.0,160.0,293.7,1649254768.5781405,1649254769.7174025,bbcd3930-b5c7-4409-93f5-3735a18a6a79
0.4996022834792717,1.0043543896927445,0.2140783648346933,-0.3888156906625607,-0.2064038010307645,-0.4908890423270473,-0.3427820968142923,-0.3726427912465462,-11.151003662609387,26.596499472594395,18.44768621682686,-0.0417216665825007,3.744256308589694,0.6027885161533512,5635.38916015625,11.921,0.12,178.32614420943966,0.7346261721834517,89.93526597152479,1712.0,1435.0,1200.0,1528.0,1591.0,994.0,160.0,293.7,1649254769.8258858,1649254770.9470634,bbcd3930-b5c7-4409-93f5-3735a18a6a79
0.5046382336805323,0.9996734541352432,0.2118693839738472,-0.3830302631669917,-0.2054439460740141,-0.4869049863503963,-0.3416776061036145,-0.3676331371099867,-11.100427604351262,26.405142636909705,19.116760926460085,-0.0470658748407111,3.719556404236093,0.6034615934573675,5635.38916015625,11.922444444444446,0.12,178.33192103165769,0.7555858942410889,89.83960234200958,1712.0,1435.0,1200.0,1528.0,1591.0,994.0,160.0,293.7,1649254771.0554411,1649254772.1752388,bbcd3930-b5c7-4409-93f5-3735a18a6a79
0.7507949525085816,1.4422191191552356,0.2526960838058432,-0.5739625284209385,-0.2728310222288745,-0.750838854980666,-0.4109318022041157,-0.4333897802554123,-10.45498870747715,25.99824432155526,18.13728710599775,-0.2099598242333824,5.409573650384544,0.7893080276878824,5642.80859375,11.904777777777776,0.1144444444444444,178.14366887557358,0.7635750040591007,89.70004715797798,1796.0,1435.0,1200.0,1528.0,1650.0,994.0,160.0,293.7,1649254773.086216,1649254774.2297204,977f4f2f-f9b2-47cb-9f06-34b3565bfdb0
0.744154861545252,1.427269050597558,0.2548656185554501,-0.5638774753340314,-0.2690441972115774,-0.7413323436167149,-0.4065006906963875,-0.4274728661178267,-10.374773589969276,26.226355364054413,18.74837097483969,-0.2095888402239152,5.346417759586415,0.7739877839235036,5645.699815538194,11.889111111111111,0.12,178.15000121984409,0.7765238687866813,89.58977678946775,1796.0,1435.0,1200.0,1528.0,1650.0,994.0,160.0,293.7,1649254774.3600533,1649254775.4513175,977f4f2f-f9b2-47cb-9f06-34b3565bfdb0
0.7357659941319149,1.434211562652579,0.2458193160353482,-0.5654553193853739,-0.276433765471682,-0.7463814450804126,-0.4167698245359243,-0.4425544234529247,-10.549531297621828,26.00131208732699,18.720368014170297,-0.2194103327280757,5.373558444879329,0.8117616716239996,5650.24853515625,11.882888888888887,0.1177777777777777,178.17157551070244,0.7884380843636618,89.49422851425854,1796.0,1435.0,1200.0,1528.0,1650.0,994.0,160.0,293.7,1649254775.559286,1649254776.6823747,977f4f2f-f9b2-47cb-9f06-34b3565bfdb0
0.8924852905133495,1.6798818322687743,0.2991898709985183,-0.6948516839346159,-0.2959332848368962,-0.8884794742997438,-0.4287219922019232,-0.4593190152246474,-10.004319465919275,26.65994534426729,15.95110638568188,-0.2399804152960649,6.3349823834963495,0.8073848543565307,5650.24853515625,11.860666666666669,0.1066666666666666,178.05046411415958,0.7938628909641405,89.23498488976117,1886.0,1435.0,1200.0,1528.0,1710.0,994.0,160.0,293.7,1649254778.6147363,1649254779.758288,f1c5489c-3d36-44a2-93b8-fc2a8117da0e
0.8761809085746478,1.6712168401270862,0.3061586795227883,-0.682768027739167,-0.2862163969442632,-0.8887950429508189,-0.422121345250768,-0.4465253310434986,-10.103608280447634,26.743709947744883,16.33264358697354,-0.2670341824633125,6.29876003110345,0.774744730472259,5642.80859375,11.82288888888889,0.1088888888888888,178.12162102493278,0.8050381832372412,89.05340582849618,1886.0,1435.0,1200.0,1528.0,1710.0,994.0,160.0,293.7,1649254779.8712187,1649254780.988478,f1c5489c-3d36-44a2-93b8-fc2a8117da0e
0.8530786512162193,1.667009256541059,0.292983686723457,-0.6776531834311499,-0.2941187645861685,-0.8870988601206339,-0.4323247357081287,-0.4511142272064999,-10.202227995677235,26.412810724852296,16.571608217047988,-0.2776216166993311,6.280088520143775,0.8179340682396382,5642.80859375,11.821,0.1044444444444444,178.09795973182807,0.8121964230728587,88.92916544640357,1886.0,1435.0,1200.0,1528.0,1710.0,994.0,160.0,293.7,1649254781.0966778,1649254782.2108574,f1c5489c-3d36-44a2-93b8-fc2a8117da0e
-0.2179220600860286,-0.2959464333719119,0.1092569616364647,0.1608787418845652,-0.0092390890861148,0.2655292106794203,-0.1370707197735849,-0.1592920181627347,-12.639895443082729,29.08981512189946,17.18444882491554,0.4284334296710654,-1.1852102863434903,0.0278740249466454,5632.509331597223,11.826222222222222,0.1122222222222222,179.37248517351094,0.841556892425674,88.71048176192744,1475.0,1435.0,1200.0,1528.0,1408.0,994.0,160.0,293.7,1649254782.9773247,1649254783.931675,1a2fa644-90fb-44ee-a266-190436027ecd
-0.2152397257849287,-0.3054134960523151,0.1291377900104461,0.1823900082144239,0.0082749746800496,0.2545894960072542,-0.1188466255121706,-0.1369655304301069,-12.078571311784604,29.46071884005133,17.265740559375725,0.3590704962852465,-1.2267927966436516,-0.0496296739650592,5644.4619140625,11.96577777777778,0.13,179.32324861651406,0.8469070175480404,88.6201009042803,1475.0,1435.0,1200.0,1528.0,1408.0,994.0,160.0,293.7,1649254784.0610588,1649254785.010268,1a2fa644-90fb-44ee-a266-190436027ecd
-0.232083207489868,-0.3016792657642834,0.1194866471375486,0.1779194516527616,0.0006224332926751,0.2557071351227238,-0.1306278581885702,-0.1472083654213795,-12.51824466663266,29.384492845642853,17.280284706656918,0.370461585162415,-1.209866869697502,-0.0091201331317506,5665.1884765625,11.9655,0.13,179.34147915031872,0.8486780583264999,88.47878277253292,1475.0,1435.0,1200.0,1528.0,1408.0,994.0,160.0,293.7,1649254785.1191556,1649254786.3034232,1a2fa644-90fb-44ee-a266-190436027ecd
-0.4397011556958686,-0.6711708726033817,0.0903885827684503,0.3369397754533856,0.0529279473820432,0.4687291474528923,-0.077848988434999,-0.105014196271916,-13.012118099557211,30.665707124322857,16.991664338595857,0.4971894235819949,-2.611033233659507,-0.1604366370039321,5668.93310546875,11.971,0.13,179.451527158226,0.8394770464625523,88.18727712894595,1396.0,1435.0,1200.0,1528.0,1340.0,994.0,160.0,293.7,1649254787.9410164,1649254788.976321,cb9d8f99-c340-4d9d-9099-246ed4dcbb72
-0.4440796724960992,-0.670085599022622,0.0941572014016167,0.3374333572542522,0.0576822125633647,0.4698811754288181,-0.0683050573860908,-0.0915681364652111,-12.615915711042618,30.299696515252727,17.424497169918293,0.4966945423969537,-2.6134312749209565,-0.1844642744127187,5672.687255859375,11.9165,0.12,179.47462685799894,0.8485488183407985,88.0098800407278,1396.0,1435.0,1200.0,1528.0,1340.0,994.0,160.0,293.7,1649254789.0845034,1649254790.4044924,cb9d8f99-c340-4d9d-9099-246ed4dcbb72
-0.4279988135034791,-0.6750891855226615,0.088389980972055,0.3317328920884554,0.051455293426656,0.4736862054981166,-0.0730234167160859,-0.0914710387102092,-12.606864325947086,30.37991406677224,16.481429345327406,0.5182026343497429,-2.623565844904729,-0.1634158144562954,5676.44140625,11.917777777777776,0.12,179.49151260344703,0.8513891157474497,87.81095343733585,1396.0,1435.0,1200.0,1528.0,1340.0,994.0,160.0,293.7,1649254790.5126274,1649254791.635318,cb9d8f99-c340-4d9d-9099-246ed4dcbb72
-0.7073823960833451,-1.1867446982369316,0.0639860009482862,0.5701581809609929,0.137395171036388,0.7612876111044043,0.0136133453905209,-0.0154847201876852,-12.901336500325652,32.41039978657204,17.524888015978476,0.6389156401754318,-4.580616950542001,-0.4299434214446492,5671.439019097223,11.902111111111113,0.1155555555555555,179.63812792635068,0.8751322584715402,87.55732802288577,1314.0,1435.0,1200.0,1528.0,1268.0,994.0,160.0,293.7,1649254792.5413854,1649254793.6762516,a945e3ec-da67-40c2-bea5-89187917e977
-0.7113796013360815,-1.1876914051333445,0.0618164660480263,0.5682647688802878,0.1350678518351431,0.7633388075238753,0.0109967547685799,-0.0203760352395785,-12.98289154113924,32.47554246355833,17.418047186038784,0.6480617527218072,-4.582546835499276,-0.4204563581330561,5668.93310546875,11.877333333333333,0.1133333333333333,179.6547025187366,0.884610225019958,87.35915311975747,1314.0,1435.0,1200.0,1528.0,1268.0,994.0,160.0,293.7,1649254793.7840707,1649254794.9120896,a945e3ec-da67-40c2-bea5-89187917e977
-0.7016364135181071,-1.1835232650718717,0.0610012469168797,0.5767719745375743,0.1349889596845812,0.751504982027499,0.0050929901143351,-0.0169442253077399,-13.161250871310015,32.527948000736984,17.404450241824076,0.6024942562594798,-4.566629094080906,-0.4104184469368101,5668.93310546875,11.877777777777778,0.11,179.6475702834233,0.8957030866333098,87.1598284681189,1314.0,1435.0,1200.0,1528.0,1268.0,994.0,160.0,293.7,1649254795.0197833,1649254796.1534493,a945e3ec-da67-40c2-bea5-89187917e977
-0.951027857029948,-1.6024806014751432,0.0396609128723279,0.7674149029821856,0.2035462596045718,0.9883655761351112,0.0767007901412266,0.0466297218952782,-13.274177761815752,34.10238386716033,17.850498745905455,0.7140966761803696,-6.165926264376741,-0.6257793370468403,5676.44140625,11.848,0.0999999999999999,179.79050033981483,0.897780092613261,86.73211670992335,1227.0,1435.0,1200.0,1528.0,1189.0,994.0,160.0,293.7,1649254798.4813774,1649254799.615761,0dfb748d-5ae6-477a-af26-c0a6a36d64fc
-0.9585479042565064,-1.6060459254805168,0.0450518783766716,0.7716437255830495,0.2085002835803874,0.9876489722374896,0.080528072191798,0.0645347060217799,-13.308859028277148,34.28902574281523,17.839024248920285,0.7044336026867406,-6.179126968225414,-0.6458359747071274,5686.903483072917,11.794777777777776,0.09,179.78659802506905,0.9121361067475046,86.49822371198542,1227.0,1435.0,1200.0,1528.0,1189.0,994.0,160.0,293.7,1649254799.7250202,1649254800.844674,0dfb748d-5ae6-477a-af26-c0a6a36d64fc
-0.9555641599189486,-1.5912915527296705,0.0472264704259406,0.7627177845547938,0.2064141924130172,0.9809229088690122,0.0792511314692241,0.060021163207906,-13.290621499621809,34.31271844246689,17.772662332939323,0.7097179200797765,-6.122092782839723,-0.6425243104228205,5674.771701388889,11.793777777777777,0.09,179.7770372780508,0.9231310037639326,86.27907405682595,1227.0,1435.0,1200.0,1528.0,1189.0,994.0,160.0,293.7,1649254800.9529035,1649254802.283633,0dfb748d-5ae6-477a-af26-c0a6a36d64fc
0.0520732821813507,0.20224453877109,0.1505175695426085,-0.0361281735759923,-0.0806102147443954,-0.0413745035114133,-0.2185531976173891,-0.2478484962332343,-12.176341252299215,28.02799048609644,17.01505822201896,0.1784010182846717,0.7083826014964513,0.2439298551701298,5672.6845703125,11.796,0.09,179.04888750665373,0.9170777604699762,86.07679648673621,1553.0,1435.0,1200.0,1528.0,1471.0,994.0,160.0,293.7,1649254802.943858,1649254803.9277036,835feb02-1b75-48a9-9692-4f1d7a7e1f62
0.0433031017816802,0.1967483839531142,0.1494788225734163,-0.0317233601878234,-0.0791901554595338,-0.0361413222454826,-0.2178300192272838,-0.2421945564590079,-12.249425162847238,27.982574950832475,17.56943568373616,0.1799232901761441,0.6827635677460537,0.2425049746990911,5678.322265625,11.974,0.13,179.0454792422579,0.9292415269689756,86.33272709003117,1553.0,1435.0,1200.0,1528.0,1471.0,994.0,160.0,293.7,1649254804.039931,1649254805.3491542,835feb02-1b75-48a9-9692-4f1d7a7e1f62
0.0512580630079306,0.2063074857419669,0.1472961390235791,-0.0423343584153819,-0.0853700430472029,-0.0392707120618465,-0.222234833029049,-0.2538706001435944,-12.206239758647914,28.056757346064416,17.04085756709407,0.1971475067242647,0.7241644587624708,0.2604868152610461,5680.621636284723,11.971555555555556,0.13,179.06095113854775,0.9320272895839724,86.59147552581372,1553.0,1435.0,1200.0,1528.0,1471.0,994.0,160.0,293.7,1649254805.4585285,1649254806.5793865,835feb02-1b75-48a9-9692-4f1d7a7e1f62
0.0526882366256449,0.2019512216978558,0.1183937882495852,-0.4167581929378406,-0.1518498554164209,0.3250432404992059,-0.1473363122443318,-0.1652008406012235,-11.995098721100664,27.23803461325815,19.39471222526099,1.85403298348868,0.7297227094619524,0.2837857617675334,5692.464172363281,11.9725,0.1225,179.05241017671815,1.0348252858821034,86.96687258842641,1553.0,1511.125,1200.0,1528.0,1471.0,994.0,160.0,293.7,1649254808.5166752,1649254809.6569395,be760e37-b281-44a7-b368-7a305457696e
0.0605278938617873,0.1873076204288477,0.129887265681082,-0.4019906868630919,-0.1338624376109938,0.3302076434531694,-0.1298915310710595,-0.1521522755056178,-11.94355502216547,26.968093191657807,20.13624524892029,1.83125318542512,0.6667691504293749,0.2183320294429493,5713.438639322917,11.973666666666666,0.12,179.0586607484461,1.0584983331969384,87.06019953433555,1553.0,1522.0,1200.0,1528.0,1471.0,994.0,160.0,293.7,1649254809.765241,1649254810.8830273,be760e37-b281-44a7-b368-7a305457696e
0.0772530353695528,0.202060457021682,0.1366456953502041,-0.4184134118998919,-0.1351378613133516,0.329707993030088,-0.1265912081694527,-0.1486021272371971,-11.828151448437277,27.24034333783436,20.005238386710005,1.869354560059864,0.7249006242415195,0.2075830555621553,5733.39501953125,11.973333333333333,0.12,179.0514738716194,1.0466728448603482,87.16900292999405,1553.0,1522.0,1200.0,1528.0,1471.0,994.0,160.0,293.7,1649254810.991686,1649254812.1116474,be760e37-b281-44a7-b368-7a305457696e
0.0871934496583754,0.1988390265819695,0.0985539230987656,-0.8416174960190367,-0.2173829635050718,0.7447859988882208,-0.0482118258392581,-0.0711957477680015,-11.533247312520125,26.4581402321394,23.324660091841025,3.7503305369342304,0.7309884917797891,0.261040126191403,5741.07568359375,11.971125,0.12,179.04760001599516,1.1979190241633275,87.30616565054137,1553.0,1613.0,1200.0,1528.0,1471.0,994.0,160.0,293.7,1649254813.021909,1649254814.158909,be620624-a9b2-4c1d-a70b-c02ed4273e76
0.0961345629908867,0.1974715622258301,0.1235101481395489,-0.8315587384045102,-0.1938730922265128,0.7354109793639776,-0.027226505960611,-0.0452139232119783,-11.544556360145569,26.718303888884428,23.292021481270048,3.70952993775793,0.7265770423117738,0.1648841399036882,5727.437879774306,11.95,0.1177777777777777,179.06018008608146,1.20360301035528,87.26652968333285,1553.0,1613.0,1200.0,1528.0,1471.0,994.0,160.0,293.7,1649254814.2670505,1649254815.3883,be620624-a9b2-4c1d-a70b-c02ed4273e76
0.084537413043705,0.1802599195065482,0.1181191827665568,-0.8241560188430609,-0.1954246385705166,0.7428005459455983,-0.0310396279933102,-0.0592172853805592,-11.71034605546802,26.863800727465183,22.87809636028236,3.70998320455354,0.6656142199823002,0.1769977916207958,5704.146158854167,11.96,0.12,179.07158194853594,1.2176984693738422,87.2705245850874,1553.0,1613.0,1200.0,1528.0,1471.0,994.0,160.0,293.7,1649254815.4962077,1649254816.6131046,be620624-a9b2-4c1d-a70b-c02ed4273e76
0.091085463731903,0.1815090455909875,0.0887844418943271,-1.2572480668244113,-0.2742379329053097,1.158956752401992,0.0521916204436924,0.027248543452761,-11.50691450471448,26.469955481535106,25.727608575232807,5.618576427656788,0.6950607643704173,0.2065039096907938,5697.403971354167,11.943666666666669,0.1155555555555555,179.05731292444986,1.3694648695606366,87.23849631024939,1553.0,1710.0,1200.0,1528.0,1471.0,994.0,160.0,293.7,1649254817.527217,1649254818.6740203,9c71b2ee-f1f9-4611-a972-fa3d872c2098
0.0975940682975649,0.1831526325703552,0.093360188138848,-1.258931101546992,-0.2704642565714653,1.1591408341619012,0.0598836077407046,0.0386879093084351,-11.20752711442856,26.312869820771176,25.80986952892213,5.622136916587172,0.698871779168727,0.1847490080114651,5695.30029296875,11.926555555555556,0.1111111111111111,179.05604858054352,1.3720875673381832,87.13202656255731,1553.0,1710.0,1200.0,1528.0,1471.0,994.0,160.0,293.7,1649254818.7822008,1649254819.893904,9c71b2ee-f1f9-4611-a972-fa3d872c2098
0.1099012477976262,0.1813644099536856,0.0849055765357054,-1.2556307757592104,-0.2773673230451129,1.1568529610647176,0.0493777994274837,0.0228437299711829,-11.396470282084344,26.356033863289127,25.595196400035583,5.609286860986967,0.6944632069406841,0.219993770006616,5699.508192274306,11.924111111111111,0.11,179.06163871092426,1.3760545554376873,87.05217861552023,1553.0,1710.0,1200.0,1528.0,1471.0,994.0,160.0,293.7,1649254820.0026906,1649254821.1227295,9c71b2ee-f1f9-4611-a972-fa3d872c2098
0.1080341329388889,0.1791291316692181,0.0821706476780002,-1.4824854578369964,-0.3148148154593825,1.3773303000624832,0.0967394029296862,0.0671679853820563,-11.350465517167516,27.19422452050837,27.090663220433186,6.622139293010793,0.7002711614306806,0.2068316210053191,5702.87841796875,11.891666666666666,0.0966666666666666,179.04954320481406,1.4729675403885674,86.91850574218383,1553.0,1814.0,1200.0,1528.0,1471.0,994.0,160.0,293.7,1649254822.033097,1649254823.1707537,5a6cdbec-701a-4180-9fcf-f70f2277b075
0.1063905459298287,0.1816931273033348,0.0680620967608683,-1.4664703288821792,-0.3247026365257469,1.363813440197215,0.0811713467754539,0.0540324378358138,-11.296945894202649,26.90139516012272,27.51145660154222,6.553089201360019,0.7029082458480357,0.2628980615165394,5699.929470486111,11.869444444444444,0.0977777777777777,179.06082971296254,1.4720363935056244,86.75214586020947,1553.0,1814.0,1200.0,1528.0,1471.0,994.0,160.0,293.7,1649254823.2786129,1649254824.3331602,5a6cdbec-701a-4180-9fcf-f70f2277b075
0.1207883680727153,0.1830737403932453,0.0740579022050921,-1.4825117563349324,-0.324847272199353,1.3717946989649648,0.0856419034557413,0.059660079839403,-11.303798605011048,27.317808767763395,26.774228209313687,6.610147724896454,0.7170311300485582,0.2473679073640991,5699.0869140625,11.863666666666669,0.1,179.0487175108344,1.4870433270393637,86.65581970234477,1553.0,1814.0,1200.0,1528.0,1471.0,994.0,160.0,293.7,1649254824.4415472,1649254825.4032657,5a6cdbec-701a-4180-9fcf-f70f2277b075
0.0261177556648072,0.1993912717975546,0.1849934499532398,0.4252201152897746,-0.002980309527977,-0.4800413652039816,-0.3124217522605003,-0.3421246619490466,-12.328571503960497,29.507388844719262,14.406270111978545,-1.83699940601298,0.6672890146421221,0.2241563216939662,5694.459798177083,11.891,0.1044444444444444,179.03980031941796,0.8398423370744913,86.49021797136827,1553.0,1349.0,1200.0,1528.0,1471.0,994.0,160.0,293.7,1649254827.5627518,1649254828.706149,62652d73-7c39-4f25-8882-3cd79135a3f7
0.0240797077367226,0.2015082118125413,0.1773935037981228,0.4253384535443337,-0.0108169326512707,-0.4774379227144368,-0.3220071533052056,-0.3514865353632991,-12.489392242867035,29.615521026459025,15.019751270654028,-1.8310608311326484,0.6704352762295223,0.2598028209567589,5699.929470486111,11.977555555555556,0.12,179.06357848464847,0.8168308842942221,86.8248775090413,1553.0,1349.0,1200.0,1528.0,1471.0,994.0,160.0,293.7,1649254828.8149347,1649254830.1376884,62652d73-7c39-4f25-8882-3cd79135a3f7
0.0188202291826133,0.1989705135357463,0.1586171661964053,0.4200658267873736,-0.0287780521627437,-0.477661450583779,-0.3403627362483724,-0.3652795203145115,-12.517487527125834,29.56368396013893,13.80283301826891,-1.821156070627597,0.6713597064717861,0.3339271477161016,5709.632703993056,11.976444444444446,0.12,179.06975752911762,0.8040614424699949,87.06555440264486,1553.0,1349.0,1200.0,1528.0,1471.0,994.0,160.0,293.7,1649254830.2456396,1649254831.2984362,62652d73-7c39-4f25-8882-3cd79135a3f7
0.0131005462052253,0.2010611561429069,0.2268720457224911,0.8417839221126023,0.0719409621753284,-0.8797355860250841,-0.3964156385484749,-0.4207933266237944,-12.80208179940903,31.583524323241253,12.16610945736372,-3.6595787979068906,0.6481601418745107,0.1841268583014619,5737.23291015625,11.966,0.11,179.0420679422224,0.6224688749802563,87.56860997757481,1553.0,1264.0,1200.0,1528.0,1471.0,994.0,160.0,293.7,1649254832.9405768,1649254834.0314815,9a616a5a-b8f5-49cd-9c85-2e10e79254f2
0.0142181854226253,0.1999698144160317,0.2364179987347159,0.8399036587156707,0.0817761869023964,-0.8771058453687032,-0.3822807873333892,-0.4019775383655473,-12.542835863395606,31.36830040358856,12.234138176571015,-3.650238084632361,0.6424621441728636,0.137810764080593,5735.100748697917,11.937777777777775,0.1055555555555555,179.0494490999855,0.6357966610531975,87.73242827026803,1553.0,1264.0,1200.0,1528.0,1471.0,994.0,160.0,293.7,1649254834.1443818,1649254835.249857,9a616a5a-b8f5-49cd-9c85-2e10e79254f2
0.0102998738983708,0.2120797631348134,0.2006403978495402,0.8133432946952494,0.0457356105499609,-0.8704263041502653,-0.4168224193868555,-0.4456838139763508,-12.825694540693728,31.037510622008103,11.129024676150276,-3.5796074661714568,0.7006748421232,0.2844597729506162,5733.39501953125,11.942333333333332,0.11,179.04922901611224,0.6259231305023008,87.87391563892484,1553.0,1264.0,1200.0,1528.0,1471.0,994.0,160.0,293.7,1649254835.358916,1649254836.4828346,9a616a5a-b8f5-49cd-9c85-2e10e79254f2
0.004764272727302,0.2106071092114965,0.2352477647960721,1.1990997209716654,0.1119787417265717,-1.2369070160069338,-0.4967533624532879,-0.5211573491559754,-13.215940377530597,32.89311248050652,9.129581819526129,-5.259801483666386,0.6703650897660306,0.2602148522268619,5691.51806640625,11.936333333333332,0.1066666666666666,179.06368624985544,0.4816282635764122,88.2392298245028,1553.0,1178.0,1200.0,1528.0,1471.0,994.0,160.0,293.7,1649254838.6363366,1649254839.759772,001ef086-b5b8-4434-ad9c-4644a9ada85c
-0.025464580579834,0.2032175422365104,0.2338408543679496,1.19352467391374,0.1109136973439642,-1.2243237030906498,-0.4947416114133826,-0.5133207244014452,-13.236103058628933,32.95225017050142,9.161012217644446,-5.218632322171096,0.643112080403798,0.2597818875816342,5684.807942708333,11.924555555555555,0.1077777777777777,179.0785426702101,0.4676133260848625,88.37309394313597,1553.0,1178.0,1200.0,1528.0,1471.0,994.0,160.0,293.7,1649254839.8677466,1649254841.195409,001ef086-b5b8-4434-ad9c-4644a9ada85c
0.0168453961680214,0.2191962417965904,0.2474280083509612,1.1915801840586195,0.1209476695289335,-1.23685796122195,-0.4846889249082352,-0.5170423119974376,-13.13146500712637,32.885330199678336,9.441391222358748,-5.242081885933169,0.7009159507849178,0.2156940503855864,5694.880045572917,11.923444444444446,0.1011111111111111,179.06318688713608,0.4560292659626844,88.4913556329751,1553.0,1178.0,1200.0,1528.0,1471.0,994.0,160.0,293.7,1649254841.3039448,1649254842.4352586,001ef086-b5b8-4434-ad9c-4644a9ada85c
-0.0120134640338694,0.2212575526703271,0.2523673663315319,1.39505474367934,0.1371847917612235,-1.432336276211604,-0.5488748089761085,-0.5677300448771642,-13.501360669456089,34.542982749813774,8.330103550175666,-6.129465131014338,0.69640363320481,0.2777597581124963,5686.903483072917,11.911222222222223,0.1,179.07607924864948,0.3290811792893671,88.78007987175008,1553.0,1088.0,1200.0,1528.0,1471.0,994.0,160.0,293.7,1649254844.561487,1649254845.6945715,91b3aaa2-dbcb-4b7b-b4f0-e538d50249a5
-0.0003637189591205,0.228318402227871,0.2666862958144967,1.380170419288973,0.1475854102929986,-1.4267875216568635,-0.5322811493612933,-0.5521882812096234,-13.368716898606468,34.50701079840556,8.272755435488104,-6.082888796949264,0.7251952795282709,0.2212001234343276,5680.203125,11.884555555555556,0.1,179.07928336628007,0.3868913282774323,88.82361170297018,1553.0,1088.0,1200.0,1528.0,1471.0,994.0,160.0,293.7,1649254845.8033726,1649254846.9279015,91b3aaa2-dbcb-4b7b-b4f0-e538d50249a5
-0.013827984174457,0.2214679318164248,0.2498691142249394,1.385456195385098,0.1350152569906235,-1.4251702303132052,-0.5491903776096196,-0.5806552173779239,-13.618367225949992,34.44437630769946,8.112730716731507,-6.092581714661788,0.7009691350731111,0.2841627921468612,5680.203125,11.887555555555556,0.1,179.07115999462724,0.33975746754666,88.84964307171693,1553.0,1088.0,1200.0,1528.0,1471.0,994.0,160.0,293.7,1649254847.0368302,1649254848.1565564,91b3aaa2-dbcb-4b7b-b4f0-e538d50249a5
0.0686800855164418,0.2072936379027973,0.1553168435326833,-0.0193635853805511,-0.0752323977206367,-0.0565612482338796,-0.2174750044076172,-0.2458498941276839,-12.039551415114152,27.999225486372087,17.775781494186703,0.1066959768580646,0.717849037966618,0.2304663520415048,5672.689778645833,11.921333333333331,0.1033333333333333,179.0847869809313,0.7783541460408332,88.8748312915561,1553.0,1435.0,1200.0,1528.0,1471.0,994.0,160.0,293.7,1649254849.0672786,1649254850.4112222,b919ce21-3b00-426a-9c3c-bb22e8035013
0.0360976162068658,0.1912653778470261,0.1569604304855464,-0.014235593738513,-0.0726552531785071,-0.0527086800757106,-0.2157788224696509,-0.2392623966759948,-12.08407332342893,28.31423381460725,16.77206809998297,0.1057733781438361,0.6664224907216415,0.2188302682413476,5680.203125,11.973666666666666,0.1122222222222222,179.08906571499134,0.7958362820257453,88.86442815454028,1553.0,1435.0,1200.0,1528.0,1471.0,994.0,160.0,293.7,1649254850.5193987,1649254851.6387312,b919ce21-3b00-426a-9c3c-bb22e8035013
0.0499037473176307,0.198023807440911,0.1480587634325708,-0.0028225251594406,-0.0797555494121506,-0.0632276374919703,-0.2256797917099072,-0.2514249420523759,-11.923447054533105,28.06731205073816,17.64131889885704,0.0545300908000596,0.6809559907629272,0.2570894652493835,5676.026150173611,11.974555555555556,0.1144444444444444,179.07574684610984,0.8052855878671772,88.87148829341234,1553.0,1435.0,1200.0,1528.0,1471.0,994.0,160.0,293.7,1649254851.7464125,1649254852.8691103,b919ce21-3b00-426a-9c3c-bb22e8035013
0.1092832590503469,0.2306062752755629,0.3446975056869878,-0.0352077648159735,0.094990626445181,-0.077875285748635,-0.0211518081645965,-0.0404803921917382,-10.54215849930659,27.981291909460364,17.39641302296565,0.1045453603271843,0.8120059339248502,-0.5358512841840432,5674.771701388889,11.975555555555555,0.1144444444444444,179.0486355485643,0.802661099536567,88.78682885755994,1553.0,1435.0,1200.0,1435.0,1471.0,994.0,160.0,293.7,1649254854.2047856,1649254855.3314457,1156b1af-b466-4f68-89e4-d138a898c286
0.1172382201640573,0.2324207952734008,0.3397667449588273,-0.0351288726277071,0.0907304489432104,-0.0809915269071691,-0.0256223649680506,-0.0501183868927075,-10.48681739704516,27.848149820458325,17.18172670552917,0.0962302900100925,0.8199980005760678,-0.5169516803820577,5675.606553819444,11.974333333333332,0.12,179.04486224850285,0.7998618069808706,88.77401314594728,1553.0,1435.0,1200.0,1435.0,1471.0,994.0,160.0,293.7,1649254855.4393218,1649254856.490553,1156b1af-b466-4f68-89e4-d138a898c286
0.1144112505015811,0.2337619622257903,0.3384913214990764,-0.0403752026215958,0.0864571226774096,-0.0770600665397596,-0.0292645539602918,-0.0575999953686718,-10.568853028018916,28.13636858397429,17.218669968005607,0.1187109652560463,0.8258513613657885,-0.5042142854550257,5676.44140625,11.974666666666666,0.11,179.04455564890011,0.8027836338417552,88.76468766100048,1553.0,1435.0,1200.0,1435.0,1471.0,994.0,160.0,293.7,1649254856.5989857,1649254857.649479,1156b1af-b466-4f68-89e4-d138a898c286
0.206083957901188,0.2735630636247548,0.623423544315136,-0.0558906647345411,0.3425411196373729,-0.1170978487859868,0.2602171376302963,0.242479547296505,-8.567896063646096,28.28104119061075,17.238949552784245,0.0798970418937059,0.9807635941298608,-1.6475157393280846,5680.203125,11.972,0.1188888888888888,178.9993655995315,0.8047000829443418,88.68886117756473,1553.0,1435.0,1200.0,1330.0,1471.0,994.0,160.0,293.7,1649254858.4877515,1649254859.632594,fd48c69f-9a3f-4efa-b989-11984c06eb90
0.1793202934853198,0.2653810349759179,0.6169189860583895,-0.0480636501221329,0.3409860335684637,-0.1151093612082289,0.2564550935699992,0.2350505343686252,-8.642274940657533,28.07231033576153,17.36985068329309,0.0649854519860463,0.9480627067794702,-1.631877999560731,5683.9697265625,11.964222222222222,0.1122222222222222,178.9947711589498,0.8122622110754893,88.66383840008542,1553.0,1435.0,1200.0,1330.0,1471.0,994.0,160.0,293.7,1649254859.7402928,1649254860.8532212,fd48c69f-9a3f-4efa-b989-11984c06eb90
0.1801810273340854,0.2664364706552232,0.6205834262026627,-0.0485010971656225,0.3428961344230706,-0.1175843505976282,0.2579555620203118,0.2396657264483824,-8.656294024094978,28.234690338087045,17.125912302288054,0.061623552987583,0.9545713945366828,-1.6419076376043966,5684.807942708333,11.964444444444446,0.11,178.99137427820258,0.8114206985674354,88.66623655539404,1553.0,1435.0,1200.0,1330.0,1471.0,994.0,160.0,293.7,1649254860.9632962,1649254862.08273,fd48c69f-9a3f-4efa-b989-11984c06eb90
0.282267500009278,0.3136665846866533,0.8891192245387568,-0.0470284431341444,0.5831885376822137,-0.1781866961255568,0.523309380620664,0.5000756364495949,-6.678250341926737,28.450218807433245,17.324527705403305,-0.0620525444034779,1.13279868527275,-2.7057430011398305,5687.74169921875,11.963111111111113,0.11,178.93397185059797,0.8045877168461213,88.55702183056552,1553.0,1435.0,1200.0,1210.0,1471.0,994.0,160.0,293.7,1649254864.026517,1649254865.1557534,c86a7cf0-bb41-4ee5-8c02-7f7e397a3b96
0.286304149516316,0.3095641917287278,0.8848458985875167,-0.0427419679838643,0.5843587715460731,-0.1733742728953704,0.5225336076304842,0.5044804493201436,-6.861843675431759,28.11534219143058,17.983523148276518,-0.0633277137602333,1.1120666437394546,-2.699927655302936,5690.678873697917,11.948333333333332,0.1,178.9187344574696,0.8095149749962796,88.55180811949907,1553.0,1435.0,1200.0,1210.0,1471.0,994.0,160.0,293.7,1649254865.2636154,1649254866.3837197,c86a7cf0-bb41-4ee5-8c02-7f7e397a3b96
0.2858439451643962,0.314784223799539,0.8904735401336517,-0.0476858779502935,0.5850030575944668,-0.1760960532493055,0.5255841048642114,0.4984057521936165,-6.695458819720361,28.376772358704883,17.706061542917745,-0.0562388719575524,1.1338963391454997,-2.712613547412745,5690.25927734375,11.952000000000002,0.1,178.9151250819482,0.8049904430608549,88.5527969791089,1553.0,1435.0,1200.0,1210.0,1471.0,994.0,160.0,293.7,1649254866.491908,1649254867.6145933,c86a7cf0-bb41-4ee5-8c02-7f7e397a3b96
0.3701402310695225,0.3493126977556124,1.149068933261018,0.009826520775956,0.8183397988325654,-0.2793659251183635,0.7603803511780898,0.734017217718477,-5.060383892621225,29.516383129399863,17.24099834898736,-0.3968540808484341,1.2652801833660348,-3.712518414379426,5687.74169921875,11.949333333333335,0.1033333333333333,178.86707697786687,0.7618927320239168,88.48582925102666,1553.0,1435.0,1200.0,1071.0,1471.0,994.0,160.0,293.7,1649254869.547022,1649254870.6870108,44fe2046-e278-4ca9-8a50-045cdea39c54
0.3587140148673735,0.3524289385438349,1.1305424209509372,0.0071704841146365,0.7977620911016915,-0.2821008542896208,0.734188150755626,0.7121772353548592,-5.463498750838585,29.930453885748605,16.763864552497648,-0.3954650110868417,1.283209508890573,-3.6227160726813294,5705.41845703125,11.940333333333331,0.1,178.87112500331497,0.7511817147448674,88.49257292446718,1553.0,1435.0,1200.0,1071.0,1471.0,994.0,160.0,293.7,1649254870.7988694,1649254871.914505,44fe2046-e278-4ca9-8a50-045cdea39c54
0.3434220822507978,0.3424490788116026,1.13613061669342,0.0173870212620377,0.8065191220086989,-0.2818510290487472,0.7468371953467501,0.7208159279571511,-4.964070153409299,29.61690336467461,16.817968011346746,-0.4194899105599006,1.2408556865649576,-3.660834062577511,5721.91357421875,11.933222222222222,0.0944444444444444,178.85674517838234,0.7509582513509283,88.48881176696423,1553.0,1435.0,1200.0,1071.0,1471.0,994.0,160.0,293.7,1649254872.0231743,1649254873.3476746,44fe2046-e278-4ca9-8a50-045cdea39c54
-0.0290410261211782,0.1637320088988899,-0.1142051354298426,0.0254340234905717,-0.3221386402383752,-0.051643635644058,-0.509297221824645,-0.5297828962330091,-13.997633811572948,28.94056854065539,16.11027429097095,0.0082628202199343,0.5605007819060206,1.3406594620796897,5734.247884114583,11.943222222222223,0.1022222222222222,179.12414860220815,0.7864026109142104,88.71853000149946,1553.0,1435.0,1200.0,1613.0,1471.0,994.0,160.0,293.7,1649254873.9344318,1649254875.1900933,bf1670bc-158a-4eed-8a41-57be164c9d26
-0.0517751226343421,0.1488739825704346,-0.1070127981865929,0.0449598374863123,-0.3083456558069505,-0.0502893199008829,-0.4980550836752466,-0.5248915801403246,-13.954001738339937,28.74579619458079,16.861881971690547,-0.0335305691497001,0.4958524595554974,1.295606470902273,5746.851196289063,11.97175,0.11,179.11126762434347,0.7823722360504557,88.6510520962317,1553.0,1435.0,1200.0,1613.0,1471.0,994.0,160.0,293.7,1649254875.298691,1649254876.415004,bf1670bc-158a-4eed-8a41-57be164c9d26
-0.0519723530645444,0.153660107868178,-0.1030681890570238,0.0425273287080066,-0.3052820090846269,-0.0539972523591246,-0.4934924848535247,-0.5170549551972141,-13.822178212192766,28.61830873551828,16.71667395332406,-0.0369811496006839,0.5147046988300078,1.2800580689670855,5750.491427951389,11.97422222222222,0.1044444444444444,179.11536649675537,0.7903468672903832,88.61102585960309,1553.0,1435.0,1200.0,1613.0,1471.0,994.0,160.0,293.7,1649254876.522359,1649254877.649623,bf1670bc-158a-4eed-8a41-57be164c9d26
-0.0831479131897859,0.1210513420096218,-0.2875970101780621,0.0939913255630798,-0.4714158184812229,-0.0582442814169208,-0.695798390154538,-0.7258037271917479,-15.159746474872088,29.29333852098672,16.81733394583113,-0.1679856604571598,0.3829538185028716,2.041347032778938,5752.63525390625,11.97,0.1077777777777777,179.14515674627532,0.7741634455300765,88.55263836693818,1553.0,1435.0,1200.0,1694.0,1471.0,994.0,160.0,293.7,1649254878.5609272,1649254879.497104,d046adb5-18b3-4beb-bbe0-9123aa8762c0
-0.1179788114758272,0.1220374942040321,-0.2856641515737113,0.0849450226636089,-0.4716787924921655,-0.0551674863725709,-0.6933527317725614,-0.7135491372423602,-15.1299002488321,29.36412890441165,16.22408590500174,-0.1401794700670321,0.3929367139759128,2.034783517545556,5754.352267795139,11.965777777777776,0.1,179.1413788927544,0.7751894857964103,88.48999035405102,1553.0,1435.0,1200.0,1694.0,1471.0,994.0,160.0,293.7,1649254879.6057725,1649254880.6635363,d046adb5-18b3-4beb-bbe0-9123aa8762c0
-0.1163736589955965,0.1284196689352952,-0.2803910179314815,0.0822854460179376,-0.4663439605518716,-0.0557632234656112,-0.6878363458304751,-0.7053215902050984,-15.189326257079472,29.21073640612117,16.723621675890676,-0.1362233927484331,0.4135261172203489,2.013950136427382,5749.205132378473,11.964444444444446,0.1,179.13264383971585,0.7858013645397723,88.46362506494486,1553.0,1435.0,1200.0,1694.0,1471.0,994.0,160.0,293.7,1649254880.7712104,1649254881.823859,d046adb5-18b3-4beb-bbe0-9123aa8762c0
-0.1674573591097668,0.0941359612242128,-0.4736116514265563,0.1432463407132018,-0.6394956521401725,-0.0682898857848925,-0.9048496096966204,-0.9234418767132264,-16.871618418870916,30.089345431895666,16.566609658288478,-0.3065538623188388,0.2784999647478323,2.8167783028672604,5690.678873697917,11.957666666666666,0.0977777777777778,179.15617308249665,0.7723451270359559,88.36182640773515,1553.0,1435.0,1200.0,1774.0,1471.0,994.0,160.0,293.7,1649254883.4846952,1649254884.6163616,8749edde-e6f0-41e5-bdd8-24878ef9b7f2
-0.1691535410879366,0.0923608872722191,-0.4769382723868649,0.1468753808074287,-0.6413627676527461,-0.0706040563874586,-0.9093859124309032,-0.9343947471156944,-16.996656661832326,30.095120096360944,16.435844636652984,-0.3201514863221155,0.2732287106180268,2.829857451595018,5680.203125,11.93277777777778,0.1044444444444444,179.16271640372153,0.774640912512759,88.2862329096411,1553.0,1435.0,1200.0,1774.0,1471.0,994.0,160.0,293.7,1649254884.724409,1649254885.841333,8749edde-e6f0-41e5-bdd8-24878ef9b7f2
-0.1753334288603607,0.0874695723000153,-0.4965035371053282,0.1409979137226612,-0.6599813280230464,-0.0624124182963143,-0.9236391069051292,-0.9544991154782788,-16.73986217535859,29.914762553615777,16.02049621035391,-0.2905924326490822,0.2562272497523443,2.90120413386286,5676.44140625,11.927888888888887,0.1,179.15080455380902,0.7762482836974353,88.21778986069813,1553.0,1435.0,1200.0,1774.0,1471.0,994.0,160.0,293.7,1649254885.9520085,1649254887.0762985,8749edde-e6f0-41e5-bdd8-24878ef9b7f2
-0.2107034251388786,0.0641569340204958,-0.6242563079957569,0.2229011396206519,-0.775847686494879,-0.10815673479141,-1.0813315212951589,-1.1015147842969697,-17.61325638013602,31.090863900078503,15.883481871954007,-0.5771658333500311,0.1580237676341865,3.4542903677003083,5668.93310546875,11.925000000000002,0.0977777777777777,179.16834751523723,0.7646699153995655,88.09664886666887,1553.0,1435.0,1200.0,1856.0,1471.0,994.0,160.0,293.7,1649254887.9351437,1649254889.1237538,aa3a22c5-a602-4f49-b131-90a7c31d059c
-0.2132411238052612,0.0808426294636976,-0.6313566065098045,0.2142624465948219,-0.7793057952743299,-0.1126667378777905,-1.088799986161226,-1.1120337498421826,-18.06396789579854,30.50337653960092,16.38873392600159,-0.5722080462497822,0.2199207830144244,3.481894189758864,5672.6845703125,11.887,0.09,179.19561211258412,0.7632184527690686,87.96960203573728,1553.0,1435.0,1200.0,1856.0,1471.0,994.0,160.0,293.7,1649254889.236036,1649254890.3537357,aa3a22c5-a602-4f49-b131-90a7c31d059c
-0.2118210644089646,0.0769637641127118,-0.6368922093914523,0.2085296152891572,-0.7852753059181776,-0.1054349545197956,-1.0913245374809697,-1.1131119429463276,-17.940786383035285,30.49646301497236,16.09461749677039,-0.5433317446468274,0.2074623669291818,3.500319485127351,5668.100423177083,11.879,0.0922222222222222,179.1959308547454,0.7535440293472581,87.8792090355316,1553.0,1435.0,1200.0,1856.0,1471.0,994.0,160.0,293.7,1649254890.462506,1649254891.5776532,aa3a22c5-a602-4f49-b131-90a7c31d059c
0.0422117599924869,0.1716606724671952,0.0905200697781181,-0.0052024392149997,-0.1061581328871673,-0.0364042961769582,-0.2503073026422926,-0.279431668655549,-12.099027537012589,25.37758436140748,17.188040059003285,0.0993180126356025,0.5839380763519081,0.4036776469630841,7943.861328125,11.683222222222222,6.974444444444444,179.03625165668916,0.6144772690601259,76.70480705861658,1553.0,1435.0,1350.0,1528.0,1471.0,994.0,160.0,293.7,1649254896.533947,1649254897.5168724,421c4dd9-a9b4-4ef8-bdfe-ab00cb946234
0.018373173493524,0.1752897125057547,0.0918480880594625,-0.0063858219208146,-0.1053955084960808,-0.0390734816082757,-0.2478747935473123,-0.2752109366924329,-11.932664218386565,25.245481651308605,17.17436084257374,0.0952613821594496,0.5967205914545574,0.3979453193743471,7943.861328125,11.680333333333332,6.995555555555556,179.02980092247307,0.5701998029266269,72.05252691720983,1553.0,1435.0,1350.0,1528.0,1471.0,994.0,160.0,293.7,1649254897.62504,1649254898.7399893,421c4dd9-a9b4-4ef8-bdfe-ab00cb946234
0.0138894680719707,0.1764205003459671,0.094648760346147,-0.008818330749716,-0.1042515718242413,-0.0400859312472941,-0.2462049089332016,-0.272949360453232,-11.9189955635249,25.353807002292104,16.885523200415978,0.0992918112697842,0.6039038294427442,0.3898652688117678,7951.23046875,11.684555555555557,7.0122222222222215,179.02177013782895,0.5698078259592587,68.34438154804424,1553.0,1435.0,1350.0,1528.0,1471.0,994.0,160.0,293.7,1649254898.8508072,1649254899.978501,421c4dd9-a9b4-4ef8-bdfe-ab00cb946234
0.228936390928414,0.5450310248186778,0.1192499706461167,-0.1622241775767806,-0.1639598055982268,-0.253357800538,-0.3093975516150067,-0.3344063758771587,-11.548693185232072,24.58595379855399,17.68762439186488,-0.0374635050288287,1.9971216042127704,0.572590972870735,7958.61328125,11.671666666666663,7.010000000000001,178.76221536026938,0.6265986373970117,60.11122902355606,1631.0,1435.0,1350.0,1528.0,1531.0,994.0,160.0,293.7,1649254902.1124184,1649254903.251138,631b7ab1-4310-48fc-bd6f-2db15b2ec38f
0.2312374126678613,0.5448995378667328,0.124601489882894,-0.1623688132486671,-0.1585162449390254,-0.2535944770916175,-0.3040197340537164,-0.3290285582447523,-11.582614016946955,24.58012562971396,17.658308785907003,-0.03746299987192,1.9974853216721693,0.5501452154692548,7966.009765625,11.65,7.029999999999999,178.75983390097878,0.673033447238981,57.736415507007365,1631.0,1435.0,1350.0,1528.0,1531.0,994.0,160.0,293.7,1649254903.3596506,1649254904.477725,631b7ab1-4310-48fc-bd6f-2db15b2ec38f
0.2313951969729531,0.5390746659766722,0.1244963003291664,-0.1600151964441888,-0.1582664196754475,-0.2506228713709492,-0.3046377228500596,-0.3296596958975364,-11.662413804138174,24.74256562314853,17.573237709897853,-0.0350767213107662,1.9766636024826685,0.5499015808216438,7970.126519097223,11.652666666666669,7.013333333333334,178.76244606888133,0.7408056672553478,55.8944535067329,1631.0,1435.0,1350.0,1528.0,1531.0,994.0,160.0,293.7,1649254904.586009,1649254905.7072246,631b7ab1-4310-48fc-bd6f-2db15b2ec38f
0.4989054026360125,1.003210453188308,0.1583278948608738,-0.3534325425500506,-0.2335427129855549,-0.519934519935977,-0.3822939360318239,-0.4030820290364061,-11.003558662063313,23.979005097993305,18.455065356851563,-0.2068587375261606,3.730921774213606,0.7733627769186338,7973.419921875,11.641111111111108,7.045555555555555,178.26915159318526,0.8498449831024326,52.71450905392667,1712.0,1435.0,1350.0,1528.0,1591.0,994.0,160.0,293.7,1649254907.6404903,1649254908.7775354,c47366f4-2567-4abb-99aa-ed77eee824e9
0.4946320767421313,1.0040782670795496,0.159642764448696,-0.3560491335778768,-0.2323461814863217,-0.519185044059335,-0.3792171405405306,-0.405277862124226,-10.90102248355137,23.872564999931264,18.357663447938386,-0.1998762217392138,3.734717857655475,0.7656201218357738,7973.419921875,11.613888888888887,7.033333333333333,178.27852413054632,0.9187353620041736,51.63497033484949,1712.0,1435.0,1350.0,1528.0,1591.0,994.0,160.0,293.7,1649254908.886136,1649254910.0072143,c47366f4-2567-4abb-99aa-ed77eee824e9
0.4873082535872629,1.0123224990934694,0.1572365531154051,-0.358560534973469,-0.2363039394987745,-0.5237739402792434,-0.3847921887954939,-0.4148895607489139,-11.004640576951235,23.906737273883124,18.49423071615129,-0.2044466482371242,3.765318977136208,0.783310004317865,7973.419921875,11.628666666666668,7.063333333333334,178.27760888519754,0.97673341530671,50.91664920566805,1712.0,1435.0,1350.0,1528.0,1591.0,994.0,160.0,293.7,1649254910.115547,1649254911.236417,c47366f4-2567-4abb-99aa-ed77eee824e9
0.7343590837698555,1.4408253572498513,0.1833761603620526,-0.5453378082255744,-0.3148937075420795,-0.772218644429372,-0.462987502088727,-0.4938212024725759,-10.26292500190331,23.460518370633345,18.21311693506273,-0.3427392151008431,5.394352870867814,1.016570971597829,7980.84423828125,11.613,7.04,178.08628617962663,1.0687107703825116,49.47153713327939,1796.0,1435.0,1350.0,1528.0,1650.0,994.0,160.0,293.7,1649254912.9637215,1649254914.022583,d30cd673-9f12-44c4-90ce-3af39e971fa6
0.7288629292717108,1.4381561717435856,0.1877809734509543,-0.5405516814790865,-0.3093055107607069,-0.7744539238398405,-0.4589771487655247,-0.4820925624587586,-10.308182156490666,23.46319444991038,18.182717566950387,-0.3583490725249538,5.384621562617172,0.9968888819476944,7980.84423828125,11.585777777777778,7.04,178.1014476817642,1.0971188670909005,49.09318070148131,1796.0,1435.0,1350.0,1528.0,1650.0,994.0,160.0,293.7,1649254914.1318457,1649254915.130544,d30cd673-9f12-44c4-90ce-3af39e971fa6
0.7438392928526221,1.4396945692898822,0.1926328421613799,-0.5476519794522064,-0.3049006968853527,-0.7703252313667737,-0.4508775500460592,-0.4752815362545988,-10.19815108224683,23.30340344963372,18.105710930857988,-0.3338293882614955,5.391474295040503,0.9729014399921758,7973.419921875,11.58,7.06,178.0956526457084,1.1442476111087787,48.66388206266859,1796.0,1435.0,1350.0,1528.0,1650.0,994.0,160.0,293.7,1649254915.238663,1649254916.5638416,d30cd673-9f12-44c4-90ce-3af39e971fa6
0.901550304380004,1.7217634723349753,0.2468970033288724,-0.6965600039130587,-0.3305457157891701,-0.9233624788033952,-0.4693024179098455,-0.4950940976760702,-9.865111809186187,23.844411801080145,16.27764813511411,-0.3356598542273393,6.485032080891985,0.9903532119499412,7973.419921875,11.542333333333334,7.056666666666667,177.96275993175718,1.1999650215587656,48.079115416877954,1886.0,1435.0,1350.0,1528.0,1710.0,994.0,160.0,293.7,1649254917.6751225,1649254918.82275,75f700d3-35c0-43be-812d-c6154257dba5
0.9166525922858574,1.7145812484305338,0.2490538950781386,-0.6868967199159812,-0.3281870416894042,-0.9248882342712156,-0.4649729559043827,-0.4877465034005677,-9.487461646003071,23.87831233298896,16.34781453882308,-0.3603530177301087,6.453747129685418,0.9776011289754658,7966.009765625,11.521,7.050000000000001,177.98049565630197,1.23767051168939,47.82653160627629,1886.0,1435.0,1350.0,1528.0,1710.0,994.0,160.0,293.7,1649254918.9312477,1649254919.9809003,75f700d3-35c0-43be-812d-c6154257dba5
0.891341354079265,1.708243575730347,0.2451355838814271,-0.6815714960372674,-0.3283842720192204,-0.9223899804496754,-0.4705480042886861,-0.4966481731222681,-9.912844092820167,23.93292005889764,16.48226682524943,-0.3667773069466905,6.430892985986421,0.9902981082070308,7966.009765625,11.528777777777778,7.055555555555555,178.02658880846082,1.2434834414178613,47.58429780899692,1886.0,1435.0,1350.0,1528.0,1710.0,994.0,160.0,293.7,1649254920.0950575,1649254921.1455135,75f700d3-35c0-43be-812d-c6154257dba5
-0.2460997193591665,-0.3275559039496477,0.0645776923136737,0.2144859744105004,-0.0199947228197585,0.2492905716988758,-0.159515545894792,-0.1874039334634224,-12.36541419053674,26.66664319981127,17.259775447766412,0.2528802025407942,-1.31584906876403,0.1333209908091213,7973.419921875,11.538444444444444,7.066666666666666,179.3186845323287,1.2466425343466327,47.27421367141256,1475.0,1435.0,1350.0,1528.0,1408.0,994.0,160.0,293.7,1649254921.978263,1649254923.1152258,bfba9d85-c04d-4944-af5c-1c3b4492504c
-0.2408270915395178,-0.3165635921797888,0.070442010805646,0.2072278943997952,-0.017654254829596,0.2450303943359053,-0.1545847844084539,-0.17564899758314,-12.216246272223644,26.62342750619288,17.27643464130688,0.2597627302001085,-1.274559981612552,0.1165311043144553,7980.84423828125,11.67111111111111,7.110000000000001,179.27441276394845,1.260285872787635,47.1431886347444,1475.0,1435.0,1350.0,1528.0,1408.0,994.0,160.0,293.7,1649254923.2233627,1649254924.5472558,bfba9d85-c04d-4944-af5c-1c3b4492504c
-0.242273448284316,-0.3224673576856252,0.0701527394729468,0.2159323309344227,-0.0160632625653655,0.2442677699985533,-0.1547688661894328,-0.1811845991716876,-12.207245688569715,26.655253565738303,17.482760590987894,0.2386479304905531,-1.2996845582814358,0.1146667191930386,8000.710286458333,11.674,7.08,179.28849054273778,1.2766866866626188,47.02150160503649,1475.0,1435.0,1350.0,1528.0,1408.0,994.0,160.0,293.7,1649254924.6551106,1649254925.779781,bfba9d85-c04d-4944-af5c-1c3b4492504c
-0.4471433194788459,-0.7090391323449893,0.0589631990277494,0.3855636505838568,0.0573985041726898,0.4627464911851396,-0.0794794267729561,-0.0984398477972914,-12.570391072763172,27.94943216005932,17.1345887419438,0.3547358946397637,-2.765480309860928,-0.1238984653416577,8010.67919921875,11.675,7.08,179.41725326897085,1.2939160522873874,46.91407638977053,1396.0,1435.0,1350.0,1528.0,1340.0,994.0,160.0,293.7,1649254927.4362748,1649254928.44261,9f6ed31a-cb9c-4621-af44-bea313e2fbde
-0.4441585647728345,-0.6992302010636553,0.060225473842279,0.3746765309424941,0.0554524971167561,0.4626150042375254,-0.0762974421584531,-0.0942322647937031,-12.302555183392656,27.78936016988178,17.074649827202386,0.3781260839147993,-2.7286375490379697,-0.1262391365441264,8003.19873046875,11.615555555555554,7.047777777777778,179.40368851327923,1.2958852100546627,46.884124112985255,1396.0,1435.0,1350.0,1528.0,1340.0,994.0,160.0,293.7,1649254928.550967,1649254929.6685257,9f6ed31a-cb9c-4621-af44-bea313e2fbde
-0.446249207939547,-0.7019519822644967,0.0518234569641873,0.3757547239456377,0.0475632793802647,0.4627201937963764,-0.0857513551848609,-0.1090376976216812,-12.38053623242106,27.871880045011928,16.782479338369782,0.3759731621787513,-2.736368445224952,-0.0914008696690696,7995.7333984375,11.618444444444444,7.062222222222221,179.41120475700586,1.2957454876258605,46.87938623843099,1396.0,1435.0,1350.0,1528.0,1340.0,994.0,160.0,293.7,1649254929.7763855,1649254931.1008768,9f6ed31a-cb9c-4621-af44-bea313e2fbde
-0.7305767056170555,-1.2180780670553493,0.0324159812354426,0.609380738088966,0.1392622858749697,0.7548973453366393,0.0076175398638251,-0.0109221223094559,-12.777367701427352,29.88500794149655,17.271709198891557,0.5177883211506693,-4.703642973554459,-0.3835976960095767,7988.28173828125,11.623,7.07,179.5554143355019,1.2836336293787562,46.8545000647351,1314.0,1435.0,1350.0,1528.0,1268.0,994.0,160.0,293.7,1649254933.0383196,1649254934.1736526,fb952f59-25d4-4ce1-8211-9b72fe9bb5f7
-0.730747638810414,-1.2168815346775437,0.0350325717986722,0.6084340320525232,0.1418394302676779,0.7551340218465838,0.0115621487918414,-0.0120923562393184,-12.690144435790062,29.793148184928345,17.373930721898308,0.5200372417325129,-4.7003977014794325,-0.3959114909714336,7994.077473958333,11.583111111111114,7.062222222222221,179.58528502947206,1.2858249817374687,46.89301891655938,1314.0,1435.0,1350.0,1528.0,1268.0,994.0,160.0,293.7,1649254934.2816076,1649254935.404001,fb952f59-25d4-4ce1-8211-9b72fe9bb5f7
-0.7138252597320305,-1.21167464663177,0.0319820742577062,0.6059620773986353,0.1390387580402719,0.7514786846377634,0.0067628745894161,-0.0132362928257886,-12.846621170299404,29.720234409843457,17.227551059417376,0.5166619862190577,-4.67835411375081,-0.3807831650669229,7988.28173828125,11.584,7.066666666666666,179.58839959573356,1.2794582849356648,46.911302194602655,1314.0,1435.0,1350.0,1528.0,1268.0,994.0,160.0,293.7,1649254935.5117786,1649254936.6402135,fb952f59-25d4-4ce1-8211-9b72fe9bb5f7
-0.9449926019302328,-1.6237946650646693,0.0173870212609044,0.7780521972387388,0.2072804891908309,0.9978983802696664,0.0844322234898835,0.0647354766553375,-12.884998941157004,31.621945353735363,17.601234461440434,0.6941269810703153,-6.249176041808016,-0.6130587606636211,7966.009765625,11.559444444444445,7.071111111111112,179.73389476761338,1.2573424525682808,46.9784023524638,1227.0,1435.0,1350.0,1528.0,1189.0,994.0,160.0,293.7,1649254938.5648746,1649254939.705785,464b0fcd-776b-408b-923c-8d97183a2ebe
-0.9725128395548296,-1.632275585068591,0.0193198796424497,0.7835615004525451,0.2118693839820758,0.9998969819753591,0.0874695723088354,0.0631181870188758,-12.973958339736653,31.62464845057548,17.4449113169988,0.6862349315871864,-6.279525261728495,-0.6275299245107183,7973.419921875,11.485555555555557,7.058888888888889,179.74586125903923,1.256053183214637,47.064707104996266,1227.0,1435.0,1350.0,1528.0,1189.0,994.0,160.0,293.7,1649254939.813772,1649254941.1368368,464b0fcd-776b-408b-923c-8d97183a2ebe
-0.9457289294275631,-1.6279759558892726,0.0104182121609746,0.7847054369263016,0.202441769170061,0.9950319646891426,0.0766218980011037,0.053335556968405,-12.954009276112172,31.622342862130264,17.425848013167915,0.6722706231531481,-6.264076475558215,-0.5865921470834358,7966.009765625,11.493222222222222,7.057777777777777,179.75197807289592,1.2431599086378011,47.13708016889668,1227.0,1435.0,1350.0,1528.0,1189.0,994.0,160.0,293.7,1649254941.2447844,1649254942.3660295,464b0fcd-776b-408b-923c-8d97183a2ebe
0.0347827465299284,0.1814958969125546,0.0862598922259163,-0.0040979487144686,-0.1105760950962334,-0.046673428283242,-0.2583674544391929,-0.2892931924104449,-12.22460385694506,25.288093050291224,17.197040262781506,0.0728832873181022,0.6212276008563524,0.4281394527118929,7966.009765625,11.554666666666668,7.08,179.037421895767,1.2049170510026326,47.23020145022082,1553.0,1435.0,1350.0,1528.0,1471.0,994.0,160.0,293.7,1649254943.4800098,1649254944.6190832,4eaa81e5-6547-4f1c-a116-87f3e87ae2d0
0.039542574604484,0.1944342135236726,0.0881533044987456,-0.0132888875651035,-0.1100764445809614,-0.050302468573177,-0.2578283578165287,-0.2750005576482953,-12.346579344925908,25.1111353856066,17.292272294774023,0.0843358422172854,0.6710220604511956,0.4257170159120181,7966.009765625,11.677333333333332,7.12,179.03365922044424,1.1912214900736011,47.30859836151422,1553.0,1435.0,1350.0,1528.0,1471.0,994.0,160.0,293.7,1649254944.727167,1649254945.8471506,4eaa81e5-6547-4f1c-a116-87f3e87ae2d0
0.0322713455611603,0.1912785265461774,0.0861810000668995,-0.0131705493265497,-0.1110362994793505,-0.0514332564918437,-0.2572498151018401,-0.286650303834152,-12.176896692845691,24.96506323474065,16.703298489362627,0.0804528592709153,0.6630633226811959,0.4278562368822952,7966.93603515625,11.67675,7.12,179.03063382609685,1.1835112737177145,47.36319974751295,1553.0,1435.0,1350.0,1528.0,1471.0,994.0,160.0,293.7,1649254945.9559383,1649254947.0714576,4eaa81e5-6547-4f1c-a116-87f3e87ae2d0
0.0541770735788371,0.1849671525888588,0.0660897923639482,-0.4462623566105831,-0.1760960532761662,0.3776744334607185,-0.1558865054545665,-0.1882717474111739,-11.862316476575357,24.14488137162564,20.45029155682896,2.015982294485512,0.6559910927720529,0.400817094445668,7973.419921875,11.669888888888888,7.105555555555556,179.03402653283956,1.3226240251310548,47.466875852970745,1553.0,1522.0,1350.0,1528.0,1471.0,994.0,160.0,293.7,1649254949.008359,1649254950.354082,d70ca3c8-63d8-4405-9388-4d2cab747735
0.0434608861293974,0.1766966229591066,0.0601334329618709,-0.4379918248506351,-0.1798039859635171,0.3773325673773444,-0.1629473558959946,-0.1948592445953188,-11.979830835350617,24.266649479345418,20.28148908316502,1.996982349131161,0.6259055922296124,0.4227412972287769,7980.84423828125,11.666777777777778,7.108888888888889,179.0440183406854,1.3196520627843875,47.51316366552097,1553.0,1522.0,1350.0,1528.0,1471.0,994.0,160.0,293.7,1649254950.4628067,1649254951.5826404,d70ca3c8-63d8-4405-9388-4d2cab747735
0.0590552398814779,0.1823768595255007,0.0649195583547622,-0.4388333415190081,-0.1768718264672955,0.3746502335563236,-0.1592262746039407,-0.1885478697709192,-11.900675411190566,24.285263393041625,20.61312240476406,1.993307462383036,0.6441177717348171,0.4081209334140938,7980.84423828125,11.665333333333333,7.116666666666666,179.0323493419434,1.3129318325452315,47.56910405318823,1553.0,1522.0,1350.0,1528.0,1471.0,994.0,160.0,293.7,1649254951.6908767,1649254952.8100357,d70ca3c8-63d8-4405-9388-4d2cab747735
0.0742156865779576,0.1716080776733339,0.0458933949093302,-0.9323041026670488,-0.248571674561597,0.8590876048395056,-0.0425578862390072,-0.0621888906205594,-11.587702222400951,23.588978465586184,23.762806465206104,4.190148542679845,0.6331364218501887,0.3649197156551323,7987.455349392361,11.662222222222224,7.110000000000001,179.02767597473132,1.4761046842198495,47.546644114467504,1553.0,1613.0,1350.0,1528.0,1471.0,994.0,160.0,293.7,1649254953.493554,1649254954.6538851,1b66ca34-5ef9-41ab-8956-71046b7fc8af
0.0844190748125522,0.1792211725274441,0.0431847635024095,-0.9444403563053811,-0.2543965476879474,0.8649519228582575,-0.0451481794786369,-0.065134198644957,-11.591988381099933,23.62463829309984,24.04722040156464,4.230847564321143,0.6605228636776198,0.3814318732144787,7992.424696180556,11.65611111111111,7.092222222222222,179.04974203920986,1.4811353319869758,47.60371907244691,1553.0,1613.0,1350.0,1528.0,1471.0,994.0,160.0,293.7,1649254954.761836,1649254955.8795872,1b66ca34-5ef9-41ab-8956-71046b7fc8af
0.0797907337706171,0.1751450768506292,0.0467743575813152,-0.9469517587411208,-0.2523453508177644,0.8719733260484697,-0.0388236563740588,-0.057402764861132,-11.373842871996109,23.711760575384083,24.18472875719761,4.253178713876255,0.6430105593249225,0.3645357967487057,8023.181640625,11.648333333333332,7.046666666666666,179.0218809386755,1.4762211294588248,47.67789302955847,1553.0,1613.0,1350.0,1528.0,1471.0,994.0,160.0,293.7,1649254955.9881337,1649254957.1119182,1b66ca34-5ef9-41ab-8956-71046b7fc8af
0.0759250171258672,0.1607209575522248,0.0196354483467157,-1.4245522388191287,-0.331276985650442,1.3468647696867433,0.062158332207261,0.0386747607016121,-11.333007942406232,23.397086269984825,27.450888207210188,6.394776716033146,0.6167514766068779,0.3640913917016856,8040.73779296875,11.646444444444446,6.972222222222222,179.0190638650978,1.648662393683575,47.70699153269749,1553.0,1710.0,1350.0,1528.0,1471.0,994.0,160.0,293.7,1649254958.0192,1649254959.1594,3e376c6d-5451-40c8-b078-2bea13ea503f
0.0700849731546457,0.1532251894745256,0.0255943363724645,-1.4076773867749317,-0.3210255524184865,1.3344458257734977,0.0675563776956373,0.0453679528134467,-11.302905103025353,23.2636219508295,26.89585649212796,6.328142798487469,0.5916418033003834,0.332854258270996,8027.351508246527,11.618333333333332,7.037777777777778,179.0355580130335,1.6610307279056065,47.714515365523226,1553.0,1710.0,1350.0,1528.0,1471.0,994.0,160.0,293.7,1649254959.2675655,1649254960.317891,3e376c6d-5451-40c8-b078-2bea13ea503f
0.0792516372402005,0.1572497018375485,0.0235537598837423,-1.40388246687331,-0.3239400119510788,1.3265105874246623,0.0632365253018609,0.0375702701798144,-11.215964131092637,23.281433385455887,26.800037682020765,6.30179580571481,0.6063737689503358,0.3461945236629377,8003.19873046875,11.617,7.052222222222222,179.02692617174242,1.647269284110206,47.705875555678105,1553.0,1710.0,1350.0,1528.0,1471.0,994.0,160.0,293.7,1649254960.427024,1649254961.4721134,3e376c6d-5451-40c8-b078-2bea13ea503f
