raw_voltage_G-,raw_voltage_G0,raw_voltage_G1,raw_voltage_G2,raw_voltage_G3,raw_voltage_G4,raw_voltage_G5,raw_voltage_G6,load_x,load_y,load_z,load_l,load_m,load_n,rpm,voltage,current,roll,pitch,yaw,aileron1_pwm,elevator_pwm,throttle_pwm,rudder_pwm,aileron2_pwm,pbaro,pdiff,Tt,sample_start_time,sample_end_time,uid
-0.0161401318315175,0.1213016729468937,-0.0181503653376221,-0.0038385148415617,-0.2091351901238878,0.0183246244788736,-0.3890068526464762,-0.4134710182857288,-15.618966246384884,28.2264219298318,17.164351744627297,0.2309231283816505,0.4131756799661135,0.8797988039136141,5684.807942708333,11.974444444444444,0.12,179.00557044693747,0.8386830073266199,91.18857001545646,1553.0,1435.0,1200.0,1528.0,1471.0,994.0,160.0,293.7,1649255485.5422308,1649255486.493869,4278a33a-c477-4eeb-a8b1-dc4b31105ba0
-0.0203376003454157,0.1158272639426039,-0.0284796779120422,-0.006164822673274,-0.2178841311837643,0.026036840642492,-0.3973259331551376,-0.4293126722736394,-15.699166627398304,28.21157005373856,17.122483086213894,0.2528412577514087,0.3932133803020819,0.9168479220910914,5687.74169921875,11.975666666666667,0.12,178.98959235773913,0.818268188511752,91.10123390435932,1553.0,1435.0,1200.0,1528.0,1471.0,994.0,160.0,293.7,1649255486.6021729,1649255487.7536182,4278a33a-c477-4eeb-a8b1-dc4b31105ba0
-0.0384686415536299,0.1055621780917921,-0.0362728093222763,-0.0012972763772284,-0.2232472827272013,0.030469974191975,-0.4042522632524787,-0.4313385833400759,-15.785738544602047,28.2955705807546,16.902961925820044,0.2519133415570906,0.3561794949801537,0.943033212790334,5687.322591145833,11.97411111111111,0.1211111111111111,179.00945606566535,0.7693987956856271,90.99701432454384,1553.0,1435.0,1200.0,1528.0,1471.0,994.0,160.0,293.7,1649255487.8615017,1649255488.9791288,4278a33a-c477-4eeb-a8b1-dc4b31105ba0
0.1685838776148761,0.4867823057988428,-0.0176805523165945,-0.2055096895799611,-0.2957492030525258,-0.1465509303977783,-0.4650781454845669,-0.481619209662978,-15.524925664415765,27.41155589829864,17.951804377762297,0.3101409128390814,1.801151496801647,1.149404882189647,5687.74169921875,11.962,0.1211111111111111,178.80215375307617,0.7345163021873499,90.7940560122668,1631.0,1435.0,1200.0,1528.0,1531.0,994.0,160.0,293.7,1649255491.1190326,1649255492.2571983,73d8f444-c7d4-46a7-9d22-673eb0610eb0
0.1739353968240324,0.4936459246229166,-0.0042557331411676,-0.21491100834912,-0.2852696906260114,-0.143710811794291,-0.4508775501701089,-0.4699957588846436,-15.471295195531566,27.398482459256098,18.186995441060127,0.3383763983551401,1.826438508501036,1.0977359330188303,5688.161295572917,11.941444444444446,0.1211111111111111,178.78855408752878,0.736516699769501,90.73632421776222,1631.0,1435.0,1200.0,1528.0,1531.0,994.0,160.0,293.7,1649255492.3657162,1649255493.485143,73d8f444-c7d4-46a7-9d22-673eb0610eb0
0.1694122454538554,0.4921338246929906,0.0038438639383215,-0.2103615589940025,-0.2755002079089356,-0.1448021536933071,-0.4393592895850039,-0.4624089593726472,-15.262952956025936,27.16260290042778,18.49384907139217,0.3246549844511698,1.8165223195867164,1.0575215769659645,5691.51806640625,11.94211111111111,0.12,178.7948120586283,0.735942086389639,90.70172172051704,1631.0,1435.0,1200.0,1528.0,1531.0,994.0,160.0,293.7,1649255493.593648,1649255494.6355114,73d8f444-c7d4-46a7-9d22-673eb0610eb0
0.425154371808318,0.9358628358928144,0.0244347225487778,-0.4484055945556202,-0.3659764009710747,-0.3555100368803375,-0.5168708729185638,-0.5363966922899559,-14.907868014057629,26.65648820716264,18.970706333265085,0.3860602062248332,3.5046414018829863,1.3157784621309767,5684.388834635417,11.938555555555556,0.1188888888888888,178.427303864507,0.7594485855891264,90.55730040615674,1712.0,1435.0,1200.0,1528.0,1591.0,994.0,160.0,293.7,1649255496.4437544,1649255497.5776374,25688cd8-e1f3-45db-a060-26fb3186683c
0.4153322965108426,0.9355341184964036,0.0142050366862863,-0.4502464125076886,-0.3762586834448166,-0.3540242339528053,-0.5269822232235748,-0.5543315191394792,-14.89500564172985,26.665267569201884,18.81676927038845,0.3930822036119538,3.504260100830562,1.3578562606316624,5689.839680989583,11.925555555555556,0.1155555555555555,178.421707662847,0.7673467566558451,90.52783269334756,1712.0,1435.0,1200.0,1528.0,1591.0,994.0,160.0,293.7,1649255497.6862729,1649255498.8093216,25688cd8-e1f3-45db-a060-26fb3186683c
0.4125053270368441,0.9322863907818392,0.0056320866466804,-0.4418443936471475,-0.3818468803593164,-0.3599017021850696,-0.5388029044007816,-0.5686636025588077,-15.174573777343346,26.701693573382634,18.55142595277109,0.3605534236462761,3.4948322630507267,1.3930795850803863,5688.580891927083,11.922888888888888,0.1122222222222222,178.4264842418066,0.7648066318336552,90.5279123788879,1712.0,1435.0,1200.0,1528.0,1591.0,994.0,160.0,293.7,1649255498.9176795,1649255500.045027,25688cd8-e1f3-45db-a060-26fb3186683c
0.6710481174823312,1.3864554954435464,0.0556102814681568,-0.692576958251241,-0.4485370816104468,-0.5693078884649841,-0.5822988044264847,-0.6148681357327667,-14.284784351738244,26.02788531156251,19.24967913655705,0.4541620256161494,5.219783695942527,1.532356844042613,5680.203125,11.900666666666666,0.11,178.16488344313564,0.8077183921562364,90.36581832950516,1796.0,1435.0,1200.0,1528.0,1650.0,994.0,160.0,293.7,1649255501.9726744,1649255503.1195917,404b52f8-7063-4281-940f-0c8ee8bf50be
0.6673138881124513,1.3675608182015526,0.0391086676166525,-0.6827811757522864,-0.4606733310836314,-0.5610505047553737,-0.5987872747953834,-0.6179186340759764,-14.551987365420011,26.27715838526064,18.945602117044007,0.4512684003131242,5.151255435302204,1.591938030072984,5675.606553819444,11.879888888888887,0.11,178.14211159244283,0.8188650474382857,90.2976515237686,1796.0,1435.0,1200.0,1528.0,1650.0,994.0,160.0,293.7,1649255503.2280035,1649255504.3394032,404b52f8-7063-4281-940f-0c8ee8bf50be
0.6611734475646448,1.3706507619580903,0.0517182673682879,-0.6758912563232395,-0.4502332638184181,-0.5714642753480459,-0.5868482547855625,-0.611449473392463,-14.173476829665663,26.28721028121953,18.88993014306793,0.4132014643740372,5.160610273142833,1.5441477385342637,5675.606553819444,11.878444444444446,0.1077777777777777,178.17215228223233,0.8344996706135622,90.2624320327684,1796.0,1435.0,1200.0,1528.0,1650.0,994.0,160.0,293.7,1649255504.4479914,1649255505.5693843,404b52f8-7063-4281-940f-0c8ee8bf50be
0.7238006817108541,1.5130905977865174,0.0844453720895445,-0.764986858664668,-0.4633819632306368,-0.6542353457135147,-0.59618383229764,-0.6251635682216231,-14.146722854606876,27.024699924054666,15.383923095552731,0.4341547565648343,5.738787361057218,1.5419631221763197,5678.94921875,11.859666666666666,0.1066666666666666,178.1388012274251,0.8608684518910917,90.12720794758047,1886.0,1435.0,1200.0,1528.0,1710.0,994.0,160.0,293.7,1649255506.4785774,1649255507.6122682,7e12ee9e-74ae-4a14-ae3e-92321123692a
0.7483624439594463,1.5480792820678535,0.0922425488789644,-0.7933223118739186,-0.4647494279469842,-0.6599418820898741,-0.5903589579614199,-0.6186418128060857,-13.94923467116056,26.786103872924105,15.791037793131524,0.4842201198496449,5.868989133726252,1.5296992867468422,5666.851399739583,11.815333333333331,0.1,178.09696555984883,0.867986967536224,90.00799079016745,1886.0,1435.0,1200.0,1528.0,1710.0,994.0,160.0,293.7,1649255507.721,1649255508.6637394,7e12ee9e-74ae-4a14-ae3e-92321123692a
0.7378960827312793,1.5110131036613927,0.0880349660985106,-0.7765708652629683,-0.4607522234139036,-0.6419150130579547,-0.5892150210950955,-0.6097138451305599,-14.18397736909314,27.029310275077528,15.3703826850764,0.4881592588647255,5.733033060057393,1.5231662180640289,5665.18603515625,11.822666666666668,0.1,178.13731376400585,0.8931530189055312,89.85143147074214,1886.0,1435.0,1200.0,1528.0,1710.0,994.0,160.0,293.7,1649255508.771613,1649255510.0742905,7e12ee9e-74ae-4a14-ae3e-92321123692a
-0.3010481282727545,-0.3718801666616997,-0.0649238194769656,0.2543265220846597,-0.1392797009614528,0.259888420301674,-0.3371939000509036,-0.3552076169849648,-16.414955638750392,29.772223760173432,16.609699203786175,0.1988213649466111,-1.4607309954895515,0.7152550573300916,5659.1080322265625,11.877,0.1075,179.35385033045293,0.8620585189724739,89.55911550110113,1475.0,1435.0,1200.0,1528.0,1408.0,994.0,160.0,293.7,1649255512.0079002,1649255513.1462774,37459330-c068-4241-abf8-488a1fb68630
-0.3089110498058837,-0.3675016499915133,-0.0548124716185073,0.2631492967774154,-0.1297468954582172,0.2483964604088603,-0.3320264615016118,-0.3580740332225492,-16.512515403171616,29.89403611003009,16.79861898353463,0.1543873707277902,-1.44573598408485,0.6818862146416698,5667.68408203125,11.966333333333331,0.1233333333333333,179.31064312294586,0.8811793534094469,89.476910190163,1475.0,1435.0,1200.0,1528.0,1408.0,994.0,160.0,293.7,1649255513.2559702,1649255514.3713405,37459330-c068-4241-abf8-488a1fb68630
-0.3075830313000403,-0.3685009511373465,-0.0562719769822655,0.2655686567359954,-0.1305752634326252,0.2477521743144687,-0.3319607180363574,-0.3531169737956691,-16.370900609720536,29.799540457172267,16.879507888032922,0.146867173243645,-1.4515952044030516,0.6850625452506851,5677.6953125,11.97,0.12,179.31954513616407,0.874889798613972,89.35647346452818,1475.0,1435.0,1200.0,1528.0,1408.0,994.0,160.0,293.7,1649255514.481704,1649255515.6007073,37459330-c068-4241-abf8-488a1fb68630
-0.5448907523735148,-0.7592671729155179,-0.0871714145458505,0.4756059149780263,-0.0703279338536879,0.4316103811355921,-0.2866371552590712,-0.3097657153126495,-16.856648085160536,31.13291430934529,16.12401329216638,0.0931640854934545,-2.934868517728523,0.5331981212701361,5690.678873697917,11.95188888888889,0.1255555555555555,179.4560153514206,0.8921618292051188,89.01015858849148,1396.0,1435.0,1200.0,1528.0,1340.0,994.0,160.0,293.7,1649255517.5377233,1649255518.6718152,219e3609-49e3-4f80-9674-d3ddf7094b7f
-0.5289282307028277,-0.7696546475473649,-0.0792690476911863,0.4874265918577234,-0.060913466920649,0.4346871758037484,-0.278103650168934,-0.3029941358427859,-16.810780373209656,31.302504487649344,16.7225490727747,0.075049720570167,-2.9804088453162088,0.4971070027656847,5684.388834635417,11.910333333333334,0.11,179.45200375364803,0.8928383914589202,88.79968403248782,1396.0,1435.0,1200.0,1528.0,1340.0,994.0,160.0,293.7,1649255518.7801435,1649255519.9054935,219e3609-49e3-4f80-9674-d3ddf7094b7f
-0.5168314269245596,-0.7476568692147312,-0.0821091662131042,0.4718322394790264,-0.0678165327551572,0.4264429439304819,-0.2844018765429836,-0.312211373277807,-16.890816491498672,31.13050606168336,16.540684148180933,0.0903499733399721,-2.89398842861508,0.5216310709691272,5677.27734375,11.91288888888889,0.1122222222222222,179.45659667640996,0.9083732891291276,88.63519258670641,1396.0,1435.0,1200.0,1528.0,1340.0,994.0,160.0,293.7,1649255520.014039,1649255521.137232,219e3609-49e3-4f80-9674-d3ddf7094b7f
-0.8166481096950868,-1.283795308032419,-0.0962834614807977,0.770136682845825,0.0371232144862881,0.678148412763893,-0.1963713448210086,-0.2151082389268895,-17.156846940265385,33.46136059670353,16.9508598819274,-0.0022587666805998,-4.944172729529948,0.2098623500820712,5677.6953125,11.885,0.11,179.62870681875555,0.9005839919892572,88.18622983327322,1314.0,1435.0,1200.0,1528.0,1268.0,994.0,160.0,293.7,1649255523.0675628,1649255524.4102328,71e8f17e-1e6d-4c5f-90b3-0768cac4c556
-0.8104813683935684,-1.2741573049987676,-0.1060397946664579,0.7626813727856875,0.0263807295666935,0.6734148825759471,-0.2096515293828424,-0.2375925121649675,-17.39718937277178,33.4310231843513,16.557684947823077,0.0030511446443529,-4.902539679882604,0.2570917778637269,5667.268825954861,11.877111111111113,0.11,179.64385921397428,0.9030786592937676,88.00661407193967,1314.0,1435.0,1200.0,1528.0,1268.0,994.0,160.0,293.7,1649255524.5184245,1649255525.6348276,71e8f17e-1e6d-4c5f-90b3-0768cac4c556
-0.8099817175834788,-1.276708154432756,-0.0996758253284325,0.7788279702485713,0.0338491890705201,0.6625540605355087,-0.2064695445797404,-0.2266790928942501,-17.34511945853265,33.53536518101211,16.80716088182373,-0.0567027831155592,-4.916269333580735,0.2338925824192806,5660.613335503473,11.874333333333333,0.1122222222222222,179.65074859811708,0.8870870579416358,87.85789580968154,1314.0,1435.0,1200.0,1528.0,1268.0,994.0,160.0,293.7,1649255525.743022,1649255526.8075352,71e8f17e-1e6d-4c5f-90b3-0768cac4c556
-0.9218114371588014,-1.4575423529487417,-0.0942191160948297,0.8572467875437811,0.0756357457268575,0.7365943619138475,-0.1670760469995225,-0.1882848960990389,-17.38833290660088,34.337288513855896,12.57539647525146,-0.0623265449113812,-5.565991157476044,0.0859304912518204,5657.70654296875,11.844111111111111,0.0966666666666666,179.71347553763468,0.9189138244121748,87.51395935729582,1227.0,1435.0,1200.0,1528.0,1189.0,994.0,160.0,293.7,1649255528.4237154,1649255529.5306838,55953f55-c50b-4e40-a1aa-a99280e9613c
-0.927319732487456,-1.452977221771261,-0.0964356829410979,0.8478808709038023,0.071500986518846,0.7396190674847083,-0.1689431619801897,-0.1856066075900892,-17.38743652603045,34.33115450371251,12.399668415552568,-0.0345810085297657,-5.546305488727041,0.0974675368230381,5653.97509765625,11.725888888888887,0.06,179.72444482144172,0.9299948339872012,87.21875554572824,1227.0,1435.0,1200.0,1528.0,1189.0,994.0,160.0,293.7,1649255529.6388328,1649255530.754489,55953f55-c50b-4e40-a1aa-a99280e9613c
-0.9123504390990916,-1.4328242945689096,-0.0881166035852098,0.8345425311668013,0.0758375276108569,0.7322229265533793,-0.1632032499200993,-0.1874524822639358,-17.426611832155608,34.165864937033625,12.465583915596865,-0.0218038006518683,-5.468859875885636,0.0745037425674124,5653.97509765625,11.730333333333334,0.07,179.74953438299292,0.9216081798861696,86.9744707944231,1227.0,1435.0,1200.0,1528.0,1189.0,994.0,160.0,293.7,1649255530.8638296,1649255531.9873135,55953f55-c50b-4e40-a1aa-a99280e9613c
-0.0302770036214927,0.1336083466331297,-0.0287386061287797,-0.0284624834518957,-0.2205517996741934,0.0281558036343872,-0.3976384676519993,-0.417322070291611,-15.936347307268983,27.93785441752984,16.984010486443204,0.3059320593159047,0.4655334994973907,0.922986486505729,5544.26025390625,11.74,0.07,179.1686343831824,0.9727647196599132,86.54955486032779,1553.0,1435.0,1200.0,1528.0,1471.0,994.0,160.0,293.7,1649255533.939563,1649255534.888541,632874c7-de63-408f-bd31-5d4c39b9bc09
-0.0229531795651006,0.1450477120781591,-0.0253199450078934,-0.0349710882844544,-0.2204334613987498,0.0231330016053267,-0.3975595754478944,-0.421529653662299,-15.987811354001677,27.99611899771123,17.024375928281245,0.3098639686222419,0.5094636285504696,0.919377093715391,5547.84912109375,11.970555555555556,0.12,179.16231114583078,0.99046507188823,86.76469139989496,1553.0,1435.0,1200.0,1528.0,1471.0,994.0,160.0,293.7,1649255534.9974697,1649255536.08504,632874c7-de63-408f-bd31-5d4c39b9bc09
-0.0342084638775358,0.1280727456360127,-0.0297247583536356,-0.0238209935335972,-0.2209857066880381,0.0306014611464957,-0.4000315308278656,-0.4245012596679894,-16.06127858310885,28.135650894485323,17.153393671119854,0.3021839405941796,0.4435239950582397,0.9277701716285982,5569.49658203125,11.971666666666668,0.1233333333333333,179.1720039431729,0.9896443226809342,86.97139189692724,1553.0,1435.0,1200.0,1528.0,1471.0,994.0,160.0,293.7,1649255536.193738,1649255537.2361794,632874c7-de63-408f-bd31-5d4c39b9bc09
-0.0144985676989088,0.1294665074167092,-0.0551017429558804,-0.3656345348074057,-0.2811672967775032,0.3589901374907485,-0.3298437775568248,-0.3602304199490952,-15.688888672631393,27.22326408021219,19.46567746223596,1.804408864002004,0.4660823760972882,0.945466637215283,5596.955946180556,11.969,0.1244444444444444,179.1536732332604,1.1175592042514175,87.30221286828672,1553.0,1522.0,1200.0,1528.0,1471.0,994.0,160.0,293.7,1649255538.6322422,1649255539.7663355,b1b8b3d1-30b6-4bd3-b34e-018248d4dfb0
-0.0188902323645752,0.1290326004459143,-0.0520643940234827,-0.3617688174336233,-0.276591549893791,0.355900194101048,-0.3297254393024302,-0.3552602118877739,-15.99536322785631,27.28469486020948,19.485054848963923,1.789152526483752,0.4661700124167827,0.9346947600670696,5609.57177734375,11.967555555555556,0.12,179.16714236630366,1.1252627920035785,87.39792962149545,1553.0,1522.0,1200.0,1528.0,1471.0,994.0,160.0,293.7,1649255539.879268,1649255540.923642,b1b8b3d1-30b6-4bd3-b34e-018248d4dfb0
-0.0242023057535759,0.1170935845107305,-0.0585729988939411,-0.3537744087413502,-0.2821271517325098,0.362513987821186,-0.3361683014812432,-0.3644380033026504,-15.99830517582609,27.56308557719677,19.75541667812978,1.7875441936583416,0.4176238837723384,0.9591701387100612,5607.533474392361,11.958444444444446,0.1155555555555555,179.14753061646687,1.1324904009479535,87.43001557348644,1553.0,1522.0,1200.0,1528.0,1471.0,994.0,160.0,293.7,1649255541.0321205,1649255542.0830777,b1b8b3d1-30b6-4bd3-b34e-018248d4dfb0
-0.0061228480113201,0.1019988814917838,-0.076165955231238,-0.7766760545276766,-0.3452540521140943,0.784705436915676,-0.2349101776141429,-0.2536733694323374,-15.563950926102091,27.043245971560783,22.6352051999861,3.6865828595878334,0.3833559529391529,0.9240066944151016,5618.970757378473,11.955222222222224,0.12,179.13038835946995,1.3028122906755577,87.5830368549217,1553.0,1613.0,1200.0,1528.0,1471.0,994.0,160.0,293.7,1649255543.9570277,1649255545.5067065,3cf21dee-9b34-4dde-bfba-56e8e89e977b
-0.0164971695618158,0.1028798441198265,-0.0972827624384956,-0.7737307452579717,-0.3617425200635712,0.7812341814347326,-0.2547910086718826,-0.2815880551770278,-15.673696022556747,26.672315472357056,22.497290888594804,3.6685509425871214,0.3869515639661479,1.0035685786046262,5620.60791015625,11.944,0.1166666666666666,179.1297797137239,1.3189225487775675,87.55296201418632,1553.0,1613.0,1200.0,1528.0,1471.0,994.0,160.0,293.7,1649255545.6154325,1649255546.7315433,3cf21dee-9b34-4dde-bfba-56e8e89e977b
-0.0212307003552653,0.0976729604780486,-0.1027000256192528,-0.7768864338063718,-0.3672386761157092,0.7885580045555031,-0.2592089711598044,-0.2853748803792946,-15.720686549545938,26.790899215178538,22.361108138421347,3.692598011516168,0.3690092745362575,1.0237977979384545,5624.29541015625,11.952222222222222,0.12,179.1164851299594,1.33819647698373,87.53538110726271,1553.0,1613.0,1200.0,1528.0,1471.0,994.0,160.0,293.7,1649255546.8399937,1649255547.9693334,3cf21dee-9b34-4dde-bfba-56e8e89e977b
0.0086562868774256,0.0939781768758754,-0.1165719009578153,-1.1990124419712045,-0.4295766573937369,1.1993232488269496,-0.1612511740064686,-0.1862731451371803,-15.467594123149912,26.464230776984795,25.306223829876057,5.565595832056901,0.3783455813357564,0.988458825047291,5624.29541015625,11.940333333333331,0.1166666666666666,179.11857365002567,1.5049914159207012,87.52796352182408,1553.0,1710.0,1200.0,1528.0,1471.0,994.0,160.0,293.7,1649255550.069883,1649255551.0203123,922aec5c-eb84-41a4-8dab-80a2db6f2bcd
-0.0080557063988138,0.0882058992786959,-0.1248818775299794,-1.2001826767711472,-0.4362298991471038,1.20769896814296,-0.1671154930186443,-0.1939914305461439,-15.51634251413674,26.44112270458492,25.48554652567817,5.58649403352241,0.3550686082807262,1.016717339384433,5630.042588975694,11.915555555555551,0.11,179.12070466904666,1.53143002283873,87.43489688201329,1553.0,1710.0,1200.0,1528.0,1471.0,994.0,160.0,293.7,1649255551.127971,1649255552.2644727,922aec5c-eb84-41a4-8dab-80a2db6f2bcd
0.0161904899442051,0.0936626081731714,-0.1270777099420533,-1.2059944054485228,-0.4402534011279382,1.2084878899375378,-0.1704026673523815,-0.1973574971502744,-15.553486040421085,26.480050950938995,25.57554503469704,5.601521053579875,0.3755768268452809,1.0305651789527823,5645.288465711806,11.911888888888887,0.1011111111111111,179.11639254295068,1.552586237343662,87.32990549082157,1553.0,1710.0,1200.0,1528.0,1471.0,994.0,160.0,293.7,1649255552.3751602,1649255553.492596,922aec5c-eb84-41a4-8dab-80a2db6f2bcd
0.0061448858500231,0.0860232157625042,-0.1416727639180143,-1.4547548272447306,-0.4899160387862924,1.4560778462435646,-0.1286555537124908,-0.158884408683377,-15.693878750210962,27.32111914829533,27.23856045703026,6.7240745396856,0.3628956097002691,1.0574598020528116,5691.51806640625,11.897888888888888,0.1,179.12182178443092,1.6727109680006282,87.11350233061835,1553.0,1814.0,1200.0,1528.0,1471.0,994.0,160.0,293.7,1649255555.6316512,1649255556.771212,59ba8d2d-e74b-4726-8533-dcb4232a8480
0.0061580345396008,0.0910986124342662,-0.1321531071094003,-1.4544392582454844,-0.4843804361843558,1.4503713116766273,-0.1184521648362159,-0.1433820947929469,-15.20270902130672,27.34610833069845,27.24859907136627,6.711427862424906,0.378931148433457,1.0233805991902722,5683.133246527777,11.881999999999998,0.1,179.1182382118464,1.6684790966273744,86.9506273629405,1553.0,1814.0,1200.0,1528.0,1471.0,994.0,160.0,293.7,1649255556.879182,1649255558.0040925,59ba8d2d-e74b-4726-8533-dcb4232a8480
0.0060265475551327,0.085063360912004,-0.1403447454487147,-1.460921572610273,-0.4881804104194243,1.4623234774433609,-0.1229095730274399,-0.1460644289124488,-15.556707650414696,27.12662651871609,27.214330374829093,6.7508619709415925,0.3593796068767417,1.0450758888346912,5674.771701388889,11.882888888888887,0.0955555555555555,179.12125867327936,1.6543536606674556,86.86652648478022,1553.0,1814.0,1200.0,1528.0,1471.0,994.0,160.0,293.7,1649255558.1360369,1649255559.0916271,59ba8d2d-e74b-4726-8533-dcb4232a8480
-0.0525771931751072,0.1338187257676232,-0.0110536092118555,0.467900779657436,-0.1569121039269213,-0.4496284235659052,-0.5219725685477562,-0.5515045486476179,-16.21187359886279,29.63005146473275,13.641339310897283,-1.875959966461252,0.4379355580435161,0.9880014713414816,5668.93310546875,11.912333333333333,0.1066666666666666,179.1039024036885,1.0646074986647245,86.67949693255758,1553.0,1349.0,1200.0,1528.0,1471.0,994.0,160.0,293.7,1649255561.0585573,1649255562.2016015,1dd90634-39cc-4a80-ab0c-feb63a78286b
-0.0550885942093478,0.1333848187954686,-0.00140246596724,0.4661125571233154,-0.1493516029771817,-0.4480637283697093,-0.5141490921615247,-0.5357655548057627,-16.286290449230023,29.863967265277367,13.634113182278249,-1.8664174883441509,0.4377348587995483,0.9531828429304132,5672.6845703125,11.976,0.12,179.10936200156505,1.0385161760352757,86.98745877858484,1553.0,1349.0,1200.0,1528.0,1471.0,994.0,160.0,293.7,1649255562.3142388,1649255563.424167,1dd90634-39cc-4a80-ab0c-feb63a78286b
-0.058428363230978,0.1363169779989247,-0.0049394653552653,0.46695407361723,-0.1497986587192943,-0.4466831149351578,-0.5178175794092525,-0.5399336925782121,-16.58970796537459,29.664933021087503,14.32481413925359,-1.866751492582496,0.4444268769019279,0.9650420557511308,5680.203125,11.971,0.1155555555555555,179.12286756228386,1.0446360136736397,87.19418128400443,1553.0,1349.0,1200.0,1528.0,1471.0,994.0,160.0,293.7,1649255563.5323822,1649255564.653323,1dd90634-39cc-4a80-ab0c-feb63a78286b
-0.0749694237537528,0.1444823181515506,0.0318242898445061,0.8653989785055686,-0.082148612334061,-0.8425905000604865,-0.5984980034521177,-0.6234410887524756,-16.466085442288612,31.24913198981574,11.152242007321306,-3.6433133972339,0.4555957208232613,0.9371021782262074,5670.600423177083,11.967111111111112,0.1144444444444444,179.1409584566655,0.9032301092522388,87.61508637923713,1553.0,1264.0,1200.0,1528.0,1471.0,994.0,160.0,293.7,1649255566.5876858,1649255567.721341,53942690-b6b4-4cb0-9c42-8ccff07e7c63
-0.0659362691004047,0.1475722616745989,0.0322713455168654,0.8501859382751303,-0.0833188463512176,-0.8300071914950975,-0.5971568359816114,-0.6159857758294273,-16.72577683779455,31.311502504844963,11.387376439772238,-3.580377649371213,0.4688413786002364,0.9365420805189192,5661.44384765625,11.951555555555554,0.11,179.1304141624068,0.8921309807031642,87.78167393418383,1553.0,1264.0,1200.0,1528.0,1471.0,994.0,160.0,293.7,1649255567.8324606,1649255568.9535964,53942690-b6b4-4cb0-9c42-8ccff07e7c63
-0.0765472674043127,0.1326747892212294,0.0321793046709653,0.8523423242625777,-0.0805181738722646,-0.8173449908295631,-0.5911873259334942,-0.6120674625226051,-16.61012227942156,31.2661097895114,11.417161042292587,-3.5570308036783707,0.4116121425993397,0.9227114450640628,5661.44384765625,11.940777777777775,0.11,179.12819359201663,0.8962947399121948,87.95927630753204,1553.0,1264.0,1200.0,1528.0,1471.0,994.0,160.0,293.7,1649255569.062019,1649255570.183129,53942690-b6b4-4cb0-9c42-8ccff07e7c63
-0.0774206442667422,0.1590030298522182,0.0618164660409546,1.2248185704029897,-0.0276073125069979,-1.2027345372720004,-0.6822481478270868,-0.6986587388911176,-16.683390411064835,33.106503933663,8.800499747779059,-5.250045791027639,0.4901192807706843,0.9418519197985836,5670.600423177083,11.933666666666666,0.1044444444444444,179.11795437954092,0.7514847035965647,88.23877523746803,1553.0,1178.0,1200.0,1528.0,1471.0,994.0,160.0,293.7,1649255572.117368,1649255573.1721582,ca264d3c-26d8-40fa-a296-102cdba5a171
-0.0573562386551378,0.1609626912591005,0.0653817856189227,1.2243507802576528,-0.0236753464618341,-1.2046815574481624,-0.6808321337859945,-0.7065226733113559,-16.911268492763,33.14046462220945,8.755454638207365,-5.253085015229031,0.4997654944035708,0.9296166013078554,5665.18603515625,11.921666666666663,0.1,179.11196050908924,0.7551472502433763,88.34863579462805,1553.0,1178.0,1200.0,1528.0,1471.0,994.0,160.0,293.7,1649255573.2849815,1649255574.3316052,ca264d3c-26d8-40fa-a296-102cdba5a171
-0.0657258898683118,0.1517965330809583,0.0668230849925188,1.218206293452201,-0.0198192383508895,-1.1895605444347934,-0.6730061280250611,-0.7009471181822323,-16.929164856042032,32.9885283456359,8.861470185643663,-5.206173169102266,0.4654191929927786,0.9102936144382704,5660.613335503473,11.924333333333331,0.1,179.12321058956215,0.7455478877546321,88.45464640182591,1553.0,1178.0,1200.0,1528.0,1471.0,994.0,160.0,293.7,1649255574.4404514,1649255575.5079963,ca264d3c-26d8-40fa-a296-102cdba5a171
-0.0789008841328712,0.1743298576910034,0.0885609139744083,1.4102151910421754,0.008182933659147,-1.3982942659396178,-0.7242653291799809,-0.7502208669266522,-17.266856519788526,34.544030388464755,7.33221248653081,-6.097370490591791,0.5436407691090124,0.9168834112135624,5664.770236545139,11.920444444444446,0.1,179.10988109594192,0.6741413252666981,88.58901215990812,1553.0,1088.0,1200.0,1528.0,1471.0,994.0,160.0,293.7,1649255577.4428442,1649255578.5826828,4efdce9f-0c41-45aa-beb9-696215e890f3
-0.079177006783547,0.1664669376066662,0.096292347232604,1.4176179073584052,0.0152569323049979,-1.392890146129376,-0.7139567471203108,-0.7406880577072377,-16.957232805693646,34.68910830489272,8.03990574666788,-6.100310046256799,0.5052674893763823,0.88230096752179,5657.294542100694,11.882666666666667,0.0944444444444444,179.09441906548082,0.6685511415251437,88.60501377531367,1553.0,1088.0,1200.0,1528.0,1471.0,994.0,160.0,293.7,1649255578.69183,1649255579.8067725,4efdce9f-0c41-45aa-beb9-696215e890f3
-0.0785458693327394,0.1723181072481882,0.0896522556759306,1.4192483457872145,0.0094715058342422,-1.4011080897950154,-0.7246071955471879,-0.7511281270344097,-17.206664614575804,34.65550785922352,7.835390547268507,-6.123166264754543,0.5301687049840335,0.9146692663686428,5653.97509765625,11.890222222222222,0.0977777777777777,179.11791946968512,0.6335758890775912,88.64450441127485,1553.0,1088.0,1200.0,1528.0,1471.0,994.0,160.0,293.7,1649255579.9148188,1649255581.0383797,4efdce9f-0c41-45aa-beb9-696215e890f3
-0.0214279307680091,0.1319910570434492,-0.0226902056899412,-0.0173255374390906,-0.2158971607310608,0.0201745449446307,-0.3964682334763927,-0.416441107138385,-15.93631662633485,28.26377996959157,17.105815006050907,0.2653560853401266,0.457405680086597,0.9066759079602148,5654.804958767361,11.898666666666664,0.1022222222222222,179.13483101807006,1.082910650661197,88.75270675028638,1553.0,1435.0,1200.0,1528.0,1471.0,994.0,160.0,293.7,1649255582.9717638,1649255584.113531,45bbe6d7-8fea-4ca6-9f15-5e2ac1745a94
-0.034826452635536,0.1255876421087537,-0.0223877856391733,-0.0100280108651942,-0.2153975101840456,0.0219233215320735,-0.3950876200287101,-0.4223974680672904,-15.747083256755412,28.36892106453005,17.421780477520524,0.2536820612887506,0.4283717127907267,0.9034414312098868,5673.940212673611,11.97577777777778,0.12,179.12507143665604,1.0809325045547011,88.72658051780118,1553.0,1435.0,1200.0,1528.0,1471.0,994.0,160.0,293.7,1649255584.221474,1649255585.3395636,45bbe6d7-8fea-4ca6-9f15-5e2ac1745a94
-0.0323676463319949,0.130308023963452,-0.017667403543715,-0.0046107478648988,-0.2098750571546106,0.0146520924607863,-0.3917215531052771,-0.4139560030403525,-15.757397679522034,28.249231107284768,17.787174011455512,0.2246172787543988,0.442540780154905,0.8858686190378461,5683.9697265625,11.974444444444444,0.11,179.12246989349217,1.0715177884039098,88.70666899855077,1553.0,1435.0,1200.0,1528.0,1471.0,994.0,160.0,293.7,1649255585.447671,1649255586.5728378,45bbe6d7-8fea-4ca6-9f15-5e2ac1745a94
0.0387536528325478,0.1593008984022466,0.1605500244494485,-0.0281600634313057,-0.0505259965054092,-0.0056100487948377,-0.2066141802251159,-0.2315178137898813,-14.398357098262286,28.08593254526088,17.25631950100064,0.2405980255378031,0.5605623717862313,0.1659163734708929,5676.44140625,11.975666666666667,0.11,179.0726793322626,1.0681249037916731,88.58767875520016,1553.0,1435.0,1200.0,1435.0,1471.0,994.0,160.0,293.7,1649255588.5012972,1649255589.5369568,9f9db6ab-1e4b-4368-9577-79298f1e96f1
0.0157434342403963,0.1461784999310334,0.1382366875708908,-0.0200341689223904,-0.0677770866435386,0.0001096341805248,-0.2267185389021566,-0.2511882656571741,-14.49757994553414,28.032421021906348,17.14324682756613,0.2335871294784954,0.5106339087043748,0.2467293704866754,5678.11328125,11.974,0.11,179.07551765531767,1.0841509940417235,88.59177610979226,1553.0,1435.0,1200.0,1435.0,1471.0,994.0,160.0,293.7,1649255589.6456356,1649255590.6656487,9f9db6ab-1e4b-4368-9577-79298f1e96f1
0.022186295459797,0.1566843079335531,0.1494656738453997,-0.0288963904260437,-0.0602954781817813,-0.0052550339877344,-0.2171594357167541,-0.2340423637885846,-14.432538757471688,28.03134142476654,16.76379438461765,0.2420472291908392,0.5547427767772382,0.208326921606477,5680.203125,11.972888888888887,0.1111111111111111,179.098121028011,1.0752954996292263,88.59179204690034,1553.0,1435.0,1200.0,1435.0,1471.0,994.0,160.0,293.7,1649255590.7737472,1649255591.898228,9f9db6ab-1e4b-4368-9577-79298f1e96f1
0.1046812154753892,0.2045718579062161,0.4164499356041046,-0.0426236297310463,0.1789844959832504,-0.0508941599238778,0.0515867804096204,0.0259468225353955,-12.581289836926564,28.047335919223315,17.20140725092145,0.1848570008501622,0.7359847347734907,-0.856568030605684,5676.44140625,11.968555555555556,0.1044444444444444,179.04792824453028,1.0772788988152406,88.50088526468708,1553.0,1435.0,1200.0,1330.0,1471.0,994.0,160.0,293.7,1649255594.0293024,1649255595.1730354,4c84b439-5f77-4871-9a9d-fc2e272eee41
0.1255481960278215,0.1984840117863126,0.4159108391039377,-0.0433073619608209,0.179010793366664,-0.0443198115772622,0.0520469847616095,0.0241717483504457,-12.65797894841507,28.15081110801694,17.197386092787738,0.2017926335817905,0.7137817976461762,-0.8573686288637253,5668.93310546875,11.967,0.1166666666666666,179.03864677635818,1.07950908601689,88.519763907553,1553.0,1435.0,1200.0,1330.0,1471.0,994.0,160.0,293.7,1649255595.2811394,1649255596.3974078,4c84b439-5f77-4871-9a9d-fc2e272eee41
0.1022360637293415,0.1880186614241077,0.404592846859907,-0.0389227773493565,0.1694461286101658,-0.0378354812516311,0.0419417059462857,0.0160362453548519,-12.671958518898927,28.278152127173545,17.151517494325436,0.2067394908410146,0.6737806701527714,-0.8158803735519009,5660.613335503473,11.968888888888888,0.11,179.04353415616424,1.0826822069209878,88.52084990763103,1553.0,1435.0,1200.0,1330.0,1471.0,994.0,160.0,293.7,1649255596.5057786,1649255597.5608065,4c84b439-5f77-4871-9a9d-fc2e272eee41
0.1909103630318534,0.2306194239687995,0.6803310961283094,-0.0367593110279099,0.4164104895173952,-0.0948371047563501,0.3145738446435839,0.2964286449438698,-10.716850174953937,28.653083276746155,17.361562253238347,0.091002003773677,0.8350803573542569,-1.9096031309039625,5664.770236545139,11.962666666666667,0.11,179.00800502992166,1.0651534631955677,88.41232882645824,1553.0,1435.0,1200.0,1210.0,1471.0,994.0,160.0,293.7,1649255599.4785004,1649255600.4938247,77018146-a0a0-4173-ae93-a46491f975a6
0.1876100404261454,0.2320526317822484,0.6718370391809485,-0.044451298623421,0.4076271611211235,-0.088289053709512,0.3065662891365522,0.2846605625656959,-10.851911394328704,28.655681381465616,17.42225327265623,0.1226035521980253,0.8412823996295294,-1.8745644769445584,5659.367567274306,11.958222222222224,0.1055555555555555,179.00525322259602,1.0750138847636042,88.41818153966705,1553.0,1435.0,1200.0,1210.0,1471.0,994.0,160.0,293.7,1649255600.602225,1649255601.7230673,77018146-a0a0-4173-ae93-a46491f975a6
0.1933297230472279,0.2386532769707262,0.6723366895896871,-0.0491585320055361,0.4071406594013504,-0.0913264026719587,0.3066320326119277,0.288539427615968,-10.841976166483896,28.55269135138796,17.297113124363264,0.1257237877366484,0.8676871168326491,-1.8740464041180385,5653.97509765625,11.957,0.1,178.98383678499852,1.073573082445718,88.42960541050883,1553.0,1435.0,1200.0,1210.0,1471.0,994.0,160.0,293.7,1649255601.8319342,1649255602.9489586,77018146-a0a0-4173-ae93-a46491f975a6
0.2476601334212431,0.2614794124509547,0.8706453079621103,0.0051455848847388,0.5896313982046721,-0.1740843025783414,0.4881234725858012,0.4698467864334021,-9.550109787140132,29.22733447085315,17.267816452274086,-0.1677486879307199,0.950312297415919,-2.647503668109522,5653.97509765625,11.957666666666666,0.1066666666666666,178.96710282153197,1.056222303093672,88.39099890459019,1553.0,1435.0,1200.0,1071.0,1471.0,994.0,160.0,293.7,1649255605.090215,1649255606.2276993,010ef697-1cbf-4417-a063-efaa0904256f
0.242098235203183,0.2598884202930328,0.8570758545475783,0.0039359047979954,0.5753256180695727,-0.1713362248280699,0.4704253290700296,0.4487299821340786,-9.846440289354392,29.54076530860421,17.15600910698843,-0.1576095336536772,0.9467274317398036,-2.5850203144228034,5661.44384765625,11.942,0.11,178.9604502172804,1.0697752838237795,88.39558423825301,1553.0,1435.0,1200.0,1071.0,1471.0,994.0,160.0,293.7,1649255606.3362844,1649255607.447913,010ef697-1cbf-4417-a063-efaa0904256f
0.2435840377881021,0.2670150132662762,0.8407846213681531,0.001779518561666,0.5590080875621201,-0.1767403394547633,0.4537527836248465,0.435186826123586,-9.747784265934932,29.35101597761939,16.973105880727395,-0.1669375825483588,0.9736087938838106,-2.5161180402300896,5653.97509765625,11.94422222222222,0.1,178.9540768918749,1.053471242820005,88.37239878166044,1553.0,1435.0,1200.0,1071.0,1471.0,994.0,160.0,293.7,1649255607.5558708,1649255608.6145296,010ef697-1cbf-4417-a063-efaa0904256f
-0.1222652868107138,0.0841166548086685,-0.2901347089107292,0.0259731200315806,-0.4565446395213661,0.040594470358792,-0.6772192753082301,-0.7081187236708487,-17.778045159411352,28.75139730600056,16.901719776714188,0.2025271315452085,0.2704144797649656,1.9915433226514327,5665.18603515625,11.954666666666668,0.11,179.131136644639,1.0848970380549725,88.58287485548391,1553.0,1435.0,1200.0,1613.0,1471.0,994.0,160.0,293.7,1649255609.5959835,1649255610.7333252,012cb862-5a59-48fe-b488-bce49ff47b39
-0.1263545315923606,0.0753070283971848,-0.2961568125959663,0.0302727437054629,-0.4589377027318314,0.0435792244282348,-0.6789023089774168,-0.7036744623592723,-17.662976738718722,28.53775891564008,16.634227402369742,0.197834562296615,0.2380146085524226,2.004170443469248,5673.519965277777,11.973222222222224,0.11,179.1344743304134,1.0654353626524058,88.52725814289232,1553.0,1435.0,1200.0,1613.0,1471.0,994.0,160.0,293.7,1649255610.8414228,1649255611.963515,012cb862-5a59-48fe-b488-bce49ff47b39
-0.1210950527270098,0.0799879642337251,-0.2797866835846261,0.0302595950261273,-0.4467620072899942,0.0398712920515706,-0.6675681286829623,-0.692550660846102,-17.746591187311036,28.91106262685611,16.859883973206923,0.1928156834704206,0.2552085067011109,1.949807823331018,5681.877170138889,11.974,0.11,179.12675773447114,1.066142050072156,88.5105044477682,1553.0,1435.0,1200.0,1613.0,1471.0,994.0,160.0,293.7,1649255612.0715673,1649255613.1984034,012cb862-5a59-48fe-b488-bce49ff47b39
-0.1852081005834836,0.0516262265204829,-0.49626686065317,0.0746232961794105,-0.6434271136226976,0.0371626606092465,-0.902772114473803,-0.9315414779192176,-19.29573142973339,29.45528880668171,16.594592107500134,0.0786617730825772,0.1429738750794734,2.8429158083053268,5676.44140625,11.967,0.1077777777777777,179.1366463305695,1.0494885784877184,88.47886245807325,1553.0,1435.0,1200.0,1694.0,1471.0,994.0,160.0,293.7,1649255614.9210837,1649255616.0597365,9c165338-c569-4fbe-a8a9-94c733afc0ce
-0.1803693799015918,0.0423563956598773,-0.5043138647532789,0.0801983433378771,-0.646004258943363,0.0423958417508556,-0.9068350637606568,-0.9348155051581196,-19.39401289613509,29.19944849613244,16.734031221023336,0.0757215609627141,0.1064652563879114,2.8623398694926787,5668.93310546875,11.953666666666669,0.1033333333333333,179.14273885930913,1.0410802361644786,88.40898506940455,1553.0,1435.0,1200.0,1694.0,1471.0,994.0,160.0,293.7,1649255616.1685507,1649255617.2872822,9c165338-c569-4fbe-a8a9-94c733afc0ce
-0.2147400752429958,0.0414096895011125,-0.5017498683538913,0.0804481685334101,-0.6430063551535652,0.0440788748515956,-0.904665527782755,-0.929082670304096,-19.508261307069464,29.23600487488883,16.89242354420704,0.0792777620950492,0.102451732545807,2.851688787139224,5649.421278211806,11.954777777777778,0.11,179.14135612545715,1.036206327009244,88.37219311707544,1553.0,1435.0,1200.0,1694.0,1471.0,994.0,160.0,293.7,1649255617.395847,1649255618.518062,9c165338-c569-4fbe-a8a9-94c733afc0ce
-0.2703985130798414,0.0049878005680779,-0.7106169767159081,0.1418262815642993,-0.8333864082002613,0.0314824238048519,-1.1398958570533595,-1.1603289469717426,-21.17448453814256,30.37532946421729,16.348910289686074,-0.0912549712701721,-0.0383209307583451,3.7243517388657854,5651.90478515625,11.934444444444445,0.1,179.15289762733468,1.0185496358165589,88.33156715189222,1553.0,1435.0,1200.0,1774.0,1471.0,994.0,160.0,293.7,1649255619.6332695,1649255620.769502,554284d7-d86c-4b03-8604-4358030a3df5
-0.2727915760841534,0.0013456116141433,-0.7003346923180809,0.1554877765587301,-0.8239193424018063,0.0246976964667041,-1.132322202431226,-1.1549379771265174,-21.02798061012556,30.61825075044365,16.730253654800364,-0.1350612667773355,-0.057424169835123,3.686877782622227,5653.97509765625,11.919,0.1,179.1639822654477,1.0062385044288265,88.27238280382413,1553.0,1435.0,1200.0,1774.0,1471.0,994.0,160.0,293.7,1649255620.879007,1649255621.998215,554284d7-d86c-4b03-8604-4358030a3df5
-0.2651127365225834,0.0151385942169803,-0.6962585948993535,0.1393148806355192,-0.8203560439641574,0.0273142870531025,-1.1241174098637368,-1.1434328592468033,-20.983873335116424,30.12646860963636,16.959165231418538,-0.095697776018106,-0.0057918247988312,3.66686908371717,5651.49072265625,11.912,0.0966666666666666,179.1582115145089,1.0007200791764426,88.18176744301547,1553.0,1435.0,1200.0,1774.0,1471.0,994.0,160.0,293.7,1649255622.1064737,1649255623.226672,554284d7-d86c-4b03-8604-4358030a3df5
-0.317628636779548,-0.0049131678964626,-0.8528464887418498,0.2100022691903085,-0.9635980184575992,-0.0112245422193024,-1.3122096673255284,-1.339309155614545,-22.31525089812044,31.269877345965625,16.607375721372662,-0.3426965971237442,-0.0870676359880036,4.3395166843243205,5657.70654296875,11.906333333333334,0.0933333333333333,179.1695723958284,0.9879306211033976,88.09005166284055,1553.0,1435.0,1200.0,1856.0,1471.0,994.0,160.0,293.7,1649255624.9536345,1649255626.10094,f0f8ae15-2cb7-441a-9693-8464459b9aac
-0.3180493951035681,-0.0084238698818998,-0.860748859225753,0.2125531161570222,-0.9697121659610798,-0.0140120658988828,-1.3164041053285598,-1.344516044894109,-22.010629611447,31.0157746358318,16.011236765790354,-0.3567342730814939,-0.097926714407426,4.363662247872324,5656.049207899306,11.875555555555556,0.09,179.1786732434425,0.9789965202256092,88.00658295663345,1553.0,1435.0,1200.0,1856.0,1471.0,994.0,160.0,293.7,1649255626.214476,1649255627.3232858,f0f8ae15-2cb7-441a-9693-8464459b9aac
-0.3057422135622852,-0.0094757655768146,-0.8465745574974735,0.2127766439757943,-0.9588644850218518,-0.0126051553601669,-1.305017323849086,-1.3263971240735528,-22.036889348013155,31.38911904822972,16.187936052972233,-0.3508813020241635,-0.1023747984097524,4.31330613779988,5665.18603515625,11.877,0.0922222222222222,179.16830805192205,0.9810679885348272,87.90973618657202,1553.0,1435.0,1200.0,1856.0,1471.0,994.0,160.0,293.7,1649255627.4317963,1649255628.5527985,f0f8ae15-2cb7-441a-9693-8464459b9aac
-0.0445038933386039,0.101512379740002,-0.0913658488106659,-0.0064121193437262,-0.250333600060623,0.0423432469712711,-0.4330610626012801,-0.4558214609484404,-16.099878353472377,25.526737462712543,17.06905689490669,0.2689021551250876,0.3388317818487155,1.0966573092209075,7945.500434027777,11.68288888888889,6.970000000000001,179.04105252076585,0.7619419603752005,77.1217946609053,1553.0,1435.0,1350.0,1528.0,1471.0,994.0,160.0,293.7,1649255632.4875329,1649255633.4663792,ac083d5a-ce51-4ff0-afbe-eca94d9116c5
-0.0699597702654681,0.0976203657012309,-0.08917001645732,0.0005829871817376,-0.2473619944033878,0.0399633329268201,-0.4317330440352965,-0.4611072381398601,-16.09232120363963,25.60764536922905,17.1168319852858,0.24843202976647,0.3230367746802914,1.0873557591984122,7951.23046875,11.684,6.973333333333333,179.04391512893795,0.6887691892304855,72.7971306143175,1553.0,1435.0,1350.0,1528.0,1471.0,994.0,160.0,293.7,1649255633.574936,1649255634.694908,ac083d5a-ce51-4ff0-afbe-eca94d9116c5
-0.0478962570952735,0.0967657004562379,-0.0870267788284184,-0.0023491721201228,-0.2447322548009838,0.0434871835403404,-0.4276700959893357,-0.4502727099352093,-16.08882732315856,25.52313685259247,17.139774391227732,0.2625167432498076,0.3200986417852194,1.075008079099491,7952.05078125,11.679222222222222,7.001111111111111,179.06208798558964,0.6833514440495391,68.6101388962801,1553.0,1435.0,1350.0,1528.0,1471.0,994.0,160.0,293.7,1649255634.8044927,1649255635.9203842,ac083d5a-ce51-4ff0-afbe-eca94d9116c5
0.141129400680431,0.4634170746384574,-0.0784538284315001,-0.203116626631905,-0.3250182052064887,-0.1224362197930825,-0.4948730982963428,-0.5188300292991944,-15.764981354779367,24.73739164896968,18.123286924320023,0.338084759784893,1.7095041927031602,1.3128979487501504,7973.419921875,11.678,7.09,178.8410585105886,0.7307171695440888,61.00259147753994,1631.0,1435.0,1350.0,1528.0,1531.0,994.0,160.0,293.7,1649255637.9219985,1649255638.9964228,2c4844da-eaa0-4fa0-8542-d3eaa34675bc
0.1420235119701744,0.4591963435119088,-0.0779673266860645,-0.2002896566998213,-0.3226251421498644,-0.117807878431728,-0.4927035628825522,-0.515345623805307,-15.820353439082144,24.68891537768257,18.57423375897601,0.3418551893706482,1.689751023361567,1.3060176702804265,7966.009765625,11.653,7.023333333333333,178.8407853030218,0.755917614947576,58.73233753244545,1631.0,1435.0,1350.0,1528.0,1531.0,994.0,160.0,293.7,1649255639.108352,1649255640.2316434,2c4844da-eaa0-4fa0-8542-d3eaa34675bc
0.141497564146735,0.4587492878776372,-0.0809520808562296,-0.2045103885742465,-0.3255047070701538,-0.1142314328539738,-0.4950703288121138,-0.5196320999420856,-15.895271808430898,24.680500848487053,18.44784308408544,0.3591506159774079,1.6900550463199095,1.317059757486777,7971.773220486111,11.650666666666666,7.03888888888889,178.86294850796855,0.7867762673220859,57.0752114553052,1631.0,1435.0,1350.0,1528.0,1531.0,994.0,160.0,293.7,1649255640.3439682,1649255641.4577396,2c4844da-eaa0-4fa0-8542-d3eaa34675bc
0.4098624393320125,0.919781981632572,-0.0490007477137379,-0.4454602860295351,-0.4073027613386285,-0.3381537548779295,-0.5621155495500233,-0.5820884254046954,-15.276013375182792,23.88077699840089,19.16201695741311,0.3962062548150177,3.4401733604636138,1.5358174845246568,7976.719618055556,11.635666666666667,7.064444444444444,178.5054989057649,0.9467349161648636,53.43443110355858,1712.0,1435.0,1350.0,1528.0,1591.0,994.0,160.0,293.7,1649255643.5947807,1649255644.7303154,2e6fd7b0-13ff-4b74-8774-0a201c466db1
0.4076403098371192,0.9329832716255676,-0.0473440118807592,-0.4495626801659999,-0.4071712742718659,-0.3457931486846197,-0.562786133207198,-0.5915160435930541,-15.311874454980408,23.73394623706997,19.38342267668061,0.3874198903070687,3.488585357447348,1.5362436933983146,7980.84423828125,11.618000000000002,7.016666666666667,178.50514070028845,0.9941499826613868,52.42760050710608,1712.0,1435.0,1350.0,1528.0,1591.0,994.0,160.0,293.7,1649255644.8396864,1649255646.1640427,2e6fd7b0-13ff-4b74-8774-0a201c466db1
0.4047607455841169,0.9146671392042468,-0.0520380965897178,-0.4380838657782863,-0.4097484192545578,-0.3382326470514936,-0.567059460782313,-0.5915160434679954,-15.34691014884241,24.07731956232449,19.37112250002783,0.3805388864226199,3.418540670639295,1.549938337137322,7980.84423828125,11.61488888888889,7.018888888888888,178.52150128008034,1.0436369206380158,51.53096552653789,1712.0,1435.0,1350.0,1528.0,1591.0,994.0,160.0,293.7,1649255646.2735274,1649255647.3921278,2e6fd7b0-13ff-4b74-8774-0a201c466db1
0.6479721578181725,1.372899189058166,-0.0289226878591117,-0.6839251129096577,-0.5014474482013673,-0.5571847869436042,-0.6430063550414458,-0.6661349204987386,-14.75248090157812,23.425744537055312,19.691739709207194,0.4402637674481576,5.161863276891544,1.8058849639489416,7980.84423828125,11.609777777777778,7.01111111111111,178.20098782308833,1.1455955892585696,50.07526704039066,1796.0,1435.0,1350.0,1528.0,1650.0,994.0,160.0,293.7,1649255649.5316155,1649255650.6689975,c66f63d5-209d-4269-ba65-37fe1c4eddc5
0.6649602717139872,1.3687836469910375,-0.0372984076529782,-0.6872122881849496,-0.5073906604900044,-0.5525827419042464,-0.6469641140403837,-0.6777583721769364,-14.673962079288296,23.169774113738672,19.29780990929568,0.4558830550827017,5.149232549438683,1.830109426100748,7987.455349392361,11.571888888888887,7.036666666666667,178.23221241233398,1.195587060028264,49.57863374055528,1796.0,1435.0,1350.0,1528.0,1650.0,994.0,160.0,293.7,1649255650.7774055,1649255652.1045644,c66f63d5-209d-4269-ba65-37fe1c4eddc5
0.6465915448481953,1.3594875184322257,-0.0350894265442989,-0.6760358920825612,-0.502538790224628,-0.5504263550571225,-0.6460700023463264,-0.6715390363332119,-14.880742821526692,23.345157937120984,19.78319148776536,0.4367634504170442,5.110294992359822,1.8186580580197893,7980.84423828125,11.581,6.99,178.21292699375752,1.212110663154733,49.18494011897594,1796.0,1435.0,1350.0,1528.0,1650.0,994.0,160.0,293.7,1649255652.2134335,1649255653.5428994,c66f63d5-209d-4269-ba65-37fe1c4eddc5
0.7236823434457516,1.531932681075734,-0.0404935409055962,-0.7942821670158413,-0.5561460397017174,-0.6368659118420262,-0.688158994562866,-0.7143906538585886,-14.445012326928104,23.175245905680043,15.855235865656338,0.5074545910646097,5.803011750057904,1.973628734269216,7994.905436197917,11.562666666666663,7.04111111111111,178.14026895918673,1.2917025966776108,48.60402759715195,1886.0,1435.0,1350.0,1528.0,1710.0,994.0,160.0,293.7,1649255655.4716427,1649255656.607865,16f9c260-e2ee-45cd-99d8-5202ee25305f
0.7464953292446219,1.5332475508424708,-0.0352209135349218,-0.7955838884251701,-0.5520699426599728,-0.6379309565143552,-0.6819002127913243,-0.7121553746689916,-14.275921288194647,23.14701947783258,15.760469146527644,0.5081430930550307,5.808080488878956,1.95212245931688,7988.28173828125,11.42122222222222,6.98,178.15206849043287,1.3162698859166313,48.41191031290756,1886.0,1435.0,1350.0,1528.0,1710.0,994.0,160.0,293.7,1649255656.715922,1649255657.8396616,16f9c260-e2ee-45cd-99d8-5202ee25305f
0.7198034784289662,1.5296579564142336,-0.0305399775676023,-0.7927963635608729,-0.5463239608218439,-0.6356956773918,-0.6773639109100589,-0.6960876618012254,-14.399471219539318,23.20360605617297,15.978472245545586,0.5074588482469075,5.793514129469704,1.931244814541616,7988.28173828125,11.420555555555556,6.98,178.14540222580297,1.3186691914480424,48.24816563447538,1886.0,1435.0,1350.0,1528.0,1710.0,994.0,160.0,293.7,1649255657.949015,1649255659.0681365,16f9c260-e2ee-45cd-99d8-5202ee25305f
-0.322506803837447,-0.3883423374564265,-0.1009906950028626,0.2526303403106913,-0.144854748534031,0.2795983148382723,-0.3393108403688413,-0.3578636542421371,-16.430600567288202,26.803068730473413,16.785263115898996,0.2254796338034074,-1.5260473986816216,0.7744741433052102,7980.84423828125,11.461111111111112,7.007777777777778,179.38390980326267,1.2947154808694614,48.052222685385885,1475.0,1435.0,1350.0,1528.0,1408.0,994.0,160.0,293.7,1649255659.9769342,1649255661.113845,ff3fd149-da7e-4163-bc5b-c26c0530137e
-0.340283844039966,-0.3990979731000324,-0.1113387195366863,0.2586918889707688,-0.1526387772752796,0.2854889304147928,-0.3494747842756333,-0.3700787950131741,-16.580448492803292,26.947051913460243,16.838056382927963,0.2254154701455477,-1.5671947644276747,0.8123153486534139,7980.84423828125,11.66811111111111,7.084444444444445,179.38934359820237,1.2735203247998867,47.88978712654463,1475.0,1435.0,1350.0,1528.0,1408.0,994.0,160.0,293.7,1649255661.2221797,1649255662.3435948,ff3fd149-da7e-4163-bc5b-c26c0530137e
-0.3322368406326835,-0.3938253448436379,-0.1089588053820494,0.2596122976672219,-0.1516000301906959,0.2808737383057916,-0.3474893308101678,-0.3675279476388344,-16.41161576484088,26.893853704650827,17.05329637380114,0.2128534438050981,-1.5504851762389666,0.8059191280578283,7984.976182725694,11.669,7.098888888888889,179.36877106842226,1.2778532734864827,47.81421563683789,1475.0,1435.0,1350.0,1528.0,1408.0,994.0,160.0,293.7,1649255662.4515066,1649255663.776528,ff3fd149-da7e-4163-bc5b-c26c0530137e
-0.5352659041024503,-0.7805417728838177,-0.1184127185485746,0.4679928205125674,-0.0748116394431206,0.4613527295072929,-0.2834551701831485,-0.306360202519028,-16.765810700970885,28.526550179074,16.314931049111582,0.1584150369786037,-3.018083625829652,0.5761214744373095,7980.84423828125,11.654111111111112,7.093333333333333,179.48766189457496,1.2749154383697312,47.7273868570141,1396.0,1435.0,1350.0,1528.0,1340.0,994.0,160.0,293.7,1649255665.4231331,1649255666.5427845,607af18c-5b15-4c37-844b-4f9d918a1e1b
-0.543207718881335,-0.7883915481273085,-0.1276956986717329,0.4694523256641444,-0.079466278106389,0.4677298466252964,-0.2886620546342566,-0.3134342020457177,-16.864073937675823,28.279952616099383,16.266883938236123,0.1672989069167424,-3.047176102147477,0.6015561759486198,7987.455349392361,11.616888888888887,7.077777777777778,179.51044437000652,1.2778042526496274,47.74587124618293,1396.0,1435.0,1350.0,1528.0,1340.0,994.0,160.0,293.7,1649255666.6510372,1649255667.9721954,607af18c-5b15-4c37-844b-4f9d918a1e1b
-0.5420374844964203,-0.7900482845888916,-0.1262624907006378,0.4775256244516812,-0.0785458693198785,0.4629568703059551,-0.2894904226002439,-0.3131449306867359,-16.797062198304403,28.440861748067245,16.414379523206645,0.139557301651007,-3.05607182265665,0.5995875196607139,7980.84423828125,11.612666666666668,7.036666666666666,179.50484816834654,1.2580046963265563,47.78063615014839,1396.0,1435.0,1350.0,1528.0,1340.0,994.0,160.0,293.7,1649255668.079589,1649255669.203792,607af18c-5b15-4c37-844b-4f9d918a1e1b
-0.8178972365724274,-1.2921710351125926,-0.1529674947010716,0.7526620671956056,0.0074597554580895,0.7006195324609823,-0.2204466100516051,-0.2444035373862376,-17.19253142926063,30.55822855191257,16.415662545311402,0.065484315562014,-4.972081993400304,0.3610546911022274,7988.28173828125,11.609555555555554,7.052222222222222,179.65504858165457,1.2526927538589254,47.82534998354988,1314.0,1435.0,1350.0,1528.0,1268.0,994.0,160.0,293.7,1649255670.9333336,1649255671.9829235,99a688cf-200a-403c-a5ac-a4ef9d555e42
-0.8290210389090023,-1.2896859292286382,-0.1495356847382608,0.7463112475102932,0.009905412998218,0.7043274644416643,-0.215055644012719,-0.2432464519716422,-17.12004836167853,30.47717592287032,16.492083097266658,0.087824668626044,-4.962953560473062,0.3458068480009181,7984.976182725694,11.575444444444445,7.046666666666667,179.60227702230725,1.2543272086409354,47.87652859100078,1314.0,1435.0,1350.0,1528.0,1268.0,994.0,160.0,293.7,1649255672.091154,1649255673.3041546,99a688cf-200a-403c-a5ac-a4ef9d555e42
-0.8364895019928673,-1.2920658454166098,-0.1494173464709859,0.7566329730869877,0.0126929366290843,0.6959122996621261,-0.2174750044103938,-0.2444298350388818,-17.274916298497775,30.458317564260533,16.307771557422175,0.0454049269090183,-4.970413670596255,0.3447354991873087,7980.84423828125,11.577333333333334,7.054444444444446,179.58521976321998,1.250605229861971,47.91581621856165,1314.0,1435.0,1350.0,1528.0,1268.0,994.0,160.0,293.7,1649255673.412545,1649255674.5490034,99a688cf-200a-403c-a5ac-a4ef9d555e42
-0.9117132326913168,-1.4900591146713662,-0.1424353882059683,0.8429936020716323,0.0576483293844696,0.7803926649512043,-0.1753728749250457,-0.2060093402766813,-17.38671173582696,31.586932608438328,12.222326762115369,0.0475570290937284,-5.686179436824429,0.1845394564282964,7980.84423828125,11.557555555555556,7.0633333333333335,179.64280888266188,1.2399529569529706,48.00830722520738,1227.0,1435.0,1350.0,1528.0,1189.0,994.0,160.0,293.7,1649255676.465274,1649255677.6016438,543b5e3c-0f3e-4235-ba03-91f0ef0dab87
-0.9272550004307398,-1.485351876159915,-0.1443156518946703,0.8358670093410301,0.0551106310244269,0.7818127240144007,-0.1760697558749515,-0.1968052517506716,-17.366040385148203,31.45563362246229,12.138563470416257,0.0658569702515238,-5.667172334560932,0.1920084021924469,7975.069769965277,11.423222222222222,7.002222222222222,179.64045777976762,1.2109852709093003,48.08625334401557,1227.0,1435.0,1350.0,1528.0,1189.0,994.0,160.0,293.7,1649255677.7101128,1649255678.8296611,543b5e3c-0f3e-4235-ba03-91f0ef0dab87
-0.9397988638220844,-1.4866404498270784,-0.1445917745962019,0.8334870955248483,0.0545846831417715,0.7877690828544353,-0.1752150905615687,-0.1997505601556826,-17.380344088334567,31.49218794691862,12.495927834825968,0.0848885461507799,-5.674795208948826,0.1921865271363123,7973.419921875,11.428999999999998,7.01,179.66767532470016,1.1989476079636487,48.12528066547807,1227.0,1435.0,1350.0,1528.0,1189.0,994.0,160.0,293.7,1649255678.937611,1649255680.0254428,543b5e3c-0f3e-4235-ba03-91f0ef0dab87
-0.0474623501592896,0.1096645712669732,-0.084949284719375,-0.0157739912703043,-0.242589017029934,0.0436844139907323,-0.4251060996475189,-0.4481689181456477,-16.327884600182085,25.194141582197226,17.230174281476238,0.2910596201708723,0.3711470315520875,1.0671448771162346,7980.84423828125,11.463444444444445,7.021111111111111,179.16120161954558,1.2220305405708571,48.33751703083264,1553.0,1435.0,1350.0,1528.0,1471.0,994.0,160.0,293.7,1649255681.9935076,1649255683.1318982,d12d4126-408a-4c58-92bd-c09becc6630a
-0.0470152944646239,0.106903345116082,-0.0860011804845989,-0.0139068763586329,-0.2437986972591096,0.0459722871475262,-0.425605750236378,-0.4491550705199306,-16.257804715795093,25.260035536320576,17.40796856784341,0.292437082304063,0.3584235113330596,1.0708927410135252,7986.628960503473,11.679555555555554,7.102222222222223,179.16789672275203,1.2174924609077822,48.38805170322679,1553.0,1435.0,1350.0,1528.0,1471.0,994.0,160.0,293.7,1649255683.240167,1649255684.360585,d12d4126-408a-4c58-92bd-c09becc6630a
-0.055535649944882,0.0991456144512162,-0.0908793470416145,-0.0128286832434973,-0.2471384664877913,0.0513106578226988,-0.4275386089865233,-0.4519557434420292,-16.173270126567505,25.229534290164924,17.20124401219079,0.3015654773900909,0.3301186684798958,1.083693920525624,7985.802571614583,11.675666666666668,7.1,179.17293284890002,1.2202925894501735,48.40840908204801,1553.0,1435.0,1350.0,1528.0,1471.0,994.0,160.0,293.7,1649255684.4690406,1649255685.5840864,d12d4126-408a-4c58-92bd-c09becc6630a
-0.0493426137500274,0.0872328957898471,-0.1239220226397046,-0.397151965741794,-0.3170895401681929,0.4343058636419222,-0.3530117841762535,-0.3822676387281413,-16.14928003143408,24.48755478512734,19.844892460362736,2.0230155212250187,0.3070494543243814,1.1171390063044058,7980.84423828125,11.674666666666669,7.086666666666667,179.170414785826,1.3372881804037913,48.51742459302572,1553.0,1522.0,1350.0,1528.0,1471.0,994.0,160.0,293.7,1649255686.499493,1649255687.6376302,e64a02f1-4ef2-4e8b-b52c-d455a3b2cac4
-0.039020886834611,0.0888896315057168,-0.1217393389101013,-0.3963893412064646,-0.3147490718451184,0.432070585466575,-0.3523543492267805,-0.3699341594160196,-16.265151009362896,24.507132846492546,19.86903116753681,2.0164562483603548,0.313914193227601,1.110192049278889,7980.84423828125,11.667222222222223,7.110000000000001,179.15315869234294,1.3209752696404695,48.537949311481626,1553.0,1522.0,1350.0,1528.0,1471.0,994.0,160.0,293.7,1649255687.745918,1649255688.866091,e64a02f1-4ef2-4e8b-b52c-d455a3b2cac4
-0.0255434727684918,0.0933207420911694,-0.1139421615444209,-0.3967049099455575,-0.3092266185772232,0.428178571707236,-0.3446360632266478,-0.3679092597266371,-16.040426943910788,24.50875603861644,19.950118222190884,2.008947273363493,0.3287575180668686,1.0818569153385895,7983.323404947917,11.667666666666667,7.1066666666666665,179.16466832000435,1.312465351969261,48.54213963253741,1553.0,1522.0,1350.0,1528.0,1471.0,994.0,160.0,293.7,1649255688.973922,1649255690.0941155,e64a02f1-4ef2-4e8b-b52c-d455a3b2cac4
-0.0292382565780896,0.0785942024439025,-0.1597653712282856,-0.8835881561908177,-0.404594129314511,0.91314189057581,-0.2558034583777415,-0.2748296245857194,-15.862590779647284,23.797756414142683,23.27608081004646,4.190638624217227,0.2998161811766852,1.146790488918794,7988.28173828125,11.656555555555554,7.095555555555556,179.16094662581656,1.4877084285677609,48.51733997457101,1553.0,1613.0,1350.0,1528.0,1471.0,994.0,160.0,293.7,1649255691.0039968,1649255692.147782,ecbdfeb6-1ef2-4333-986c-3d98860c196b
-0.0230583691691691,0.0816841460378573,-0.1538353087317908,-0.8908593891039294,-0.399150567956145,0.9153903174437924,-0.2472436560413423,-0.2770123081861607,-15.784006018385622,23.62155173142589,23.13184715703908,4.211237020874204,0.3133956743596981,1.1193394726270356,7988.28173828125,11.632555555555555,7.09,179.1268138938043,1.485422058317001,48.522612880610254,1553.0,1613.0,1350.0,1528.0,1471.0,994.0,160.0,293.7,1649255692.2595742,1649255693.3800535,ecbdfeb6-1ef2-4333-986c-3d98860c196b
-0.0102909847522037,0.0871803010004207,-0.1577799179006169,-0.887716848968532,-0.4045941292731841,0.9087765237643808,-0.2562242166732957,-0.2818378803705222,-15.912607761386395,23.805323938581576,23.31717655426441,4.190272783468484,0.3326433743701713,1.1457057636261003,7988.28173828125,11.650666666666668,7.083333333333333,179.14996064599154,1.4812107249431266,48.49797107590467,1553.0,1613.0,1350.0,1528.0,1471.0,994.0,160.0,293.7,1649255693.4926398,1649255694.6001456,ecbdfeb6-1ef2-4333-986c-3d98860c196b
-0.0009291128365308,0.0702973751591685,-0.1933339956356979,-1.353325679012667,-0.4901132690683198,1.3739379361389428,-0.1648802144118823,-0.1864703755543094,-15.727041090346033,23.43894635230369,26.35789097910998,6.28223103222176,0.2961252276060783,1.1790391104930622,7988.28173828125,11.642666666666663,7.083333333333333,179.13703337462243,1.6605600970410774,48.50838673493399,1553.0,1710.0,1350.0,1528.0,1471.0,994.0,160.0,293.7,1649255695.5103457,1649255696.6470826,7a30f283-62b6-45df-89ea-9564cdd74dd7
-0.0168390356460207,0.0714281630254342,-0.1917693006708587,-1.3550613088170524,-0.4893637932467733,1.3735829213233544,-0.1625397462893423,-0.1868516879156751,-15.613519075590304,23.409671772294143,26.25257296875303,6.285272624561889,0.3008087095909435,1.1726175869616988,7995.7333984375,11.607666666666669,7.0633333333333335,179.11595541084378,1.6475183607135324,48.50790900114704,1553.0,1710.0,1350.0,1528.0,1471.0,994.0,160.0,293.7,1649255696.7555342,1649255697.8935788,7a30f283-62b6-45df-89ea-9564cdd74dd7
