raw_voltage_G-,raw_voltage_G0,raw_voltage_G1,raw_voltage_G2,raw_voltage_G3,raw_voltage_G4,raw_voltage_G5,raw_voltage_G6,load_x,load_y,load_z,load_l,load_m,load_n,rpm,voltage,current,roll,pitch,yaw,aileron1_pwm,elevator_pwm,throttle_pwm,rudder_pwm,aileron2_pwm,pbaro,pdiff,Tt,sample_start_time,sample_end_time,uid
0.0060103645434776,0.1637820750780944,0.0741560117235448,0.0453553098457856,-0.1314188028804125,-0.0766873515506957,-0.3149063505411533,-0.3373855676216732,-13.91047369911315,28.340723378842565,16.644947888081234,-0.0874195088147683,0.5648110466627478,0.5486059702776868,5697.403971354167,11.969555555555557,0.0944444444444444,179.02196138312573,1.0331743514900258,90.69272560247022,1553.0,1435.0,1200.0,1528.0,1471.0,994.0,160.0,293.7,1649254023.5735958,1649254024.7682788,36974de7-373e-486c-a731-8175f163483a
0.0054035016411962,0.1573973717984646,0.0662667940314767,0.0501975700864641,-0.136893212366427,-0.0723887391366788,-0.322125491608913,-0.3440357747564394,-14.016283933445012,28.36162540745604,16.942544585299608,-0.088942997343066,0.5378798685771821,0.5767017720296388,5695.30029296875,11.970333333333334,0.0988888888888888,179.02182933280176,1.04339308525624,90.09384095566516,1553.0,1435.0,1200.0,1528.0,1471.0,994.0,160.0,293.7,1649254024.8766725,1649254025.9262092,36974de7-373e-486c-a731-8175f163483a
0.0102078330479701,0.1630867113657812,0.0673161611204165,0.0420049208812725,-0.1377655778480218,-0.0727427425127346,-0.321000266490124,-0.3492446823232023,-13.980443268852497,28.31587823225528,16.62115667827575,-0.0715420826893507,0.5628875714502111,0.5750646088682325,5691.51806640625,11.968666666666667,0.09,179.02454926591128,1.0350153127727229,89.70729247086754,1553.0,1435.0,1200.0,1528.0,1471.0,994.0,160.0,293.7,1649254026.0357094,1649254027.212163,36974de7-373e-486c-a731-8175f163483a
0.2005483569934926,0.5221785928711639,0.0961871578200466,-0.1118383699962566,-0.1886793567199545,-0.2712005836248357,-0.3709597577798383,-0.3914322818615843,-13.503600108066962,27.171955044055977,18.21694090911297,-0.1761217919907076,1.912934348099783,0.721343250847046,5697.403971354167,11.953444444444443,0.09,178.77685321457065,1.0406375308129627,88.89146204327518,1631.0,1435.0,1200.0,1528.0,1531.0,994.0,160.0,293.7,1649254029.1503005,1649254030.2922297,5c1756ea-db7d-4967-b3b2-c152ac78f0c8
0.2083981283206438,0.5276484499963288,0.0982778004606722,-0.1089851027682073,-0.19140113716723,-0.2803652261173207,-0.3768240774613212,-0.4041865198780943,-13.57137745926995,27.66497384330989,18.029529287133656,-0.1998438498224301,1.9353799724761551,0.7307229808856718,5699.0869140625,11.936555555555556,0.09,178.78255262797805,1.0363975130161678,88.65290554395398,1631.0,1435.0,1200.0,1528.0,1531.0,994.0,160.0,293.7,1649254030.4008906,1649254031.5088756,5c1756ea-db7d-4967-b3b2-c152ac78f0c8
0.2089766709367943,0.521192440740971,0.0982120569676335,-0.1099186602420744,-0.1910461223508963,-0.2745797989881439,-0.3744047169301727,-0.4040024380039971,-13.492600180005416,27.69375159522496,17.838918820558344,-0.1845405779694997,1.912409083258933,0.7258694769532201,5692.78076171875,11.928,0.0833333333333333,178.77529289580025,1.046124402014337,88.47052052036693,1631.0,1435.0,1200.0,1528.0,1531.0,994.0,160.0,293.7,1649254031.616883,1649254032.746837,5c1756ea-db7d-4967-b3b2-c152ac78f0c8
0.4631409520241455,0.970838365275238,0.1369744127772617,-0.326819576876837,-0.2592221198184167,-0.5114799059730608,-0.4336659028168006,-0.4591217850715753,-12.806599157657724,26.639105245884817,18.32930106558626,-0.2322492092096769,3.618797676561802,0.9043752142058706,5687.74169921875,11.937,0.09,178.37040383526133,1.045824051560366,88.05156810032697,1712.0,1435.0,1200.0,1528.0,1591.0,994.0,160.0,293.7,1649254034.4709408,1649254035.4064765,b9210b3e-df6b-478a-85ba-da4b805475d4
0.4643506319791655,0.9752037321220888,0.1306367412499082,-0.3288313277574131,-0.2672428257053485,-0.5121241922639787,-0.4439481857500325,-0.4746109526179854,-12.999045285063522,26.84195206722443,18.516899064659853,-0.2281968353437247,3.634719221568339,0.9391357562766004,5688.161295572917,11.911555555555555,0.09,178.36921082888634,1.0627452997625764,87.99928527896024,1712.0,1435.0,1200.0,1528.0,1591.0,994.0,160.0,293.7,1649254035.5150888,1649254036.6387928,b9210b3e-df6b-478a-85ba-da4b805475d4
0.4612080938446848,0.9830535032302338,0.1297557787028517,-0.336194598871157,-0.270109241748878,-0.5151352444987914,-0.4473405500004377,-0.4757811869913905,-13.12405394087702,26.869347950531303,18.20243584127212,-0.2183286449991369,3.668683688560417,0.9494138446256898,5683.553602430556,11.914555555555555,0.0844444444444444,178.38134731613147,1.0565175546217,87.94345379486474,1712.0,1435.0,1200.0,1528.0,1591.0,994.0,160.0,293.7,1649254036.7520778,1649254037.7707326,b9210b3e-df6b-478a-85ba-da4b805475d4
0.7096000911274025,1.412936970924899,0.1689651897798123,-0.5428001090850304,-0.3389163794412176,-0.7422659013918812,-0.5043007160243493,-0.529007123111271,-12.119095583772388,26.30660053003383,18.67959388282114,-0.2638663671592557,5.297579855728069,1.122595200421495,5678.532335069444,11.903444444444444,0.0855555555555555,178.15899430225127,1.0837911758816976,87.81031595301332,1796.0,1435.0,1200.0,1528.0,1650.0,994.0,160.0,293.7,1649254039.4560442,1649254040.6315162,915a44c8-27fe-417e-91ea-9b5d7c408c56
0.6948735527627583,1.410149447185039,0.1627853027605973,-0.536764855824872,-0.3414146321321381,-0.7455925229526162,-0.5091788836093842,-0.5381717666900478,-12.153321327661835,26.07313461314631,18.568942268307968,-0.2868460404539093,5.2872090906052565,1.1409986949226922,5675.606553819444,11.871444444444442,0.0822222222222222,178.155104130064,1.0855790253288178,87.757067039334,1796.0,1435.0,1200.0,1528.0,1650.0,994.0,160.0,293.7,1649254040.7397983,1649254041.8617735,915a44c8-27fe-417e-91ea-9b5d7c408c56
0.7086007903168832,1.4167895391211351,0.1620226783996939,-0.542708068181813,-0.3426900559117684,-0.7502208660131623,-0.513084047446813,-0.5441018308122871,-12.423663452898538,26.06333235306439,18.04179802817304,-0.2841631814639828,5.319382177804198,1.1491583473665732,5676.44140625,11.868000000000002,0.09,178.1314018558243,1.0927594039894013,87.72725705815643,1796.0,1435.0,1200.0,1528.0,1650.0,994.0,160.0,293.7,1649254041.969942,1649254043.037442,915a44c8-27fe-417e-91ea-9b5d7c408c56
0.8227577603695779,1.6349264323356305,0.2086742508700961,-0.6640442772285549,-0.361768817538672,-0.8668367084768388,-0.5220383121083727,-0.5436153289452303,-11.898262019707236,26.659538726357667,16.101051521368564,-0.2662794217926683,6.168916935229898,1.1470182260876955,5667.68408203125,11.828666666666669,0.08,178.05647012716975,1.1104560683898852,87.65431063782069,1886.0,1435.0,1200.0,1528.0,1710.0,994.0,160.0,293.7,1649254045.0182426,1649254046.1581726,dfbc3db3-c291-416b-8fd4-e9e37884992c
0.8483739469908017,1.6298742979517995,0.2168952199494554,-0.6700097416381687,-0.3548455221075464,-0.8579856085082163,-0.5103921041914763,-0.5345149111457752,-11.758518894262696,26.72210182062674,15.949769051800178,-0.2320628766686736,6.1515768078255935,1.1089957066084266,5655.218912760417,11.784,0.0833333333333333,178.0592158632161,1.1049797507794157,87.5369907551771,1886.0,1435.0,1200.0,1528.0,1710.0,994.0,160.0,293.7,1649254046.266755,1649254047.3854191,dfbc3db3-c291-416b-8fd4-e9e37884992c
0.8149605842474894,1.6261562507353688,0.2080168160678988,-0.6731694760239083,-0.3637674197580596,-0.8507426958880794,-0.5185144606501242,-0.5488353626097409,-11.812968153261552,26.821818153039285,15.98151202918554,-0.2084629002663749,6.137563790066532,1.144302579102198,5650.24853515625,11.789666666666667,0.08,178.04867915805647,1.115475545951806,87.48634262575173,1886.0,1435.0,1200.0,1528.0,1710.0,994.0,160.0,293.7,1649254047.4934711,1649254048.6116073,dfbc3db3-c291-416b-8fd4-e9e37884992c
-0.2766704419802959,-0.3282396362770394,0.0342699473912374,0.2793616383166734,-0.0577446309936458,0.1862031299900525,-0.246481031608279,-0.2760787508287334,-14.368376182421178,29.657583189519304,16.21250935044181,-0.0180863068185677,-1.3048133229639791,0.3462516155665616,5653.563205295139,11.871222222222222,0.0888888888888888,179.29727113037077,1.0816444569119363,87.38601549485323,1475.0,1435.0,1200.0,1528.0,1408.0,994.0,160.0,293.7,1649254050.5458534,1649254051.7072935,7cc52606-6234-426b-8658-c396d7390e69
-0.2721604386259412,-0.3356817995819614,0.0375308240828548,0.2881975616575568,-0.0547861742187155,0.1885304491273357,-0.2438775894342942,-0.2655860898356041,-14.28459523266734,29.91695923062317,16.682128084829145,-0.0307893500707882,-1.3383579303609476,0.3338618744619746,5672.6845703125,11.967666666666666,0.0988888888888888,179.24149884124807,1.0543402420962815,87.4133104485964,1475.0,1435.0,1200.0,1528.0,1408.0,994.0,160.0,293.7,1649254051.8205636,1649254052.920329,7cc52606-6234-426b-8658-c396d7390e69
-0.2486374179977126,-0.3245054059734522,0.0482470115593456,0.2917608581231359,-0.043701822883517,0.1733042594332708,-0.2342790400643338,-0.2557508636453868,-14.171784928605796,29.58766325167051,16.622427517468296,-0.0746446341806184,-1.2964739316805298,0.2920043808350275,5680.203125,11.96875,0.1,179.23925512410574,1.0451747433621787,87.4209000219929,1475.0,1435.0,1200.0,1528.0,1408.0,994.0,160.0,293.7,1649254053.0399375,1649254054.1395504,7cc52606-6234-426b-8658-c396d7390e69
-0.4617646730978867,-0.705120819299601,0.0230541093607785,0.4828771433491608,0.0164008689734076,0.3676945737614766,-0.1817894393649538,-0.2057200690727447,-14.527532691825204,31.01467668512216,16.348664346093692,-0.0609524658533133,-2.7441722923968297,0.1241496799030045,5691.51806640625,11.95411111111111,0.0977777777777777,179.3749668089094,1.0588071739555025,87.43237881893928,1396.0,1435.0,1200.0,1528.0,1340.0,994.0,160.0,293.7,1649254055.0542612,1649254056.191363,217c5857-b161-4a62-b970-4a00713d364b
-0.4816981013510277,-0.7037007595851863,0.0098791156195991,0.4773941375117549,0.0054611536060847,0.3759519543856655,-0.1951090698164543,-0.2181192908903493,-14.92715150003126,30.94090695996787,16.903244554231733,-0.0312865210095187,-2.7410944318442314,0.1766300019302395,5683.9697265625,11.909666666666666,0.09,179.37454637282045,1.0378758813744886,87.32522301669059,1396.0,1435.0,1200.0,1528.0,1340.0,994.0,160.0,293.7,1649254056.2999485,1649254057.251983,217c5857-b161-4a62-b970-4a00713d364b
-0.4767278930253936,-0.7097360135792607,0.0200430579304646,0.487531781413782,0.0130479514435347,0.367405302466929,-0.1843271379264873,-0.2128072169272059,-14.33925022859088,31.11143032624412,16.250532294305607,-0.0715316250592364,-2.762707281350137,0.1358699390471995,5687.74169921875,11.911,0.09,179.37456458665827,1.036949928281227,87.23368026797462,1396.0,1435.0,1200.0,1528.0,1340.0,994.0,160.0,293.7,1649254057.3605251,1649254058.4433348,217c5857-b161-4a62-b970-4a00713d364b
-0.7599246081894259,-1.216763196383757,0.004212027440835,0.7395133722022362,0.1090728799244193,0.6341528794127376,-0.0972433163350172,-0.119885372695722,-14.969170547583524,33.2249841633926,16.78454576974243,-0.027532172816434,-4.696634099265269,-0.1570245790220783,5683.9697265625,11.891444444444446,0.09,179.5608724155586,1.039561823450555,87.09400289944786,1314.0,1435.0,1200.0,1528.0,1268.0,994.0,160.0,293.7,1649254059.556988,1649254060.6981804,fedf4674-6f01-426c-920b-af0241b02963
-0.7595038496712274,-1.2178019442354897,-0.0056363462420705,0.7413936355837738,0.1005525248751335,0.6326013334067909,-0.1085511957718627,-0.1322845940030043,-15.114679418515836,33.236622024982765,16.584733027312858,-0.035778448613961,-4.698584861623015,-0.1163926738777643,5683.9697265625,11.876777777777775,0.0811111111111111,179.58289446326253,1.038119491454886,86.96989760331883,1314.0,1435.0,1200.0,1528.0,1268.0,994.0,160.0,293.7,1649254060.807974,1649254061.9260614,fedf4674-6f01-426c-920b-af0241b02963
-0.7473675977476196,-1.2169735757026714,-0.0121712483855743,0.7355950610974874,0.0966473621503899,0.6382815696317937,-0.1119041134985736,-0.1349406308281031,-15.24798234608022,32.944989539720844,16.71461993331245,-0.0122390940491053,-4.695390970214206,-0.0971330159761237,5680.203125,11.881999999999998,0.09,179.56584175763476,1.0521725700982851,86.88176843136804,1314.0,1435.0,1200.0,1528.0,1268.0,994.0,160.0,293.7,1649254062.034385,1649254063.1546395,fedf4674-6f01-426c-920b-af0241b02963
-0.8731951176570463,-1.4142011696569317,0.0101572611079793,0.8185997384114779,0.1539964110154968,0.7265968022557056,-0.0543092811013857,-0.0747150471618777,-15.271268940158324,34.24837542630381,12.95763313254638,0.0081203158578685,-5.4104335042969645,-0.3166703631947247,5680.203125,11.802,0.0677777777777777,179.62364488967066,1.0553983166613008,86.65204184882384,1227.0,1435.0,1200.0,1528.0,1189.0,994.0,160.0,293.7,1649254064.065931,1649254065.188495,d6528987-97a1-48c0-846d-f0ad2351f8a3
-0.8500458146034334,-1.4106672010352863,0.0065656440517576,0.8200754265621923,0.1500705138325421,0.7208422253274782,-0.0600456529745564,-0.0829375341303602,-15.294466243401068,34.25313880823201,12.789249764317876,-0.0083255575166155,-5.395931708359438,-0.2980751263907898,5680.203125,11.727666666666668,0.0433333333333333,179.62795549794686,1.0567383025411254,86.4015036798786,1227.0,1435.0,1200.0,1528.0,1189.0,994.0,160.0,293.7,1649254065.2961318,1649254066.241396,d6528987-97a1-48c0-846d-f0ad2351f8a3
-0.8469609265982826,-1.41825956952372,0.0045058501962924,0.8195858905333963,0.1503046617756895,0.7286828932863931,-0.0585067497242879,-0.0900256934071725,-15.310130094132653,34.16619369350197,12.781368765095625,0.0097096689211676,-5.4242987744462905,-0.298686744264857,5680.203125,11.725666666666667,0.0477777777777777,179.62027988313957,1.0513401170772554,86.1785685820991,1227.0,1435.0,1200.0,1528.0,1189.0,994.0,160.0,293.7,1649254066.350703,1649254067.3047016,d6528987-97a1-48c0-846d-f0ad2351f8a3
0.0120880966185535,0.169780408965536,0.0807900346759674,0.0623555626599917,-0.1223704763401179,-0.0935222350613761,-0.3115933842589371,-0.3291205992494554,-13.893860090716569,28.15408006569284,17.35268561292618,-0.1643839158242012,0.5792424983995744,0.5244832414638256,5684.807942708333,11.79022222222222,0.0611111111111111,179.07831499723775,1.051789012287707,85.9105003531941,1553.0,1435.0,1200.0,1528.0,1471.0,994.0,160.0,293.7,1649254068.9522831,1649254070.1254995,e37aa7f6-c441-4941-af34-e8c785f44487
0.0155725011456545,0.1766966229453953,0.0845768591631497,0.0567147719489022,-0.1211739449077995,-0.0974931415506096,-0.3108702058487984,-0.3370887104415128,-13.986815371696164,28.259657347309467,17.029927040364875,-0.1597926288373381,0.6096373786331614,0.5168858561912851,5694.459798177083,11.974777777777778,0.0922222222222222,179.0715090931848,1.074350170617382,86.19998881424618,1553.0,1435.0,1200.0,1528.0,1471.0,994.0,160.0,293.7,1649254070.2334096,1649254071.348615,e37aa7f6-c441-4941-af34-e8c785f44487
0.0050666927443239,0.1751450768523958,0.0812370903220014,0.0571486789483676,-0.1243822270377728,-0.0990841338687347,-0.3145123953196932,-0.3440443718874458,-13.971964939566348,28.279938603606137,16.617484708163808,-0.1644367105481355,0.6071036929109666,0.5302302419663004,5699.929470486111,11.96922222222222,0.09,179.07187488776037,1.0811145599267968,86.40011335692756,1553.0,1435.0,1200.0,1528.0,1471.0,994.0,160.0,293.7,1649254071.4575517,1649254072.5846436,e37aa7f6-c441-4941-af34-e8c785f44487
0.0220153623914112,0.1611022697289873,0.0582005746323443,-0.3600331892274202,-0.1879824757729253,0.3224367644990504,-0.2184743054074519,-0.2490581763864076,-13.854021170014615,27.471280216955464,20.260862729508244,1.7179695015264604,0.5711985944971762,0.5117155718024281,5673.108615451389,11.96877777777778,0.09,179.0886376898034,1.2298466485748134,86.79044500761546,1553.0,1522.0,1200.0,1528.0,1471.0,994.0,160.0,293.7,1649254074.451606,1649254075.650481,6ea47a8f-4fb8-4473-97ea-b8a6e21cc586
0.0325869142712458,0.17076656114991,0.0531777726553029,-0.3675279474379851,-0.1951222185426796,0.3177426802517686,-0.223431364468432,-0.2509910352701175,-13.686515906912312,27.312757952208862,19.92139517681132,1.7230568452970685,0.609870352303426,0.5361516648435082,5649.008951822917,11.963666666666668,0.09,179.0885071572992,1.223684134112104,86.8801428463456,1553.0,1522.0,1200.0,1528.0,1471.0,994.0,160.0,293.7,1649254075.7621338,1649254076.8758986,6ea47a8f-4fb8-4473-97ea-b8a6e21cc586
0.0144022671782366,0.1539230817935191,0.0488912976723832,-0.3579031000485246,-0.1949907315537968,0.3252505853142735,-0.223036903523309,-0.2431544111497843,-13.594707072226992,27.26562077137589,19.887626970715697,1.717731728312926,0.5448889865672323,0.539336135560047,5645.286783854167,11.966,0.09,179.08382620098806,1.220570492772029,86.98330830029919,1553.0,1522.0,1200.0,1528.0,1471.0,994.0,160.0,293.7,1649254076.985954,1649254078.107525,6ea47a8f-4fb8-4473-97ea-b8a6e21cc586
0.0520732821844112,0.1610233775363772,0.019425069172864,-0.7986738334149183,-0.2740538511909117,0.7421825572818395,-0.1398713923117423,-0.1677729279293919,-13.534246840618312,26.739511853934346,22.65889611376545,3.644421653458531,0.5989211886837821,0.5699399625669451,5638.632385253906,11.9635,0.09,179.06302599823562,1.3603903347760076,87.0644555010984,1553.0,1613.0,1200.0,1528.0,1471.0,994.0,160.0,293.7,1649254079.016261,1649254080.159027,286fe589-6d9d-4080-a7c3-cfbeafc22501
0.0323896838104474,0.1411556980914424,0.0112597287385448,-0.7902981100318865,-0.2772489847422324,0.7548841966442033,-0.1440000831822868,-0.168509255147275,-13.639914065684628,26.80715625193001,22.74595278890495,3.65407288376295,0.522833894184393,0.588991059364414,5624.29541015625,11.955000000000002,0.09,179.07702788603416,1.3531975052497494,87.0713949732951,1553.0,1613.0,1200.0,1528.0,1471.0,994.0,160.0,293.7,1649254080.2671435,1649254081.404566,286fe589-6d9d-4080-a7c3-cfbeafc22501
0.0469058445717308,0.147427626035509,0.0199773144486702,-0.7845126809621205,-0.2674137586339981,0.7470344257326349,-0.134414682930465,-0.1593709102898691,-13.486382589359932,26.518478722431755,23.333771027290496,3.622074274670538,0.5398964035291803,0.5519290731317352,5627.98828125,11.953,0.09,179.06710589789986,1.3563370799643295,87.09144385523882,1553.0,1613.0,1200.0,1528.0,1471.0,994.0,160.0,293.7,1649254081.5136356,1649254082.6066644,286fe589-6d9d-4080-a7c3-cfbeafc22501
0.0448152018545686,0.1428518798674721,-0.009225940405528,-1.2079009678015031,-0.3467530037643003,1.1546834262524133,-0.0566664378817149,-0.0850281769189143,-13.400486502290594,26.513775952254893,25.40864672591892,5.492064936146928,0.5540138009148029,0.5878247639926967,5631.68603515625,11.946,0.09,179.05559475241867,1.51292318653779,87.077255275603,1553.0,1710.0,1200.0,1528.0,1471.0,994.0,160.0,293.7,1649254083.4513855,1649254084.4548006,fac9b8c6-f6fc-4cf0-a3a9-f99812484142
0.0666025915158685,0.1525161713396616,-0.0044135174803376,-1.212148000173421,-0.3451225651573997,1.1489900409598397,-0.0546152411866876,-0.0761528065332593,-13.363461786262086,26.570674629249,25.415008283371485,5.48948786980867,0.5907712831185605,0.5772673727516969,5633.743326822917,11.916555555555554,0.08,179.0663955582262,1.516959342160608,86.98165311779033,1553.0,1710.0,1200.0,1528.0,1471.0,994.0,160.0,293.7,1649254084.5628555,1649254085.680238,fac9b8c6-f6fc-4cf0-a3a9-f99812484142
0.0486546211115649,0.1498995808497222,-0.001415614662043,-1.209715489456816,-0.3393765838840548,1.1506862227255257,-0.0492111268108936,-0.0794268320393618,-13.40789739079958,26.371807914653854,25.64493712883784,5.4866575168093314,0.5791213129056064,0.5577399184219961,5634.977701822917,11.919888888888888,0.0811111111111111,179.0961038454761,1.5145799105824065,86.89053459971281,1553.0,1710.0,1200.0,1528.0,1471.0,994.0,160.0,293.7,1649254085.7889464,1649254087.1170228,fac9b8c6-f6fc-4cf0-a3a9-f99812484142
0.06005454074991,0.1396173006658287,-0.0190348680266144,-1.4728869011192858,-0.3946142669369494,1.4119113733741195,-0.0061622941360133,-0.0301849627378171,-13.38318866549883,27.26576394126955,26.98375386278306,6.672590211212039,0.5598159573061946,0.5936872540016254,5642.80859375,11.903333333333332,0.08,179.0934522142583,1.6050167615511874,86.78368691488669,1553.0,1814.0,1200.0,1528.0,1471.0,994.0,160.0,293.7,1649254088.0267944,1649254089.1648788,4a031dad-289d-45d3-a75d-2ef6cc3272e9
0.0525860813245886,0.1249302073230807,-0.0215594177973246,-1.455096694655714,-0.3904198320183744,1.4132262427554758,-0.0053733723762449,-0.0294091897865798,-13.396444609881035,27.0893671759632,27.448962055420576,6.63418697409725,0.4983477316705271,0.5893903725788869,5639.095703125,11.873333333333337,0.08,179.08786056605783,1.6240115532068948,86.6115228899376,1553.0,1814.0,1200.0,1528.0,1471.0,994.0,160.0,293.7,1649254089.2725856,1649254090.3976915,4a031dad-289d-45d3-a75d-2ef6cc3272e9
0.0754648127410135,0.1370796023484446,-0.0022045364788461,-1.4563589698614174,-0.3771002001555977,1.4033252736787685,0.0097344799243268,-0.0172729427942093,-13.174696107210718,27.304526048380048,27.69727392201589,6.617326821115944,0.5415311449052642,0.5252313572664709,5635.393229166667,11.872666666666667,0.08,179.0815175970486,1.644737086339162,86.45839915566482,1553.0,1814.0,1200.0,1528.0,1471.0,994.0,160.0,293.7,1649254090.5053265,1649254091.5695355,4a031dad-289d-45d3-a75d-2ef6cc3272e9
0.0033573621891612,0.1824031569181212,0.0975546221734521,0.4306636750775686,-0.0772309996655372,-0.4659854055014281,-0.4105110438222335,-0.4301814975306202,-14.212144610623586,29.831741734221623,14.042819316454716,-1.820902899233834,0.6139181044610954,0.5801646464393241,5651.905870225694,11.902666666666669,0.0822222222222222,179.0654120109857,1.0178683837366866,86.33292933952157,1553.0,1349.0,1200.0,1528.0,1471.0,994.0,160.0,293.7,1649254092.5317838,1649254093.6757555,1a695fea-058d-4dbd-9cbd-9c23a9eb3f4b
-0.0011920867791142,0.1701222750532883,0.1032874536766994,0.4379612008797632,-0.0668435291454261,-0.4583854573471672,-0.3998605976962157,-0.4246064494912942,-14.226088586605172,29.667022009751825,14.4327886657023,-1.8210375771684333,0.5639618900719278,0.5422239571938644,5691.938313802083,11.973888888888888,0.0888888888888888,179.07453107243757,0.9790562962388142,86.66885246219107,1553.0,1349.0,1200.0,1528.0,1471.0,994.0,160.0,293.7,1649254093.788335,1649254095.1039517,1a695fea-058d-4dbd-9cbd-9c23a9eb3f4b
-0.010619702175276,0.1759602959948549,0.0933470394638905,0.4387501225945264,-0.077467676167939,-0.4615279964212764,-0.4107608690578385,-0.4404769292655324,-14.13351535881435,29.61021377751299,14.822218546934655,-1.8306417746862147,0.5810230344937954,0.5871146009828668,5702.883951822917,11.970666666666666,0.09,179.0693507534071,0.9931255135757212,86.93794901402113,1553.0,1349.0,1200.0,1528.0,1471.0,994.0,160.0,293.7,1649254095.212494,1649254096.332999,1a695fea-058d-4dbd-9cbd-9c23a9eb3f4b
-0.0182590948753786,0.1835602421327827,0.1372505353833725,0.8515534025586772,0.0018189646858515,-0.867283764132697,-0.488706358243863,-0.5076930806174867,-14.453275782127424,31.144176941880183,12.09117159083742,-3.661853600147099,0.5879801823332411,0.5300898086238341,5706.67578125,11.962444444444444,0.0877777777777777,179.08355147560144,0.8456148785663078,87.29876514057565,1553.0,1264.0,1200.0,1528.0,1471.0,994.0,160.0,293.7,1649254097.5390542,1649254098.4882672,16d546c2-835a-4e3a-9bcf-4d94c8940078
-0.0213358898707398,0.1765519872897733,0.1367114388421937,0.8489105148446253,0.0022134255770461,-0.8591315682815049,-0.4878385441203499,-0.5095338984921564,-14.589804873556377,31.232537040195368,11.928953679641216,-3.6371084977804,0.5643917370183168,0.5278200947467334,5708.365451388889,11.937666666666663,0.0844444444444444,179.08236605832548,0.8421244384570198,87.44692180950204,1553.0,1264.0,1200.0,1528.0,1471.0,994.0,160.0,293.7,1649254098.5965898,1649254099.6426504,16d546c2-835a-4e3a-9bcf-4d94c8940078
-0.0243469413859553,0.1835339447424744,0.1349626622770942,0.842112639485736,-0.0006792876661396,-0.8608408996227784,-0.4897977003923418,-0.5100204003676959,-14.59331575939776,31.124610182389283,11.7557471063682,-3.626447167214721,0.5928625676165504,0.5375160313088697,5700.772026909723,11.941666666666666,0.09,179.10392213534604,0.8500163722329339,87.573076921292,1553.0,1264.0,1200.0,1528.0,1471.0,994.0,160.0,293.7,1649254099.7508032,1649254100.839194,16d546c2-835a-4e3a-9bcf-4d94c8940078
-0.0565875456103502,0.1866107395509477,0.1625354775362968,1.2304199149368225,0.0562677162638732,-1.239050255368788,-0.584008135508479,-0.6064529672137852,-15.145045277998976,33.278027950898654,8.972285134106,-5.337333384352769,0.586952731053428,0.555084495772164,5705.831922743056,11.93611111111111,0.08,179.09309704442148,0.7161406861526518,87.84619265999368,1553.0,1178.0,1200.0,1528.0,1471.0,994.0,160.0,293.7,1649254102.4531758,1649254103.705233,f1cfdff1-a29f-474a-8ade-e812f82db9fd
-0.0199330250663225,0.1851739916796892,0.1652233743815794,1.2327457169925762,0.0593890144376118,-1.237995830155343,-0.5785377704916944,-0.6088429964601221,-14.922595812018622,33.15624103375516,9.258029778433238,-5.340726365848138,0.5773390396782798,0.5398357530555091,5699.929470486111,11.91977777777778,0.08,179.0905516605908,0.7131527807689376,87.96197726789381,1553.0,1178.0,1200.0,1528.0,1471.0,994.0,160.0,293.7,1649254103.8221824,1649254104.9305332,f1cfdff1-a29f-474a-8ade-e812f82db9fd
-0.0516795416949585,0.1920517709863358,0.1704954956617053,1.2226692643101336,0.0624359719194449,-1.236693602398926,-0.5727093563154309,-0.5966678054444692,-14.900691015101456,33.09145780666344,9.125582515045528,-5.315247103637008,0.6057274864154849,0.5207997475920435,5702.87841796875,11.912777777777778,0.08,179.10502255471232,0.7033161225673883,88.08800488281926,1553.0,1178.0,1200.0,1528.0,1471.0,994.0,160.0,293.7,1649254105.0385542,1649254106.3639538,f1cfdff1-a29f-474a-8ade-e812f82db9fd
-0.0411509757572775,0.2004563161426443,0.1856771820691223,1.40699376043457,0.0856024573537482,-1.4227508665217303,-0.621758054792504,-0.6450444039998277,-15.079177272012672,34.57832864106192,7.829144840068381,-6.138817434459275,0.628296580499224,0.5384562979767732,5694.880045572917,11.91211111111111,0.0788888888888888,179.08071467036618,0.6409718337258862,88.24342128392345,1553.0,1088.0,1200.0,1528.0,1471.0,994.0,160.0,293.7,1649254107.4826908,1649254108.6208017,62e04815-8f0f-4e96-b532-d04010b2cb04
-0.0404409461244405,0.2056763483312138,0.180785867238064,1.4068491251123425,0.0787125405648369,-1.4285363000291031,-0.6304624948695725,-0.6546561046271897,-15.117083451250505,34.724077321327314,7.661068789345141,-6.150815056694585,0.6493430156026042,0.5672082553863282,5681.877170138889,11.884777777777778,0.08,179.10983859698712,0.6112873039134654,88.3077844332022,1553.0,1088.0,1200.0,1528.0,1471.0,994.0,160.0,293.7,1649254108.729496,1649254109.8486798,62e04815-8f0f-4e96-b532-d04010b2cb04
-0.0348527499900205,0.2036908952931533,0.1868868620465054,1.3976055909265228,0.0845900077043055,-1.4137045542508204,-0.6199435341498741,-0.6432167344871056,-15.144806447543154,34.67176912901947,8.347294647543197,-6.096582530316513,0.6375345339812881,0.5365585001754869,5676.44140625,11.890444444444444,0.08,179.08650211732288,0.6208988563926034,88.37282984248804,1553.0,1088.0,1200.0,1528.0,1471.0,994.0,160.0,293.7,1649254109.9570448,1649254111.2873802,62e04815-8f0f-4e96-b532-d04010b2cb04
0.0174396160646947,0.1768281099073145,0.0812633877188982,-0.0026778894814042,-0.1329946236397606,-0.0396388755531015,-0.2990626748867215,-0.3279766624502653,-13.838175195582044,28.327420743845128,17.52869329531644,0.1046274754798179,0.611761543985403,0.5209660176974567,5676.44140625,11.880444444444445,0.0811111111111111,179.0953585959467,1.0534750848014134,88.41462149328964,1553.0,1435.0,1200.0,1528.0,1471.0,994.0,160.0,293.7,1649254111.9511583,1649254112.9221847,9f7ecb12-a652-4e21-8169-b33acf1bd810
0.0108258217404778,0.1683734984948199,0.0754648127301912,0.0022265742984083,-0.136110864868662,-0.0387447641953901,-0.3033491505008108,-0.3294493168147228,-13.843260762247034,28.288419184979603,17.08211094321155,0.0949523702757775,0.5830735486966762,0.5376201542620699,5685.22705078125,11.974666666666668,0.09,179.10124773683103,1.0426446340756272,88.39219418769494,1553.0,1435.0,1200.0,1528.0,1471.0,994.0,160.0,293.7,1649254113.0313313,1649254114.1504452,9f7ecb12-a652-4e21-8169-b33acf1bd810
0.0157434342420487,0.15944553405771,0.0764772623307557,0.011772527917676,-0.1333364897590595,-0.0345766273457215,-0.3032176634916579,-0.3329600190457281,-13.983347208493887,28.49809108122968,17.6829461141425,0.0842510119375068,0.5441469929609704,0.5319408865000794,5689.839680989583,11.973777777777778,0.09,179.10219789203558,1.0401462789432836,88.38736372613192,1553.0,1435.0,1200.0,1528.0,1471.0,994.0,160.0,293.7,1649254114.258721,1649254115.3820229,9f7ecb12-a652-4e21-8169-b33acf1bd810
0.064170082696504,0.1838889595352708,0.2483307169003991,-0.0101857952011522,0.021042358860326,-0.0492111267531925,-0.123619602593779,-0.1450519790974552,-12.707206235971462,28.368998720096503,17.4808005360854,0.1092094744048428,0.6421800419335731,-0.1648677993300189,5683.9697265625,11.973666666666666,0.09,179.06491568390604,1.0389885263050642,88.28927917401091,1553.0,1435.0,1200.0,1435.0,1471.0,994.0,160.0,293.7,1649254117.5186183,1649254118.6530504,215da6e7-c472-4ef1-85c9-840c7a5ea7b3
0.0672074315477445,0.1934743587007789,0.2455563421317636,-0.014090958132889,0.015533055060965,-0.0543128210988611,-0.1284057283387157,-0.1522443163692906,-12.60804586343906,28.36897187788089,17.54982005594051,0.1064769704597225,0.6771224937960055,-0.1454754312664307,5683.9697265625,11.974777777777778,0.09,179.06686152890956,1.0417618439833705,88.28282692197499,1553.0,1435.0,1200.0,1435.0,1471.0,994.0,160.0,293.7,1649254118.7604687,1649254119.884505,215da6e7-c472-4ef1-85c9-840c7a5ea7b3
0.0737554822112106,0.1959857596053721,0.2530510986017659,-0.0114612187581659,0.0236589494424528,-0.0596774893626888,-0.1223441789731478,-0.1472083656503839,-12.704175610978872,28.31489722950239,17.53461503481805,0.0884537052521877,0.6875073518683673,-0.1751292663621994,5676.859375,11.975333333333335,0.0888888888888888,179.067253126422,1.040631364669962,88.28597715700216,1553.0,1435.0,1200.0,1435.0,1471.0,994.0,160.0,293.7,1649254119.993147,1649254121.113377,215da6e7-c472-4ef1-85c9-840c7a5ea7b3
0.1431542998712341,0.2332623117797277,0.5056638318947262,-0.034524032601803,0.2498296681958771,-0.0908661982967922,0.1381972414856687,0.1083628503311382,-10.738583178108998,28.254068630133403,17.24022643836484,0.0835102589021484,0.8348670598171765,-1.1931838004601694,5655.221950954861,11.96811111111111,0.0822222222222222,179.02483613385638,1.0407787592036135,88.20188083230136,1553.0,1435.0,1200.0,1330.0,1471.0,994.0,160.0,293.7,1649254123.0462658,1649254124.1866066,c4b269d7-f688-4093-9ccf-4cc2415728ab
0.1693955567569919,0.2409168754929161,0.510604201195678,-0.0345862360632441,0.2522070534807924,-0.0975356219460229,0.1395075595924033,0.1144871083582942,-10.745313162766008,28.368436278352824,17.372821600131346,0.0696853923140788,0.8627715645288009,-1.2039607397979462,5646.52587890625,11.964444444444446,0.0888888888888888,179.01874512293656,1.0421654773326032,88.17945883907602,1553.0,1435.0,1200.0,1330.0,1471.0,994.0,160.0,293.7,1649254124.2950032,1649254125.415228,c4b269d7-f688-4093-9ccf-4cc2415728ab
0.1359619632200027,0.2333149065666601,0.5072285265982216,-0.0357863074616527,0.2495272481812501,-0.0892752059472066,0.1385128101633449,0.1118078086908656,-10.729887008219045,28.43594017784765,17.31344646567041,0.0912324229087918,0.8346115164141058,-1.195324042536609,5645.286783854167,11.961333333333332,0.09,179.01583849798973,1.0459297416229916,88.19002058826258,1553.0,1435.0,1200.0,1330.0,1471.0,994.0,160.0,293.7,1649254125.52416,1649254126.6407206,c4b269d7-f688-4093-9ccf-4cc2415728ab
0.2404677969643047,0.2807028052644042,0.7789594572028651,-0.0379821397919859,0.4923310551047093,-0.1481156253587912,0.40593097944492,0.3752945195557879,-8.902568027166629,28.751556669141696,17.32425224947777,-0.0194924018640633,1.0168178608473666,-2.270298987125177,5642.80859375,11.960555555555556,0.09,178.97527172777933,1.0320214487604358,88.11954062512713,1553.0,1435.0,1200.0,1210.0,1471.0,994.0,160.0,293.7,1649254127.5534582,1649254128.9017994,f7123364-2750-49ae-b047-fb8a96c7e8dc
0.2266616665889723,0.2693423323715129,0.7642855135723728,-0.028041725159669,0.4838501467917488,-0.1444076927441834,0.3944653172516386,0.371139531882304,-8.996993892904017,28.536348742004133,17.47257648386964,-0.0357645137943493,0.9714051321366458,-2.223476793644493,5643.221625434027,11.952222222222222,0.0811111111111111,178.9770065958285,1.0239498727087732,88.09782441811602,1553.0,1435.0,1200.0,1210.0,1471.0,994.0,160.0,293.7,1649254129.011572,1649254130.126105,f7123364-2750-49ae-b047-fb8a96c7e8dc
0.2349058987304835,0.2736682531853846,0.7697948167935228,-0.0351946161140594,0.4847442580360006,-0.1451834658952647,0.3985414127143791,0.3671291797447841,-8.83384987931435,28.74601752467184,17.06226178858887,-0.0196916479053446,0.991345371164624,-2.238097838131883,5643.634657118056,11.95422222222222,0.0822222222222222,178.99292093659466,1.047170926919197,88.09204076570884,1553.0,1435.0,1200.0,1210.0,1471.0,994.0,160.0,293.7,1649254130.234821,1649254131.3531992,f7123364-2750-49ae-b047-fb8a96c7e8dc
0.2985061388752786,0.3134956516369402,0.9766763861389426,0.0123116244331377,0.6699304784120451,-0.2400644670576039,0.58063769081839,0.5592316153889383,-7.684557841058166,29.68056413905317,16.82089792606665,-0.3230277728927131,1.1420091281173703,-3.0262814087485275,5646.52587890625,11.947,0.09,178.9329518756819,1.027529389868487,88.03579719353341,1553.0,1435.0,1200.0,1071.0,1471.0,994.0,160.0,293.7,1649254131.952944,1649254132.998752,9fea71ce-6cc0-4e79-a4f1-c8b2f12c098e
0.3042126726911735,0.3115496447012435,0.9626335796049398,0.0143365236805691,0.6588329798617362,-0.2400381696652612,0.5685934862038643,0.5504088410157372,-7.6729147926782675,29.453498781435343,16.720938972094945,-0.3297509106628735,1.1343705476280506,-2.975133304093008,5644.047688802083,11.937666666666663,0.09,178.9312124541733,1.0293486036391395,88.00139353068407,1553.0,1435.0,1200.0,1071.0,1471.0,994.0,160.0,293.7,1649254133.106295,1649254134.2215965,9fea71ce-6cc0-4e79-a4f1-c8b2f12c098e
0.3107344256144896,0.3098797604021058,0.9780701479072664,0.017387021217262,0.6711138609685463,-0.2415634185895516,0.5816238429394582,0.563281413429748,-7.585904988938422,29.78741959039469,16.775923703955744,-0.3370247208838402,1.1276129815884988,-3.0316284587632083,5649.421875,11.940333333333331,0.08,178.94546326442156,1.0351088484188569,87.9851650012161,1553.0,1435.0,1200.0,1071.0,1471.0,994.0,160.0,293.7,1649254134.329892,1649254135.449797,9fea71ce-6cc0-4e79-a4f1-c8b2f12c098e
-0.0719978183603503,0.1206568811251431,-0.177897424916926,0.0330471186525019,-0.3650954382604831,-0.007529758485611,-0.5673881783999771,-0.5851783699664671,-15.69939651141703,28.84030746315159,16.918995244268878,0.0856555121191449,0.398843061085875,1.5635432725436629,5689.420084635417,11.954555555555556,0.0844444444444444,179.1804020402124,1.069542938812326,88.20522838390457,1553.0,1435.0,1200.0,1613.0,1471.0,994.0,160.0,293.7,1649254137.4494734,1649254138.7234504,6216b2c5-c908-499b-bb25-ccdefb4cf29d
-0.069236591951169,0.1304132135090966,-0.1856683050383926,0.0296153089022709,-0.3735500514448038,-0.0145511624554787,-0.577486380108994,-0.6026135467677516,-15.759208546291855,28.71917099209865,16.76363895310393,0.0763739630860128,0.437163335571116,1.6009682130299072,5702.035861545139,11.972,0.09,179.1799315160696,1.0737848064520212,88.14169472315501,1553.0,1435.0,1200.0,1613.0,1471.0,994.0,160.0,293.7,1649254138.8318615,1649254139.800121,6216b2c5-c908-499b-bb25-ccdefb4cf29d
-0.0679874658085793,0.126481753423003,-0.1593183155028193,0.0380436232852033,-0.3505135314786376,-0.0153006381307412,-0.5513730615716335,-0.5767632019086918,-15.431179986781869,29.024998104677007,17.40895687120618,0.059284985941603,0.415014757565408,1.497106140561788,5710.4775390625,11.975,0.09,179.1731923960885,1.0829511100456553,88.08515897066509,1553.0,1435.0,1200.0,1613.0,1471.0,994.0,160.0,293.7,1649254139.9083493,1649254141.1928065,6216b2c5-c908-499b-bb25-ccdefb4cf29d
-0.1494304950952205,0.0960425221580015,-0.3718275720246,0.0690482490061418,-0.5420111872596786,-0.0116058543995035,-0.7779251813826314,-0.8028156748397681,-17.04227358319182,29.30838269186914,16.068538299002356,-0.0120787866245664,0.3068476731116989,2.363623502366662,5691.5234375,11.967,0.0833333333333333,179.1623141814704,1.0639247643389382,88.00179195838564,1553.0,1435.0,1200.0,1694.0,1471.0,994.0,160.0,293.7,1649254143.118201,1649254144.2557704,1de13f5b-c745-40a5-9ab0-33441d51b8e8
-0.1579437708485749,0.0893907990955615,-0.3733674869274336,0.0698573994974454,-0.5410766180759482,-0.002940863443691,-0.7759326473110045,-0.7995497393456594,-17.075723157477302,29.21310113709364,16.482556952475576,0.004908208640123,0.2782681163468148,2.36141460047512,5676.023980034723,11.951222222222222,0.0811111111111111,179.18872879972054,1.066539363124813,87.9387956058508,1553.0,1435.0,1200.0,1694.0,1471.0,994.0,160.0,293.7,1649254144.3639865,1649254145.4853184,1de13f5b-c745-40a5-9ab0-33441d51b8e8
-0.1199642647600567,0.091664006372557,-0.3628996056487228,0.0705734977466856,-0.5300853163660846,-0.0027304842633237,-0.7665647027535438,-0.7891147269870062,-17.27625023168728,29.20926042576817,17.000014695758644,0.0042429321402046,0.2842024678432701,2.319709727301058,5672.6845703125,11.953,0.0866666666666666,179.18942092555648,1.0789589356235867,87.88444930844481,1553.0,1435.0,1200.0,1694.0,1471.0,994.0,160.0,293.7,1649254145.5934536,1649254146.71058,1de13f5b-c745-40a5-9ab0-33441d51b8e8
-0.2172120304515865,0.0486940672649573,-0.5904641475481415,0.13158344745365,-0.7365725137146852,-0.0061228479623016,-1.016587297204573,-1.0462770734282516,-18.89123775912076,30.2209481584826,16.67685369070246,-0.1464927130803684,0.1154128716235237,3.2604623451828525,5658.954264322917,11.941,0.0866666666666666,179.18746293799438,1.0636867037872422,87.8234056311027,1553.0,1435.0,1200.0,1774.0,1471.0,994.0,160.0,293.7,1649254147.6368396,1649254148.7588189,3b9aa658-320f-4f70-a64f-cf446d1b0d89
-0.1999872366142221,0.0628683617852568,-0.5660207136468667,0.1245751924856006,-0.7174543014718436,-0.0170625634832019,-0.993826889465434,-1.019874473321807,-18.623085805160823,30.18560872520433,16.359534497170245,-0.1541995595804233,0.1719014225951537,3.1701057072982315,5657.70654296875,11.92,0.08,179.1983320456936,1.05421536584255,87.71911547266576,1553.0,1435.0,1200.0,1774.0,1471.0,994.0,160.0,293.7,1649254148.8691185,1649254149.9905396,3b9aa658-320f-4f70-a64f-cf446d1b0d89
-0.2110847373433271,0.0612773695615373,-0.574343840868145,0.1231156872370927,-0.7248570204987701,-0.0130785084235641,-1.000900892450453,-1.025883431568535,-18.64566414658189,30.135726275699813,16.45461681202302,-0.1426958912859163,0.1649025347111782,3.2015391708125014,5659.782823350694,11.916444444444444,0.08,179.20022021354416,1.062960687880778,87.64773316564997,1553.0,1435.0,1200.0,1774.0,1471.0,994.0,160.0,293.7,1649254150.0984774,1649254151.2209556,3b9aa658-320f-4f70-a64f-cf446d1b0d89
-0.273278077933491,0.0231987450953128,-0.7298403785946287,0.2085296152645637,-0.8604464388835038,-0.0453585586371566,-1.1847855413194075,-1.2062442311461763,-20.147597073992088,31.22976400048791,16.431084254829138,-0.4091563365105998,0.0125680419518861,3.854597174995177,5642.80859375,11.901333333333334,0.0744444444444444,179.18295653096197,1.0374157448110286,87.52758179014046,1553.0,1435.0,1200.0,1856.0,1471.0,994.0,160.0,293.7,1649254153.1535962,1649254154.2916338,69dc6186-ed44-42ff-b285-26071eb1d26a
-0.2802074417505157,0.029444375863445,-0.7278286272530365,0.2029019735284652,-0.8586450664898996,-0.046844361372481,-1.180827780569481,-1.2018394143067097,-20.047556025571566,30.97818180212892,16.378642674290678,-0.4013261510464688,0.0365658278915442,3.844572023298252,5639.508246527777,11.885222222222222,0.08,179.1961342426007,1.0383020211456742,87.43021061333275,1553.0,1435.0,1200.0,1856.0,1471.0,994.0,160.0,293.7,1649254154.3995702,1649254155.520496,69dc6186-ed44-42ff-b285-26071eb1d26a
-0.2521086742647018,0.0362422518699194,-0.7321808477266132,0.2055054152606743,-0.8612222125389557,-0.0559958542979922,-1.1848775825838418,-1.2105307101972926,-19.9748881302722,30.640093486336927,16.3367218211953,-0.4301915473533169,0.0613170332261096,3.86075662150872,5639.095703125,11.885111111111112,0.08,179.19598853189837,1.0472927556753302,87.35712151793435,1553.0,1435.0,1200.0,1856.0,1471.0,994.0,160.0,293.7,1649254155.6285994,1649254156.7627137,69dc6186-ed44-42ff-b285-26071eb1d26a
-0.0124342222920385,0.1513459374064817,0.0091164912155378,-0.0222300012664929,-0.1748469270468637,0.0050009492643074,-0.3323551788712508,-0.3556546728036632,-13.93040243929835,25.477239118078668,17.39464395116599,0.2264894709271844,0.5158139595040805,0.7213773871902258,7929.16455078125,11.674666666666669,6.916666666666667,179.03998549343547,0.7941061986663711,75.86593916186365,1553.0,1435.0,1350.0,1528.0,1471.0,994.0,160.0,293.7,1649254160.4857686,1649254161.6606302,3fe2e455-2fae-430e-8f55-5c67aeceec78
-0.0250913598839886,0.1442486759531497,0.0118767060202473,-0.0202870284693079,-0.1701568878414705,0.0080585269155448,-0.3282446934774054,-0.3522031391931142,-14.016199599499052,25.477417814431725,17.12214337506364,0.2290293841607293,0.4921530952866321,0.7040883076660882,7929.980251736111,11.681888888888889,6.976666666666668,179.0232834041851,0.7066522549480837,70.55695454559799,1553.0,1435.0,1350.0,1528.0,1471.0,994.0,160.0,293.7,1649254161.769371,1649254162.971431,3fe2e455-2fae-430e-8f55-5c67aeceec78
-0.0103041334658895,0.1479404251871824,0.0111676878313618,-0.0238472909725347,-0.1722303362956211,0.0092742756094666,-0.3279635136324956,-0.3484491857860117,-13.881148693184418,25.428428718537926,17.34122891579028,0.2395352594243316,0.5034943584660739,0.7083175856108231,7929.16455078125,11.680666666666667,6.984444444444446,179.01786023398407,0.6718405001537886,66.88408027330635,1553.0,1435.0,1350.0,1528.0,1471.0,994.0,160.0,293.7,1649254163.0809746,1649254164.1278143,3fe2e455-2fae-430e-8f55-5c67aeceec78
0.1849540038564828,0.4946715228395358,0.0226596485328011,-0.1930447243099133,-0.2411689576634165,-0.1677203330249296,-0.395442634810317,-0.4245275570614241,-13.887478104441392,24.736340503186188,18.119789160882178,0.2195779045853973,1.818639840817448,0.9244742330728822,7947.139539930556,11.671555555555557,6.99,178.83134749940862,0.6728772837385043,62.12498432128962,1631.0,1435.0,1350.0,1528.0,1531.0,994.0,160.0,293.7,1649254165.0429723,1649254166.1708486,be3747ed-2439-4b3e-b98b-eab0727e352d
0.185151234301276,0.4960915819018556,0.0198589761636522,-0.1906516613731258,-0.2446007678222325,-0.1711784404328442,-0.3995844749804456,-0.4255400067870946,-13.832668455248754,24.78546794435664,18.11164667009542,0.2066214206025534,1.8231788113637528,0.9390626977079504,7946.317708333333,11.646333333333333,6.986666666666666,178.82171996831852,0.6898586755509063,59.68895257812,1631.0,1435.0,1350.0,1528.0,1531.0,994.0,160.0,293.7,1649254166.2788742,1649254167.398384,be3747ed-2439-4b3e-b98b-eab0727e352d
0.1986023500344221,0.5228491763197222,0.0413833920868496,-0.1872855948247899,-0.231241690884235,-0.1981727163042357,-0.3875402668465181,-0.4121677799600103,-13.537214832018597,24.944549333276345,18.56737102234993,0.1407163678267428,1.9183586336324885,0.878429890201846,7961.909776475694,11.651222222222223,6.931111111111111,178.8328850508818,0.7277500333901165,57.68552338804664,1631.0,1435.0,1350.0,1528.0,1531.0,994.0,160.0,293.7,1649254167.506858,1649254168.637633,be3747ed-2439-4b3e-b98b-eab0727e352d
0.4654025275768423,0.993835433401792,0.0488650002786268,-0.4207670290344615,-0.3362603423408795,-0.440871389902316,-0.4866288636774482,-0.5100729952151325,-13.15252086654766,24.10005037605201,18.7609504695704,0.117015706247616,3.709611529755557,1.2081827324929268,8020.674641927083,11.647666666666668,6.91,178.40079817706788,0.8091163042063657,55.03161164599325,1712.0,1435.0,1350.0,1528.0,1591.0,994.0,160.0,293.7,1649254169.5390463,1649254170.6725817,fe7e820b-dc27-4c1c-b7ba-28a851d94d34
0.466112557130458,0.9770576981600376,0.0562019727882547,-0.408078534556426,-0.3244002164097134,-0.4345468656144536,-0.4775562610125923,-0.5007505671388227,-13.325052240953726,24.20656790869112,19.046691852683683,0.1036357727128703,3.644278143953873,1.1674300451158983,8019.840386284723,11.624444444444444,6.906666666666667,178.41884657249472,0.8484891134753975,53.849127177380765,1712.0,1435.0,1350.0,1528.0,1591.0,994.0,160.0,293.7,1649254170.7818017,1649254171.9117029,fe7e820b-dc27-4c1c-b7ba-28a851d94d34
0.4531216463609244,0.9695103470514024,0.0595417416551206,-0.4049885902330098,-0.3194300084122871,-0.4326140068336451,-0.4713500748638117,-0.4957803587042056,-13.206965291348736,24.1428824114493,18.711772257873964,0.1007591802992317,3.617933787254002,1.1460218896948595,8005.697265625,11.628666666666666,6.923333333333333,178.4209745558761,0.900974130971692,52.7698844331676,1712.0,1435.0,1350.0,1528.0,1591.0,994.0,160.0,293.7,1649254172.0238936,1649254173.134903,fe7e820b-dc27-4c1c-b7ba-28a851d94d34
0.6950313371024557,1.3974609546587238,0.0784232693374461,-0.6241905642973928,-0.4065664341429376,-0.6473980211331716,-0.5471917749197878,-0.5663231337465451,-12.590271235507974,23.510974249591232,18.87807037760794,0.1096648858743171,5.245344778828119,1.3977349209717855,7988.28173828125,11.605333333333334,7.007777777777778,178.22357298194385,0.9971263205979908,50.85814825597193,1796.0,1435.0,1350.0,1528.0,1650.0,994.0,160.0,293.7,1649254175.0678637,1649254176.212184,0496ed90-9faf-496b-bd1e-f352233960a3
0.6880493800737884,1.3859558449540672,0.0721381926019507,-0.618602366489503,-0.4106819768676858,-0.6417572284589845,-0.5518990094782465,-0.5757901977668932,-12.600962483874818,23.61245687765328,18.765511196880883,0.1100713565011684,5.202182155562594,1.4170587859804624,7988.28173828125,11.572777777777778,7.001111111111111,178.21084150933092,1.0295504736746086,50.24809207586941,1796.0,1435.0,1350.0,1528.0,1650.0,994.0,160.0,293.7,1649254176.326372,1649254177.4401424,0496ed90-9faf-496b-bd1e-f352233960a3
0.7035648401375137,1.4042325335555776,0.0864702713756117,-0.626951791504784,-0.3995976237202063,-0.6526575015211512,-0.5395523801947208,-0.5657971859824613,-12.5369953972549,23.39343428650848,18.773736247907085,0.103706469858328,5.272138064039049,1.3671308239530158,7970.126519097223,11.575555555555557,7.022222222222222,178.18863580542933,1.0645674187352197,49.70048621262308,1796.0,1435.0,1350.0,1528.0,1650.0,994.0,160.0,293.7,1649254177.552879,1649254178.6703424,0496ed90-9faf-496b-bd1e-f352233960a3
0.8479375114692581,1.646286908012386,0.1307287821148844,-0.7670906512193156,-0.4274991630370629,-0.77855631923688,-0.5556463892711238,-0.5886627758850274,-12.025672359615122,23.95416192551751,16.347542181079028,0.1427054967188042,6.21794277042898,1.3924843152502384,7958.61328125,11.550888888888888,7.018888888888889,178.13035911361098,1.1484842138109888,48.772714296903565,1886.0,1435.0,1350.0,1528.0,1710.0,994.0,160.0,293.7,1649254180.5962932,1649254181.7307684,6b8e6ae9-f070-4dcd-9391-1402f96bc010
0.8245722803193379,1.657174030434507,0.1315045551331566,-0.7728497829289561,-0.429471467973721,-0.7815147773199268,-0.5564616088016738,-0.576158361773034,-11.978131212990109,23.92583229548936,16.689271965618087,0.148977869011123,6.256168643621928,1.3970676005018752,7958.61328125,11.520444444444443,7.006666666666667,178.08378177693092,1.1977011340140238,48.52494045729743,1886.0,1435.0,1350.0,1528.0,1710.0,994.0,160.0,293.7,1649254181.8394144,1649254182.9701235,6b8e6ae9-f070-4dcd-9391-1402f96bc010
0.8325140921231017,1.6540314913103673,0.1219060070808697,-0.767813829806181,-0.4354409774303934,-0.7821853608901101,-0.5662310929349003,-0.5938696609886209,-12.185055884281724,23.806139556923345,16.743393063704165,0.1347441671325266,6.244136538994063,1.431836487460661,7969.303168402777,11.521555555555556,7.02,178.0818784308822,1.2105763251907131,48.269974807950206,1886.0,1435.0,1350.0,1528.0,1710.0,994.0,160.0,293.7,1649254183.0853837,1649254184.189495,6b8e6ae9-f070-4dcd-9391-1402f96bc010
-0.2822586386731174,-0.359704471711996,-0.0242680492347908,0.2216125674435189,-0.0907084139580134,0.2776260105204167,-0.252253309915574,-0.2705168517388813,-14.296948149153565,26.8168872085583,17.052328467048177,0.2960445767913972,-1.4274234585083478,0.4772484260282627,7980.84423828125,11.522,7.0,179.4066254946223,1.2048584963600604,47.843624154674245,1475.0,1435.0,1350.0,1528.0,1408.0,994.0,160.0,293.7,1649254185.9504862,1649254187.065543,4baa7845-13b1-4d44-adba-a06c5df405f0
-0.2822323412948501,-0.3534982859934781,-0.0185352175258623,0.2233087491837122,-0.0866717640017762,0.2691976967164651,-0.2490318789275829,-0.2772621336386152,-14.226500994967294,26.83852983612087,16.974559826251863,0.2737308527384474,-1.4038008731441822,0.4600457692946786,7988.28173828125,11.67088888888889,7.0488888888888885,179.36005574704134,1.2271944600325695,47.66196313113923,1475.0,1435.0,1350.0,1528.0,1408.0,994.0,160.0,293.7,1649254187.1978254,1649254188.1885278,4baa7845-13b1-4d44-adba-a06c5df405f0
-0.2809569175800901,-0.3502900035456037,-0.015024515559602,0.2185489213690291,-0.0846863107758331,0.2709727706105318,-0.245179310505386,-0.2638373128401767,-14.18824335249706,26.84446857443426,17.07870878931317,0.2887067241788399,-1.3921530139811429,0.4475884783856937,7995.7333984375,11.672777777777776,7.0488888888888885,179.38115951375687,1.230917589034363,47.524198974489984,1475.0,1435.0,1350.0,1528.0,1408.0,994.0,160.0,293.7,1649254188.2972577,1649254189.5196524,4baa7845-13b1-4d44-adba-a06c5df405f0
-0.4909021910699324,-0.7406223136510333,-0.0304216392411552,0.4114008366624034,-0.0107643378542223,0.4715429682063922,-0.1781998448423139,-0.2032481136254845,-14.620073505764742,28.06482492316143,16.653688261475025,0.3114261595132422,-2.874012760711955,0.2255859594924604,7995.7333984375,11.633888888888889,7.038888888888888,179.51699528033043,1.258193759757332,47.40662675430206,1396.0,1435.0,1350.0,1528.0,1340.0,994.0,160.0,293.7,1649254190.631705,1649254191.7662127,f2100e41-2bf3-4c45-a69a-c269b955afdc
-0.4924011428108892,-0.74705202884486,-0.0303427470711999,0.4131759105105015,-0.0095546577730029,0.4758557401929711,-0.1771742464542233,-0.1996190732207508,-14.675929421835145,28.13116694208348,16.607334020506094,0.3175216142946495,-2.8975343541360314,0.2214764590623809,7995.7333984375,11.614555555555556,7.032222222222223,179.4864446030829,1.258945709038301,47.340891875365,1396.0,1435.0,1350.0,1528.0,1340.0,994.0,160.0,293.7,1649254191.8749416,1649254193.0054572,f2100e41-2bf3-4c45-a69a-c269b955afdc
-0.483801893342616,-0.7300376087951357,-0.0258721902191627,0.399567010987311,-0.0102252412992872,0.472634309897783,-0.1741763434453467,-0.199868898350418,-14.553315336531384,28.07596262438229,16.766518145187945,0.3409247168845767,-2.834040591450887,0.2142999233673158,7995.7333984375,11.613555555555555,7.04,179.4721437047807,1.2622524336600698,47.33115544070314,1396.0,1435.0,1350.0,1528.0,1340.0,994.0,160.0,293.7,1649254193.119511,1649254194.223789,f2100e41-2bf3-4c45-a69a-c269b955afdc
-0.7673273273799512,-1.2457297987451152,-0.0509336060625758,0.6599374702377366,0.0790149606817099,0.737186053190134,-0.0930620306773122,-0.112390615277779,-14.872107300298984,30.05259432289805,16.821325212656244,0.3597795466008106,-4.800041678736196,-0.0496492278602418,7988.28173828125,11.60288888888889,7.032222222222221,179.6620442131845,1.277250699019706,47.31273821506116,1314.0,1435.0,1350.0,1528.0,1268.0,994.0,160.0,293.7,1649254194.9468644,1649254196.071427,a4d3add8-c010-4f0f-b8ab-31679ce0880e
-0.7872607597484952,-1.249121659604893,-0.0593159002512981,0.6630279192734534,0.0719182047799957,0.7349032374511013,-0.1019733072021059,-0.1301165761266675,-14.89943322967894,30.058319672739167,16.362678765307717,0.3472121646431892,-4.809416637172751,-0.0169210990853804,7988.28173828125,11.58425,7.0225,179.65534341815373,1.273693676423978,47.31005746067567,1314.0,1435.0,1350.0,1528.0,1268.0,994.0,160.0,293.7,1649254196.1804316,1649254197.2998092,a4d3add8-c010-4f0f-b8ab-31679ce0880e
-0.770351528890314,-1.2388267272788271,-0.0474754988104035,0.6606080536797893,0.0801325998664505,0.7319923186716291,-0.0936405733268133,-0.1126535892934669,-14.939801976686024,30.21067639743228,17.141658199987877,0.34783298268772,-4.776371597258436,-0.0538808190132042,7988.28173828125,11.586333333333332,7.04,179.66175127396008,1.2686490481133947,47.30043173199661,1314.0,1435.0,1350.0,1528.0,1268.0,994.0,160.0,293.7,1649254197.408645,1649254198.730121,a4d3add8-c010-4f0f-b8ab-31679ce0880e
-1.00158462500317,-1.6655549789423312,-0.0647528863892436,0.8682785427323924,0.1539230817543594,0.9586363760587544,-0.0236369117853562,-0.0449509492903429,-15.207797085892087,32.127162258453794,17.288282514807175,0.4004114865180161,-6.402896187773719,-0.2810859043364387,7988.28173828125,11.537222222222224,7.023333333333333,179.79350258741,1.2674916393562272,47.392910596083816,1227.0,1435.0,1350.0,1528.0,1189.0,994.0,160.0,293.7,1649254199.6462686,1649254200.7824028,4c5cadaa-ebbd-4b98-ade2-2cf9c17b0728
-1.0057790618196767,-1.6673432041073577,-0.0659362691008532,0.8709871739275491,0.1537915947860252,0.956835004805184,-0.0253856884564966,-0.0475412423576236,-15.272048970261292,32.12372022953926,17.126887044283173,0.3901137441129052,-6.408126485352346,-0.2772676282647468,7988.28173828125,11.475444444444443,7.0088888888888885,179.80975084853554,1.2587306410852166,47.44419089746236,1227.0,1435.0,1350.0,1528.0,1189.0,994.0,160.0,293.7,1649254200.8905056,1649254202.0161922,4c5cadaa-ebbd-4b98-ade2-2cf9c17b0728
-0.9971140654994656,-1.6652394098335253,-0.0638061801941457,0.8650176663434728,0.1538178921850973,0.9611740742525624,-0.0211386594420331,-0.0458976552394037,-15.073388779895083,32.11162693687698,17.27886610690967,0.4134800822250782,-6.402119226979113,-0.2856933939645631,7984.149793836806,11.477444444444444,7.0,179.80700814812883,1.2531599577709018,47.49633673559073,1227.0,1435.0,1350.0,1528.0,1189.0,994.0,160.0,293.7,1649254202.145692,1649254203.2390091,4c5cadaa-ebbd-4b98-ade2-2cf9c17b0728
-0.0053602235995813,0.1496497556475971,0.0122327322832072,-0.0249254840554281,-0.167654589570807,0.0084064616443518,-0.3274375656698067,-0.3527488102703913,-14.28244531457326,25.21725549615702,17.325633565372197,0.238465955819208,0.5130805724153334,0.6998660551269289,7982.497016059027,11.524666666666668,7.015555555555555,179.16884687795655,1.2545459644218528,47.63581830536128,1553.0,1435.0,1350.0,1528.0,1471.0,994.0,160.0,293.7,1649254204.4500682,1649254205.696232,0e752e4f-70ee-4f61-b603-67406fae1e4f
-0.0004294624127812,0.1451003068698366,0.0064210084424423,-0.0222168525602337,-0.1719410649159456,0.011391215737079,-0.3318029335499401,-0.3525647286381627,-14.262254409326047,25.18685689781876,17.431831230763564,0.2385992788432913,0.4942308016100442,0.719491406898166,7988.28173828125,11.673777777777778,7.080000000000001,179.14048945034247,1.225961492307709,47.71949495288311,1553.0,1435.0,1350.0,1528.0,1471.0,994.0,160.0,293.7,1649254205.8042948,1649254206.925449,0e752e4f-70ee-4f61-b603-67406fae1e4f
-0.0006266928445875,0.1547251522500898,0.0110624983042311,-0.0298036504961057,-0.1720331057907665,0.0059082093205396,-0.3300410079470801,-0.3551155759756409,-14.14950869275058,25.323525818883127,17.022528646323487,0.2445208068104748,0.5343901363925536,0.7113248563081949,7988.28173828125,11.674333333333331,7.076666666666667,179.15114909890713,1.2127974173314366,47.721138372288415,1553.0,1435.0,1350.0,1528.0,1471.0,994.0,160.0,293.7,1649254207.0337467,1649254208.1526349,0e752e4f-70ee-4f61-b603-67406fae1e4f
0.0159012185741112,0.1498864321696361,-0.0073456767967598,-0.4187552780758999,-0.2293219810132755,0.3885878505034501,-0.239867236575716,-0.2606421793241414,-14.01080115692208,24.48326149400906,20.11766652805039,1.9759090216656336,0.5345351673611551,0.6868699383905963,7988.28173828125,11.672777777777778,7.08,179.15884899883147,1.3316479263952743,47.7235027561061,1553.0,1522.0,1350.0,1528.0,1471.0,994.0,160.0,293.7,1649254209.0645192,1649254210.2019243,63e92b4e-ca16-4d69-92ee-a28804c1a238
0.0049483544090981,0.1356069484253115,-0.0200210202551326,-0.4100376906321568,-0.2371849022603361,0.395780186784977,-0.2495052320712301,-0.2690310486062893,-14.075459710634238,24.44379491176624,20.207156522152804,1.9714953617054976,0.4787653711363356,0.7270256776634557,7988.28173828125,11.670555555555556,7.078888888888889,179.15708832784543,1.3283834754269623,47.77469654175516,1553.0,1522.0,1350.0,1528.0,1471.0,994.0,160.0,293.7,1649254210.3099346,1649254211.3528795,63e92b4e-ca16-4d69-92ee-a28804c1a238
0.0038833100177215,0.1399723154724287,-0.0173912809341172,-0.4154286571763466,-0.2372111996456259,0.3952279415864725,-0.2474014404207605,-0.2786427467776662,-13.975516987301386,24.5061951153278,20.048034973037,1.982984638413252,0.4966725850187564,0.7207823170333382,7988.28173828125,11.670444444444446,7.077777777777778,179.16079939729448,1.3115027577570144,47.82731290402634,1553.0,1522.0,1350.0,1528.0,1471.0,994.0,160.0,293.7,1649254211.461395,1649254212.5070298,63e92b4e-ca16-4d69-92ee-a28804c1a238
0.0443024027202718,0.1354754614695517,-0.0467128744443888,-0.9070322943262658,-0.3195483467281215,0.8724335303796774,-0.1420803733626342,-0.1683383221743107,-13.521143754340894,23.68787558109815,23.20507806231866,4.158113887977753,0.5072641323076561,0.7231940812588207,7995.7333984375,11.665666666666668,7.07,179.15812044531998,1.4533615179499475,47.89210939086245,1553.0,1613.0,1350.0,1528.0,1471.0,994.0,160.0,293.7,1649254214.592343,1649254215.744479,00f56ffb-4876-4394-bc69-37ab0be826c3
0.0277481940164467,0.1298609683031251,-0.0464893465855799,-0.899024733861974,-0.3175891906903754,0.8711975530358222,-0.1444602875523314,-0.1679438609701443,-13.751697598464787,23.85829074663699,23.286388280953783,4.138311126614592,0.486148680882991,0.7228838018313611,7994.905436197917,11.649333333333333,7.061111111111111,179.18392034654485,1.4502772843687983,47.91275022253421,1553.0,1613.0,1350.0,1528.0,1471.0,994.0,160.0,293.7,1649254215.8731756,1649254216.963274,00f56ffb-4876-4394-bc69-37ab0be826c3
0.0200167605795302,0.1282699760954464,-0.0461606291423924,-0.9032323188825564,-0.3175760419538868,0.8760757189261598,-0.1411994106434387,-0.167036601058693,-13.614235498956656,23.787248977539537,23.221436438849484,4.158368562339828,0.4803219142650036,0.7175792966492722,7995.7333984375,11.646666666666668,7.059999999999999,179.17437629554465,1.445786802586502,47.94356234424501,1553.0,1613.0,1350.0,1528.0,1471.0,994.0,160.0,293.7,1649254217.0945094,1649254218.1962657,00f56ffb-4876-4394-bc69-37ab0be826c3
0.0553078614911382,0.1195523906701653,-0.0782828954057213,-1.3740480447384045,-0.4021090251879362,1.3415395475614602,-0.0478436623100251,-0.0732337959349941,-13.450691825621856,23.45931300465676,26.78118424216532,6.263249228569975,0.4708437429866597,0.7436704530110236,7995.7333984375,11.635666666666667,7.050000000000001,179.20083189492982,1.6020115850380876,47.97461921440106,1553.0,1710.0,1350.0,1528.0,1471.0,994.0,160.0,293.7,1649254220.121507,1649254221.2694156,d883ec37-879d-4988-8201-56a2c364ca42
0.0574167100903041,0.1107447872288466,-0.076219561428611,-1.3637556397477293,-0.3973765050291321,1.3371261369902714,-0.0448017619021959,-0.0696325699909205,-13.356813939997876,23.42057736666566,26.29421171344249,6.229930148254736,0.440324387831149,0.7285002610138397,7995.7333984375,11.61411111111111,7.05,179.1707684378431,1.6263848423580305,48.0111478249922,1553.0,1710.0,1350.0,1528.0,1471.0,994.0,160.0,293.7,1649254221.3994153,1649254222.4904594,d883ec37-879d-4988-8201-56a2c364ca42
0.0244610199480317,0.1151081314302513,-0.0765998622195225,-1.367815556744827,-0.3989138913916759,1.3372004777185458,-0.0467786178683103,-0.0703147850729653,-13.46889869224194,23.470137901017377,26.371967156876188,6.239520960244993,0.4572703394193034,0.7344305607786887,7995.7333984375,11.60288888888889,7.044444444444444,179.17656499171866,1.6235250563821064,48.01944574592385,1553.0,1710.0,1350.0,1528.0,1471.0,994.0,160.0,293.7,1649254222.5989544,1649254223.7147503,d883ec37-879d-4988-8201-56a2c364ca42
