raw_voltage_G-,raw_voltage_G0,raw_voltage_G1,raw_voltage_G2,raw_voltage_G3,raw_voltage_G4,raw_voltage_G5,raw_voltage_G6,load_x,load_y,load_z,load_l,load_m,load_n,rpm,voltage,current,roll,pitch,yaw,aileron1_pwm,elevator_pwm,throttle_pwm,rudder_pwm,aileron2_pwm,pbaro,pdiff,Tt,sample_start_time,sample_end_time,uid
0.433990294954575,0.4868480492577274,1.0478371255389631,-0.3118563583420286,0.6461839353031741,-0.0857908013450499,0.7863227264260191,0.7650612866000683,4.547363629882809,24.840128473534843,21.519221888508675,0.7332509750793134,1.7083114945890474,-3.348488768372347,5138.402560763889,11.954666666666666,0.14,178.51691291077793,1.2623791241827995,86.25244239034215,1553.0,1435.0,1200.0,1528.0,1471.0,994.0,160.0,293.7,1649259263.916563,1649259264.8949006,915ac6a6-478c-4a9d-9df7-2f1281ad39f9
0.4438781136903319,0.4811415156002937,1.0383174700606266,-0.3058868493651382,0.6392677217495373,-0.0851465152580416,0.775409309583156,0.7544239923412771,4.326459998636699,24.90985987817869,21.51905745895409,0.7211100413758669,1.6871361956401685,-3.3113754010890624,5132.59033203125,11.959111111111111,0.14,178.505448817711,1.2621097823133418,85.63684806518762,1553.0,1435.0,1200.0,1528.0,1471.0,994.0,160.0,293.7,1649259265.003358,1649259266.1200106,915ac6a6-478c-4a9d-9df7-2f1281ad39f9
0.429243615993315,0.4752509001968664,1.0302967657642206,-0.3088058604173446,0.6336663776961583,-0.0785458694402296,0.769689627222896,0.7519257402812347,4.187597610350273,24.82609398471456,21.20381319907112,0.7414523243315925,1.668669144423778,-3.2859151703697167,5141.142578125,11.958222222222222,0.14,178.54461919369112,1.261932493844104,84.99920437157246,1553.0,1435.0,1200.0,1528.0,1471.0,994.0,160.0,293.7,1649259266.2282116,1649259267.5147254,915ac6a6-478c-4a9d-9df7-2f1281ad39f9
0.6602190714551593,0.8874449573409006,1.0997142082880886,-0.3686801023155714,0.615445025765941,-0.4296708899169223,0.7101841123541934,0.6785450650658748,4.888331284773108,24.439467636306563,20.90453603980293,0.0886876981827028,3.2241062753196226,-3.2214203165852893,5139.772135416667,11.927333333333332,0.13,178.30490232112092,1.2019857970577372,84.2045141383712,1637.0,1435.0,1200.0,1528.0,1535.0,994.0,160.0,293.7,1649259268.467418,1649259269.6106956,823ce4c4-4939-4daf-8c33-94679b33c306
0.6694834227817763,0.8904209453438071,1.1074401625725734,-0.36851410012467,0.6222007156820025,-0.4304970666392056,0.7176339437609479,0.6941635232343706,4.928306827525922,24.445212895615747,21.28126282922774,0.0869596705627088,3.232115625938874,-3.250841620983745,5143.886067708333,11.932333333333332,0.1366666666666666,178.3006584969166,1.212984749498985,83.89678907223518,1637.0,1435.0,1200.0,1528.0,1535.0,994.0,160.0,293.7,1649259269.7252903,1649259270.8333282,823ce4c4-4939-4daf-8c33-94679b33c306
0.6626461013997127,0.8815981709139329,1.099866513884229,-0.3662262264541767,0.615718409058235,-0.4237123378996134,0.7126900344545881,0.6941240771500528,5.041039224562131,24.49773435254965,21.26691593240524,0.0970704930655916,3.1975931971858573,-3.22566014540042,5130.202039930556,11.927,0.1388888888888889,178.3050404427241,1.234121552511432,83.58767292423818,1637.0,1435.0,1200.0,1528.0,1535.0,994.0,160.0,293.7,1649259270.9412377,1649259272.0591965,823ce4c4-4939-4daf-8c33-94679b33c306
0.9113405193496794,1.3279437953979891,1.1728417753384843,-0.4091567281777803,0.5967316935104815,-0.8285476860520846,0.6379134061681375,0.6113398936100757,5.605108310013138,24.161869309862592,20.262724289339992,-0.7142768399446289,4.886474657784055,-3.1400594443637537,5133.957302517361,11.907444444444444,0.1255555555555555,178.19596839295826,1.193416969004937,83.17735917567848,1723.0,1435.0,1200.0,1528.0,1599.0,994.0,160.0,293.7,1649259273.1789486,1649259274.3157456,50f0c81a-80c5-429b-860c-2c4195c929a4
0.9040692909252416,1.322447640279257,1.1753794736956709,-0.4077498175450813,0.6000057185597282,-0.8248660494891156,0.6435016015281563,0.6213986452866038,5.767604311504921,24.11179039803843,20.23574705415381,-0.709305479399831,4.864936532683126,-3.1564909042910374,5147.328342013889,11.906333333333333,0.1244444444444444,178.08756873737076,1.1631410764338304,83.02700698038888,1723.0,1435.0,1200.0,1528.0,1599.0,994.0,160.0,293.7,1649259274.423886,1649259275.5757663,50f0c81a-80c5-429b-860c-2c4195c929a4
0.9237791850008704,1.3389361057163334,1.179836881582346,-0.4209248139515346,0.6010050193786429,-0.8288632547723596,0.6484060647522027,0.626500338938278,5.923464903997733,23.8642021421723,20.2776868512397,-0.6899023709951809,4.9272039496648405,-3.168761485681153,5142.858940972223,11.912,0.13,178.09634780718392,1.1739611632961884,82.89191949898436,1723.0,1435.0,1200.0,1528.0,1599.0,994.0,160.0,293.7,1649259275.68451,1649259276.7251422,50f0c81a-80c5-429b-860c-2c4195c929a4
1.1504626949612409,1.743574128919087,1.2497616472394584,-0.4490893274011117,0.5840432028358753,-1.204718981361123,0.5799802560810697,0.5510531270822163,6.7009669593581656,23.934372157463013,19.52319561032878,-1.4667500752476783,6.453928324705908,-3.095385182283356,5138.74462890625,11.886,0.13,177.875720554434,1.129059404828786,82.73713451092345,1813.0,1435.0,1200.0,1528.0,1662.0,994.0,160.0,293.7,1649259278.395201,1649259279.4369287,f68e1b6b-5e7b-454a-a235-e255f4d370d2
1.1472938592629425,1.7465194375376374,1.2591892623098553,-0.4478007547932215,0.5923926241604613,-1.209136946759247,0.5896839929928873,0.5632682647502727,6.873570240535125,23.88060693867612,19.54744776130857,-1.4793807713081424,6.463976530795306,-3.132879668468437,5151.09765625,11.876777777777775,0.1255555555555555,177.84120988528764,1.1380071898008488,82.71841144458863,1813.0,1435.0,1200.0,1528.0,1662.0,994.0,160.0,293.7,1649259279.5457523,1649259280.6711044,f68e1b6b-5e7b-454a-a235-e255f4d370d2
1.1411928644042812,1.7411021736783547,1.2610169310683867,-0.4452499070527942,0.5965213143857055,-1.205691985766075,0.5928922745735986,0.5690668392552504,6.761974428554044,23.834266292375624,19.63701250894917,-1.477651660910768,6.443455549870573,-3.146128139694471,5151.09765625,11.877,0.11,177.83829111778232,1.1451451406544009,82.72238813250539,1813.0,1435.0,1200.0,1528.0,1662.0,994.0,160.0,293.7,1649259280.779544,1649259281.8903244,f68e1b6b-5e7b-454a-a235-e255f4d370d2
0.1827187255793596,-0.0031117965224131,0.962725620355526,-0.1854316285695186,0.666077910785811,0.2805581695968169,0.8402718222045054,0.818970936247839,4.233158492736548,25.661544882576308,21.773400978554875,1.272392451003688,-0.1503120114456177,-3.3947557956989693,5154.1953125,11.957,0.13,178.76721050528238,1.3080999005942706,82.76045277674987,1470.0,1435.0,1200.0,1528.0,1403.0,994.0,160.0,293.7,1649259283.8940709,1649259284.864972,c57990b4-4832-4fe3-9850-c02f7dabbffe
0.1634280717045236,-0.004508592757809,0.969038511228506,-0.1863399001782719,0.67244693634023,0.283232917647676,0.8468441468649037,0.820761687320285,4.157139881729807,25.69994267477711,21.88966402800284,1.281000955826168,-0.1555305595104027,-3.4214753121725465,5132.59423828125,11.957,0.14,178.7590552594134,1.2903924217276013,82.63407606326685,1470.0,1435.0,1200.0,1528.0,1403.0,994.0,160.0,293.7,1649259284.9735055,1649259286.0878508,c57990b4-4832-4fe3-9850-c02f7dabbffe
0.1764862437941236,-0.0117767875473059,0.9559803396406076,-0.1794095251001327,0.6618571797029723,0.2823069460876385,0.8314227504084637,0.8146713128937805,3.9267032327120472,25.8429834266807,21.54293107239596,1.2634137033512078,-0.1797653196853167,-3.368822751728627,5127.132921006944,11.957222222222224,0.14,178.77519727315186,1.3046630466392524,82.50070978953318,1470.0,1435.0,1200.0,1528.0,1403.0,994.0,160.0,293.7,1649259286.196166,1649259287.42292,c57990b4-4832-4fe3-9850-c02f7dabbffe
-0.0660546073431834,-0.4309309735231976,0.8871206228693079,-0.0367330137322678,0.682868794258685,0.5695664896812267,0.8683048401501402,0.8431645351037811,3.5057907969178,27.099777611907548,22.53562127763361,1.5919300499099278,-1.7795779910465066,-3.404966956350989,5129.86181640625,11.908666666666669,0.13,179.2004236013994,1.2978267861899773,82.33477489710717,1385.0,1435.0,1200.0,1528.0,1331.0,994.0,160.0,293.7,1649259289.5649784,1649259290.694214,bb8cb67e-de52-424b-8195-aeedcd32a32a
-0.079111263292106,-0.4396617097111394,0.8843856942852288,-0.0330119327174393,0.6818826421347266,0.573497949472647,0.86650346890707,0.8445845941941927,3.449272505219574,27.179405079560173,22.347504487828704,1.5927039600454271,-1.8108864372355025,-3.398692324498944,5120.32666015625,11.909,0.13,179.2342725011062,1.2845108818002795,82.19252254726331,1385.0,1435.0,1200.0,1528.0,1331.0,994.0,160.0,293.7,1649259290.8036048,1649259291.850251,bb8cb67e-de52-424b-8195-aeedcd32a32a
-0.0936668707829328,-0.4498913977005779,0.8894479418970604,-0.0309607358545778,0.689219613925492,0.5778633162172494,0.8737615485977487,0.8448870141677167,3.3784102643634366,27.1906810795537,21.85966626799493,1.5980999060372951,-1.844360178938137,-3.4278819495884227,5120.32666015625,11.899333333333336,0.13,179.23286396431735,1.2764754488329753,82.07012859297632,1385.0,1435.0,1200.0,1528.0,1331.0,994.0,160.0,293.7,1649259291.9602127,1649259292.951604,bb8cb67e-de52-424b-8195-aeedcd32a32a
-0.3732607801965203,-0.9652284574709008,0.8095170244749778,0.1106244259758714,0.7156879369112765,0.9616474273496264,0.9306296552680148,0.9121294411572844,2.7118923127500256,28.806176927594898,23.06510529503349,2.1477185478141623,-3.805625760955525,-3.4964895717290627,5122.369411892361,11.854444444444445,0.12,179.46141878996397,1.298793412111109,81.81661549719257,1297.0,1435.0,1200.0,1528.0,1253.0,994.0,160.0,293.7,1649259295.0920427,1649259296.4350936,9dd0417f-f144-4db6-915d-fe1b1a32c05e
-0.3638068658209058,-0.9567475433900036,0.8284774427393928,0.0990798708612179,0.7299016761820216,0.9630937838101764,0.9511810659100626,0.93336458383404,2.965956783427934,28.79404259026843,23.091683474420453,2.178006180364255,-3.773227778942109,-3.569810057987969,5132.934027777777,11.860555555555557,0.1255555555555555,179.476601541579,1.3185624816002282,81.63616341714065,1297.0,1435.0,1200.0,1528.0,1253.0,994.0,160.0,293.7,1649259296.5438874,1649259297.6631882,9dd0417f-f144-4db6-915d-fe1b1a32c05e
-0.3692635756897128,-0.9585752131281376,0.8191287205362537,0.1132673139014617,0.722985462617055,0.9521277719307816,0.9382821958605162,0.9149958567042858,2.9063272485426683,28.816609506866747,23.04982243374305,2.12100809789418,-3.7816286494599582,-3.5294881000508536,5131.227701822917,11.853,0.12,179.47654841788548,1.307670250864762,81.49675166708163,1297.0,1435.0,1200.0,1528.0,1253.0,994.0,160.0,293.7,1649259297.7708485,1649259298.8178265,9dd0417f-f144-4db6-915d-fe1b1a32c05e
0.442648204976639,0.4758865890426404,1.0380312330084416,-0.2369750288862273,0.644746176082241,-0.1455410093759588,0.7571169462101699,0.733386080342069,4.424280218018751,25.25516150368615,21.146447225974324,0.4322120030611681,1.6615403038087646,-3.293033118918053,5137.718424479167,11.957,0.1333333333333333,178.53900022473394,1.1973795459406025,81.40167543383504,1553.0,1435.0,1200.0,1528.0,1471.0,994.0,160.0,293.7,1649259299.393256,1649259300.7334588,0bc97904-175a-4a49-af6c-1a0dac71a495
0.4350816366374623,0.4776308140065627,1.02888985538055,-0.2421156640565618,0.6365327931983092,-0.1443945441712439,0.7470870205336404,0.7291259031866488,4.187895278102324,25.206328702431893,20.80768829557004,0.4454323885305086,1.6728102737015471,-3.2555620930459472,5136.822021484375,11.96125,0.14,178.4966854952784,1.2084902760284428,81.68919310072037,1553.0,1435.0,1200.0,1528.0,1471.0,994.0,160.0,293.7,1649259300.841467,1649259302.0690672,0bc97904-175a-4a49-af6c-1a0dac71a495
0.4352525696682885,0.4849940832457344,1.0299680483647582,-0.2524899866296841,0.6351521802287896,-0.1396347157907999,0.749217109113072,0.7326497534264305,4.23542219060229,25.15679542065137,21.16439602940958,0.4793363982611814,1.6982739475243347,-3.2568274720584345,5141.8271484375,11.962222222222222,0.14,178.5007739326791,1.237431063755518,81.89406301219135,1553.0,1435.0,1200.0,1528.0,1471.0,994.0,160.0,293.7,1649259302.1766884,1649259303.2989807,0bc97904-175a-4a49-af6c-1a0dac71a495
0.4408670625160391,0.4708723847384741,1.0265230902572722,-0.6620062282186258,0.5902756842713475,0.2693949271073826,0.8603367309437868,0.8386150866533579,4.273600112040901,24.53213149385377,24.15662141801059,2.318432616627604,1.6687099888747952,-3.350014931162174,5144.9140625,11.949,0.14,178.4697694273067,1.3727099683263004,82.23894734305189,1553.0,1522.0,1200.0,1528.0,1471.0,994.0,160.0,293.7,1649259304.894107,1649259305.9567893,5454a507-5846-4f7e-8912-9e296d6fb450
0.4649630577389798,0.477631319722298,1.036286502272891,-0.6646111881928658,0.5962477203989898,0.2661143275958477,0.8707267286404333,0.8428995383326258,4.643038183046152,24.533354974071376,24.36618731660772,2.3176504580406325,1.690527630681032,-3.3849023881511187,5146.630642361111,11.949555555555555,0.13,178.4768455032868,1.3750909888721212,82.32290099269005,1553.0,1522.0,1200.0,1528.0,1471.0,994.0,160.0,293.7,1649259306.0650475,1649259307.1818817,5454a507-5846-4f7e-8912-9e296d6fb450
0.4784910421136265,0.4844585267775719,1.039801249738426,-0.6708062491585243,0.5972970873978244,0.2648879588321347,0.8744058346906627,0.8515852628782145,4.775811493024721,24.491008076403546,24.35934954451788,2.328829216400785,1.716239516874034,-3.395488553393622,5163.51025390625,11.951,0.14,178.46832142720262,1.3672227651018416,82.36960203168506,1553.0,1522.0,1200.0,1528.0,1471.0,994.0,160.0,293.7,1649259307.2905712,1649259308.4150808,5454a507-5846-4f7e-8912-9e296d6fb450
0.4978403583321126,0.4919760403443293,1.053346429016137,-1.1042365664906493,0.5567333633394246,0.6745588190385537,0.99946307516038,0.9739677548740736,5.19445992338264,24.22604715999228,27.439049101801835,4.226746604749121,1.7683951209716997,-3.534903306392676,5141.8271484375,11.934,0.13,178.477255314637,1.487570431473202,82.55397615814039,1553.0,1613.0,1200.0,1528.0,1471.0,994.0,160.0,293.7,1649259310.554953,1649259311.6922,4e0658a2-33e0-4041-bb68-1496f02bd86f
0.5013905059994967,0.4792349547883225,1.0403686664870695,-1.1021064762063375,0.5470296264428833,0.6875628783631937,0.9868008814429952,0.959425297803766,4.812660368287784,24.42602548650556,27.692575005956897,4.251691200455671,1.7199820041754534,-3.4874825775056344,5132.59033203125,11.934,0.13,178.46504293640106,1.523725237431871,82.55325898827752,1553.0,1613.0,1200.0,1528.0,1471.0,994.0,160.0,293.7,1649259311.8003938,1649259312.9206991,4e0658a2-33e0-4041-bb68-1496f02bd86f
0.4968279088157388,0.494277061967346,1.0524523177087477,-1.112664886965801,0.555523683401886,0.6835919724821256,1.0016983533651578,0.9773206721492532,5.203874894943949,24.10084482707161,27.94669904721096,4.265268692133025,1.7734383269661202,-3.5342409778218604,5146.287326388889,11.932111111111109,0.13,178.44821790374556,1.5091951009056614,82.53639904576633,1553.0,1613.0,1200.0,1528.0,1471.0,994.0,160.0,293.7,1649259313.029462,1649259314.1473725,4e0658a2-33e0-4041-bb68-1496f02bd86f
0.5049669510446129,0.4781436131078658,1.0390012022763748,-1.4937933489570088,0.4961441766259308,1.0662321505297796,1.0851531235604197,1.063602411553379,5.09658261410829,24.519727564508702,30.46679720732875,5.987299454956448,1.737431352977618,-3.555836894766626,5148.00390625,11.902444444444445,0.1255555555555555,178.4151810376401,1.6478376720572303,82.53729000599805,1553.0,1710.0,1200.0,1528.0,1471.0,994.0,160.0,293.7,1649259314.9820557,1649259315.922599,0779fdb8-89ff-4ab5-97a0-df12bb849f78
0.5230858528150033,0.4973407079115457,1.056449521080176,-1.5088617721544713,0.5077150283053288,1.063155355772642,1.1036796356051506,1.0803538495819538,5.419518764968744,24.32696827162324,30.86970003601241,6.014193925285166,1.8065336566530648,-3.618694660858281,5145.611599392361,11.896666666666668,0.12,178.42585586440293,1.6610911679649805,82.42906945314873,1553.0,1710.0,1200.0,1528.0,1471.0,994.0,160.0,293.7,1649259316.0307674,1649259317.0824554,0779fdb8-89ff-4ab5-97a0-df12bb849f78
0.5125668967899383,0.4805629730172897,1.0539118229789504,-1.501261816835051,0.5090430464775767,1.0706895583213054,1.102969606171445,1.073858394002258,5.258980050051097,24.4529937278592,30.585654781943248,6.0145636351904095,1.7461662331141514,-3.618561460229808,5143.199761284723,11.905222222222225,0.1222222222222222,178.43348746243555,1.6719246306144633,82.35575951496716,1553.0,1710.0,1200.0,1528.0,1471.0,994.0,160.0,293.7,1649259317.1898944,1649259318.257157,0779fdb8-89ff-4ab5-97a0-df12bb849f78
0.5313037872134228,0.4799712817356796,1.0387513770525012,-1.838526328070582,0.4446012918697172,1.3983024713864574,1.1605214474102368,1.1434018453753545,5.001609127249714,25.60891168975952,33.075642164953024,7.518714896768629,1.7642829361400516,-3.592236913024676,5142.170138888889,11.881,0.1111111111111111,178.4214830255143,1.754700546939494,82.21219652771258,1553.0,1802.4444444444443,1200.0,1528.0,1471.0,994.0,160.0,293.7,1649259319.87316,1649259320.9058764,32d553c3-8db5-47d5-84ac-fbd7d88bc293
0.5328684819185887,0.4903850482385182,1.0507955823513342,-1.8424183484128105,0.4536344452838317,1.3933191153080988,1.1733940209885068,1.1526190813196766,5.3020157235330885,25.462836032256813,33.40415587737416,7.516131026459773,1.7995433313115006,-3.637326459554655,5144.9140625,11.87311111111111,0.11,178.40643384204304,1.7796197925062145,82.08305055197606,1553.0,1814.0,1200.0,1528.0,1471.0,994.0,160.0,293.7,1649259321.0135355,1649259322.1377163,32d553c3-8db5-47d5-84ac-fbd7d88bc293
0.5262809857054992,0.4780647209425133,1.0452073866425429,-1.8467048299905693,0.4492690785585755,1.4085453062168007,1.1729338165277747,1.150291762212422,5.35973817747306,25.51020322720468,33.2673777677328,7.560058563522938,1.7543126279877468,-3.62480844557052,5138.74462890625,11.875444444444444,0.11,178.40734149829277,1.7887944085349317,81.9952325330875,1553.0,1814.0,1200.0,1528.0,1471.0,994.0,160.0,293.7,1649259322.2462044,1649259323.362434,32d553c3-8db5-47d5-84ac-fbd7d88bc293
0.4064963733440971,0.4832584554900983,1.029560438870459,0.164468335771267,0.6748217929379162,-0.5364755844982767,0.6270394354256869,0.598493618631223,3.64623392082804,26.713194614781308,18.6043993303232,-1.343381239328271,1.66728766527435,-3.137563867369401,5142.216857910156,11.960375,0.13625,178.40270721494093,1.1034917255889671,81.8520803058205,1553.0,1349.0,1200.0,1528.0,1471.0,994.0,160.0,293.7,1649259325.5091238,1649259326.6441548,69a68fa7-daf7-47ad-86e9-d671d72b1abd
0.397095056302713,0.4887151639614495,1.0277985136333034,0.1603264965085079,0.6710349687877851,-0.5370146813488199,0.6260795806970642,0.6020700636714684,3.850484829878202,26.65399682953814,18.73470457747548,-1.3356062625814096,1.685550358296128,-3.127662885561944,5147.317599826389,11.958222222222222,0.13,178.39876581633484,1.1229693069724331,82.17076839475682,1553.0,1349.0,1200.0,1528.0,1471.0,994.0,160.0,293.7,1649259326.7528734,1649259327.8755558,69a68fa7-daf7-47ad-86e9-d671d72b1abd
0.4011843005061288,0.4883601491857102,1.0354116082972518,0.1566580104787971,0.6774252345411207,-0.5333330452670088,0.6362698192987507,0.6122077074973744,4.032472199098622,26.619259833412,18.79635988656817,-1.3188076874642587,1.683318035369194,-3.1610995113139166,5142.520399305556,11.96,0.1344444444444444,178.39763200493263,1.1267484530117946,82.44080144141309,1553.0,1349.0,1200.0,1528.0,1471.0,994.0,160.0,293.7,1649259327.9836586,1649259329.101287,69a68fa7-daf7-47ad-86e9-d671d72b1abd
0.382315922853808,0.4835871728682958,1.0319403527333828,0.551657967071635,0.7131107926897988,-0.9056648297055756,0.51566998878932,0.4973407079007926,3.15839002431293,28.22280089986052,16.418120076376596,-3.036871921951897,1.6438554771215947,-3.0350021874282564,5128.837293836806,11.944444444444445,0.1277777777777777,178.42336056862618,0.944205706601582,82.75820943906248,1553.0,1264.0,1200.0,1528.0,1471.0,994.0,160.0,293.7,1649259330.010507,1649259331.0130875,4bd0cae1-d1f0-4a34-880f-42e9454425fc
0.3804488081268872,0.4831532659326137,1.0320323935958196,0.5562600103430817,0.7129924544384536,-0.9106350391222526,0.5163274235502024,0.4932646124330517,3.3981827757082885,28.17484764802936,16.255836176997374,-3.05864019656576,1.641407597874664,-3.0359561803265875,5119.3076171875,11.935333333333334,0.1233333333333333,178.43661113561598,0.9550543593071876,82.9677740620867,1553.0,1264.0,1200.0,1528.0,1471.0,994.0,160.0,293.7,1649259331.121032,1649259332.1694326,4bd0cae1-d1f0-4a34-880f-42e9454425fc
0.3767671734739709,0.4788667913467583,1.0295604388655089,0.5527887548422968,0.7120194510075923,-0.9038108620592618,0.5167613304878634,0.497787763537213,3.357122774326632,28.08117578056073,16.168033016005257,-3.036253771438433,1.6266686103082626,-3.032542367451988,5120.32666015625,11.93511111111111,0.1222222222222222,178.44106745459445,0.9530635370336386,83.12784561656524,1553.0,1264.0,1200.0,1528.0,1471.0,994.0,160.0,293.7,1649259332.2783267,1649259333.4031556,4bd0cae1-d1f0-4a34-880f-42e9454425fc
0.3568337514353989,0.4837975520051904,1.0324137057920284,0.9427790496038254,0.7486517152329831,-1.285636127280379,0.3967663388256052,0.3668136110953831,2.5061615194161257,29.97208627319955,13.159541337285768,-4.76221945678544,1.6300458389619306,-2.9170771328772687,5122.026963975694,11.913333333333334,0.12,178.42923149567275,0.8018563052242854,83.52728190941674,1553.0,1178.0,1200.0,1528.0,1471.0,994.0,160.0,293.7,1649259335.540163,1649259336.6793892,705fd232-0959-4f12-81a2-b4c6331c6c6e
0.3575963757785738,0.4767630001288238,1.044431613454255,0.9525485302046124,0.7602883103082312,-1.2864513471024412,0.4112824983362514,0.3930452581175434,2.906083289820585,30.029692925895905,13.441840665699296,-4.784862315668206,1.5978894487158113,-2.9700875766250903,5108.12060546875,11.906,0.12,178.43006933221093,0.8100947584498884,83.66929444372974,1553.0,1178.0,1200.0,1528.0,1471.0,994.0,160.0,293.7,1649259336.7873497,1649259337.9061458,705fd232-0959-4f12-81a2-b4c6331c6c6e
0.3577410114305653,0.4852439084591297,1.0387382282819353,0.9478675946941124,0.7536482193286382,-1.2897911194024534,0.4027752925599103,0.3726253344424933,2.7329344924492536,30.01105903551456,13.482064841903206,-4.782295951894004,1.6307820871399203,-2.940241932460612,5107.121961805556,11.910999999999998,0.12,178.42475089157722,0.7928263860416566,83.79466787831467,1553.0,1178.0,1200.0,1528.0,1471.0,994.0,160.0,293.7,1649259338.014941,1649259339.0779731,705fd232-0959-4f12-81a2-b4c6331c6c6e
0.3372684928394788,0.471884834254215,1.0108366966285758,1.2103944510499751,0.751452387273299,-1.5285059469772266,0.2913138023789623,0.2734710225851814,1.668717149447709,31.68514676407741,11.502263873609014,-5.902059183485204,1.571693539366576,-2.744059091787942,5112.521755642361,11.892333333333331,0.1155555555555555,178.41320938969972,0.6981652587276833,84.13017587726459,1553.0,1088.0,1200.0,1528.0,1471.0,994.0,160.0,293.7,1649259341.0758889,1649259342.2027514,7393a976-b6e9-4fe2-97eb-d1da325502f3
0.3325875573044141,0.4754875767118694,1.0198829992249356,1.209013837853648,0.7571720696326187,-1.5313855149239963,0.3019905428904509,0.2777837946648033,2.107938799263565,31.67636756325877,11.487712498148506,-5.904804611519712,1.5829696011338263,-2.778667950886064,5113.200520833333,11.899444444444445,0.1188888888888888,178.4254612312509,0.6892226853322527,84.24887849376016,1553.0,1088.0,1200.0,1528.0,1471.0,994.0,160.0,293.7,1649259342.3112333,1649259343.4373283,7393a976-b6e9-4fe2-97eb-d1da325502f3
0.3411736553507275,0.4938300063301854,1.0334393039830294,1.20779100911902,0.7638779040290977,-1.5462961545215563,0.3117600237997217,0.2901698659046254,2.558808748504453,31.735454011842887,11.84935927336759,-5.934201097851534,1.6463794072910831,-2.817180095668632,5114.2158203125,11.878000000000002,0.11,178.39892215177582,0.665971405163158,84.33164217266292,1553.0,1088.0,1200.0,1528.0,1471.0,994.0,160.0,293.7,1649259343.5457451,1649259344.6658728,7393a976-b6e9-4fe2-97eb-d1da325502f3
0.427113527381411,0.4695969613140534,1.039237878680949,-0.3001934631187042,0.6366248340629853,-0.0765078214489096,0.7741996296310647,0.7437866980890159,4.445884993857245,25.56329589310964,21.87453696108324,0.7321737728223218,1.6392096845573716,-3.3083382493979854,5121.686903211806,11.96122222222222,0.13,178.41796320136206,1.1455516554896896,84.4208558268719,1553.0,1435.0,1200.0,1528.0,1471.0,994.0,160.0,293.7,1649259346.4947462,1649259347.7375834,7e70744d-46e5-4763-90d9-54c7ebf14233
0.441366712906185,0.476605215797383,1.040802573471299,-0.2937506009221579,0.6385839896124115,-0.0894461390913319,0.7702550211171978,0.7439707798087984,4.22675366707976,25.58219209451933,21.84663028365344,0.6886545498641636,1.666599453227118,-3.306819127215087,5137.719563802083,11.956555555555555,0.1211111111111111,178.42440938211874,1.1671951613032197,84.3619704893075,1553.0,1435.0,1200.0,1528.0,1471.0,994.0,160.0,293.7,1649259347.8459842,1649259348.9676545,7e70744d-46e5-4763-90d9-54c7ebf14233
0.4184090911967695,0.4719900238124888,1.0388039717343345,-0.2942108054199533,0.6371770792520346,-0.0840288761611813,0.7722273253634411,0.7527804054560427,4.446627001910311,25.484991475404712,21.91349832517814,0.7012434377072048,1.6470691299651736,-3.305261197976277,5140.457139756944,11.953,0.1244444444444444,178.4091598464318,1.1560503084322014,84.30689260275042,1553.0,1435.0,1200.0,1528.0,1471.0,994.0,160.0,293.7,1649259349.0756938,1649259350.1956775,7e70744d-46e5-4763-90d9-54c7ebf14233
0.5116464881387731,0.5112520272855163,1.2742708167811765,-0.3061629720327383,0.8480689983814212,-0.1232382904553797,1.0093640427114452,0.9867088405908058,6.0926581493824274,25.56929521866507,22.05346646213648,0.6532302264750501,1.7978351158558783,-4.24514317229413,5133.273817274306,11.934333333333331,0.12,178.38175560966187,1.150740322529176,84.19399412922957,1553.0,1435.0,1200.0,1446.0,1471.0,994.0,160.0,293.7,1649259351.8924825,1649259353.06693,ffc45817-9d6f-4e3d-af64-8d72f9e9420c
0.5171689400495526,0.5217841320037181,1.2812922206108806,-0.2935928165947094,0.8539201676945357,-0.1459197930303669,1.008036024448119,0.984683941525352,6.009647037812119,25.674919351007844,21.96276822501943,0.5749002414087758,1.8376275561363995,-4.259637529277706,5143.543077256944,11.932444444444444,0.12,178.39053923293451,1.1307162000212063,84.12843797357579,1553.0,1435.0,1200.0,1446.0,1471.0,994.0,160.0,293.7,1649259353.1742604,1649259354.2862377,ffc45817-9d6f-4e3d-af64-8d72f9e9420c
0.5205744520666991,0.5188125269306252,1.2667234651348018,-0.2918571883622015,0.8432565759845378,-0.1434478379214445,0.9929939169803064,0.9636854751498408,5.661853509135329,25.573431380888195,22.01650444880085,0.5749751952250963,1.82732856912826,-4.204307882499832,5129.51904296875,11.93,0.12,178.39480127097664,1.1159562205146456,84.0824495509842,1553.0,1435.0,1200.0,1446.0,1471.0,994.0,160.0,293.7,1649259354.3952885,1649259355.3443468,ffc45817-9d6f-4e3d-af64-8d72f9e9420c
0.6013205880694925,0.5498697445720794,1.527448975387247,-0.2746718400363507,1.0790521287083652,-0.2029719909907101,1.25086613753835,1.2276718377131015,7.681804739535389,25.973404747784475,22.1112816348647,0.419116301642481,1.9430947980027744,-5.242731888228059,5138.060492621527,11.885333333333332,0.11,178.38445581111378,1.1282542725644362,83.91067560572772,1553.0,1435.0,1200.0,1354.0,1471.0,994.0,160.0,293.7,1649259357.3923264,1649259358.5947874,64f31a97-1d4f-4966-9707-6afdaf053c9f
0.58760649920479,0.5570489320403427,1.5193362290048145,-0.2721998847804823,1.069926933986035,-0.2131096369273162,1.2378094822682268,1.2228199689241657,7.582218978561726,26.048345768237,21.911960003519845,0.3907704627131784,1.9716751575313936,-5.20014575043259,5132.59033203125,11.873,0.11,178.38616791186573,1.0965299885763655,83.81383187130592,1553.0,1435.0,1200.0,1354.0,1471.0,994.0,160.0,293.7,1649259358.703006,1649259360.0253751,64f31a97-1d4f-4966-9707-6afdaf053c9f
0.5681069845422718,0.5422960962400063,1.512117594003047,-0.2661646325046444,1.067441830508804,-0.2061276784089693,1.2336281968597809,1.2133397587829804,7.4509139555788515,26.009146291913567,21.59709401492857,0.3921102203031338,1.9188616911202527,-5.183219900323906,5144.9140625,11.882333333333332,0.1166666666666666,178.38306245252312,1.0887706090880156,83.70443045464009,1553.0,1435.0,1200.0,1354.0,1471.0,994.0,160.0,293.7,1649259360.1331208,1649259361.2611516,64f31a97-1d4f-4966-9707-6afdaf053c9f
0.655966564358326,0.5870937000976687,1.7521207837610604,-0.2268237286834408,1.2843690156732506,-0.2972613034970675,1.456498604590533,1.433448938357677,9.029475787408767,26.53502826293273,21.79873339013077,0.1148407978784863,2.084300278769514,-6.116215359539152,5144.9140625,11.886,0.11,178.35234481509582,1.0705644908380332,83.51863109537797,1553.0,1435.0,1200.0,1252.0,1471.0,994.0,160.0,293.7,1649259363.38968,1649259364.33298,6793f8ec-3d64-4dfa-8df9-664fe1753960
0.6563215791223577,0.5828861177066433,1.74308762751266,-0.2332139957228051,1.2749676978073503,-0.2884385269479573,1.4505159474314744,1.4208524867390384,9.130318786679114,26.543191278945343,21.57205782726364,0.1487005827850195,2.070028827601341,-6.083396891955722,5133.957302517361,11.892888888888889,0.1055555555555555,178.36248536928355,1.0699882410586825,83.48974926101761,1553.0,1435.0,1200.0,1252.0,1471.0,994.0,160.0,293.7,1649259364.4416382,1649259365.7615178,6793f8ec-3d64-4dfa-8df9-664fe1753960
0.6468939648328509,0.5650959333741532,1.7344489322894712,-0.2263109293110662,1.2718251593859784,-0.2788531259689959,1.442074483952495,1.4264932777389077,8.651226106429219,26.704582702153743,21.29537106326132,0.1550230974568678,2.0077531626892413,-6.058205911923108,5123.047146267361,11.885555555555555,0.11,178.3600082873446,1.0612840424510823,83.44096349650594,1553.0,1435.0,1200.0,1252.0,1471.0,994.0,160.0,293.7,1649259365.8703873,1649259366.98974,6793f8ec-3d64-4dfa-8df9-664fe1753960
0.3424359301068642,0.4289806420814979,0.7137419300508309,-0.2648234652426692,0.3403321388181579,-0.0510256469477371,0.4320048419633828,0.4066410089845577,2.137859040285773,25.9697245554276,21.906413628073725,0.6949795912563898,1.47794429262641,-1.980217970525144,5122.707465277777,11.971,0.13,178.43855242716006,1.1105591141258009,83.51904318345788,1553.0,1435.0,1200.0,1604.0,1471.0,994.0,160.0,293.7,1649259368.923684,1649259370.0603774,a021a781-1b14-4223-9d2c-6b6f8b2e217f
0.3305232121295992,0.4331093323518029,0.7275875058579883,-0.2710822455914066,0.3518503959237331,-0.0508415653392915,0.447244179633633,0.4274553934536924,2.291483939597267,25.92407204580259,21.800136613828965,0.7099586931939252,1.4949315538504613,-2.036055896510548,5131.586263020833,11.971666666666668,0.13,178.4333007705983,1.1308679464288605,83.5504870976669,1553.0,1435.0,1200.0,1604.0,1471.0,994.0,160.0,293.7,1649259370.169674,1649259371.289075,a021a781-1b14-4223-9d2c-6b6f8b2e217f
0.3435798665919234,0.4248519518037427,0.7208685227252354,-0.2668352162196318,0.347563921243837,-0.0473703093296305,0.4398414642472589,0.4118478922874407,2.0604922790184315,26.039322431227884,21.644959241940995,0.7084672479406815,1.466024698320349,-2.011908568498189,5129.51904296875,11.971222222222224,0.1222222222222222,178.45849961517615,1.1327974630114217,83.59201616564039,1553.0,1435.0,1200.0,1604.0,1471.0,994.0,160.0,293.7,1649259371.3965638,1649259372.4331338,a021a781-1b14-4223-9d2c-6b6f8b2e217f
0.2642932332664516,0.3953068337121989,0.5139606584545294,-0.2228528218662266,0.161772853154296,-0.0491059372542089,0.217102564814357,0.1958937186499014,0.5742651713298914,26.39222633201895,21.39004655322436,0.5966016032319206,1.3494649326217234,-1.1644165344386908,5132.249077690973,11.971,0.1288888888888889,178.48443004890518,1.1312993748534657,83.66977331588154,1553.0,1435.0,1200.0,1676.0,1471.0,994.0,160.0,293.7,1649259373.4268868,1649259374.5615098,3037747c-a9e6-4911-bcd2-67f193ed6c96
0.2723007888263255,0.4016182074358796,0.5166429922505427,-0.2274154199743717,0.1622330575440507,-0.0491848294268752,0.2192063561366348,0.1944210647501828,0.6317078753080593,26.406398642699585,21.67845232177409,0.6070188264915313,1.3709057624781438,-1.1705302192849265,5143.199110243056,11.971222222222224,0.1255555555555555,178.47511974215655,1.1250443919616804,83.67737759315749,1553.0,1435.0,1200.0,1676.0,1471.0,994.0,160.0,293.7,1649259374.6694348,1649259375.795014,3037747c-a9e6-4911-bcd2-67f193ed6c96
0.2607167881076059,0.3950570085103666,0.5164852079026193,-0.2307157431533266,0.1634427375326801,-0.0434914438201648,0.2224540839488054,0.199128297787994,0.6614594710914403,26.32412000042892,21.1549188060046,0.6266355749091108,1.351121709537524,-1.178093508592896,5126.451171875,11.971333333333332,0.1277777777777777,178.487146946375,1.1375831014580082,83.69231977033175,1553.0,1435.0,1200.0,1676.0,1471.0,994.0,160.0,293.7,1649259375.9032185,1649259377.0242574,3037747c-a9e6-4911-bcd2-67f193ed6c96
0.2023497283045778,0.3661956224751229,0.3420940639976398,-0.180724394835304,0.007788472855143,-0.0473703092876566,0.030377933243613,0.0003989053270751,-0.7937705747143395,26.905908136596963,21.717000877903644,0.4996813149845428,1.2309913987797592,-0.4584145237892009,5136.692220052083,11.973333333333336,0.12,178.5321654821045,1.131135746762568,83.72894172684154,1553.0,1435.0,1200.0,1747.0,1471.0,994.0,160.0,293.7,1649259378.956454,1649259380.0949478,a641ff0f-9b1e-4b40-bbfc-0a24cce40aa2
0.2082929387676414,0.3752024787314079,0.3441715577991065,-0.1787915364460336,0.0080514466851105,-0.0598878686632243,0.0275904095553382,0.001897856687805,-0.8358045845652395,26.959238060097007,21.44213056936364,0.4675846337836642,1.2674008910928989,-0.4569679019011223,5131.568033854167,11.971666666666668,0.12,178.5257724250413,1.1389231584856363,83.74848972824613,1553.0,1435.0,1200.0,1747.0,1471.0,994.0,160.0,293.7,1649259380.203803,1649259381.3285415,a641ff0f-9b1e-4b40-bbfc-0a24cce40aa2
0.2000355578639472,0.3651963216169486,0.3419888744242809,-0.1778842763284334,0.0096950338170948,-0.0508415653153761,0.0313772341580511,0.002029343800968,-0.7755802542604345,26.72705096182678,21.4617787339346,0.4842518967809157,1.229017312661553,-0.4626605895362114,5121.347981770833,11.970666666666666,0.12,178.53407338161264,1.139149977684324,83.750037904458,1553.0,1435.0,1200.0,1747.0,1471.0,994.0,160.0,293.7,1649259381.4369476,1649259382.5528753,a641ff0f-9b1e-4b40-bbfc-0a24cce40aa2
0.4189299818045553,0.4411689767795156,0.9763461515968817,-0.3392314429556959,0.6026703521498329,-0.0051913134991597,0.7639947251613228,0.7330573629934444,4.8862713521888175,22.332228160015635,22.697359917265565,0.956293722180232,1.5229424669539855,-3.162820556593051,7763.97314453125,11.656333333333333,7.2444444444444445,178.27933464632784,0.8141866583770259,72.31954405589259,1553.0,1435.0,1350.0,1528.0,1471.0,994.0,160.0,293.7,1649259387.512375,1649259388.5786438,871d5068-b9e8-4c07-87ce-eadb86ede348
0.4347716308863513,0.4431159950982216,0.9663329143497604,-0.3448828543925594,0.5944271318524054,-0.0063671103544675,0.7551572849409799,0.7311735595558655,4.790151399129557,22.09325353497185,21.9928515835572,0.9641562781845264,1.5372262934219938,-3.1261379650479406,7771.01171875,11.658,7.23,178.29226647115638,0.7168638383600106,67.45230495983714,1553.0,1435.0,1350.0,1528.0,1471.0,994.0,160.0,293.7,1649259388.6875546,1649259389.9283211,871d5068-b9e8-4c07-87ce-eadb86ede348
0.4125973679134434,0.4500580004013711,0.9638432594436762,-0.3476602641799628,0.590354576446331,-0.0098439291432194,0.7504399377404838,0.7284553197617711,4.753445198987406,22.11512835583305,22.074105632297066,0.9626240761815836,1.5629871776195694,-3.109585241312741,7771.01171875,11.654333333333334,7.300000000000001,178.30102884495162,0.6938204995056475,63.513051792095176,1553.0,1435.0,1350.0,1528.0,1471.0,994.0,160.0,293.7,1649259390.0372531,1649259391.154679,871d5068-b9e8-4c07-87ce-eadb86ede348
0.6537312862147483,0.8780217258100822,1.0339126570383192,-0.40024191026333,0.5712626713169418,-0.3830828581636104,0.6840390281095692,0.6526530932198482,5.399500098338579,21.693458122360145,21.75903878039529,0.2434863473663392,3.1772399604802115,-3.0330498280491973,7771.01171875,11.630333333333333,7.29,178.15426932916546,0.7729067322256797,56.63751889345749,1637.0,1435.0,1350.0,1528.0,1535.0,994.0,160.0,293.7,1649259393.0895436,1649259394.2281868,1e28b314-908b-475d-bbb3-8ec3651f03a0
0.6504967072531904,0.8774563319186423,1.028508543267154,-0.3998474494524958,0.565503542898447,-0.3843451332904073,0.6772411528170269,0.6568869730056295,5.365959434680327,21.78334884706453,21.50475110502095,0.240029428915276,3.177220893376535,-3.008644512043672,7778.06396484375,11.627222222222224,7.301111111111112,178.1594268808987,0.8188511558295831,54.56253436490934,1637.0,1435.0,1350.0,1528.0,1535.0,994.0,160.0,293.7,1649259394.3361757,1649259395.4515674,1e28b314-908b-475d-bbb3-8ec3651f03a0
0.6586357494358549,0.876246651978562,1.0281666771881124,-0.4107082748067884,0.5635312386433174,-0.3745362040759605,0.6806598135065532,0.6557693339336025,5.5039169981111336,21.76087641387555,21.320428801988832,0.286444830811444,3.1746562187849783,-3.0107554759888444,7776.496799045139,11.63411111111111,7.292222222222222,178.1771990331191,0.8869597923074913,52.63456472533131,1637.0,1435.0,1350.0,1528.0,1535.0,994.0,160.0,293.7,1649259395.5595868,1649259396.8895466,1e28b314-908b-475d-bbb3-8ec3651f03a0
0.879139364900128,1.325616476051387,1.0912146721806684,-0.4540595355924262,0.5366027112774142,-0.7869583398516374,0.5974811691259947,0.5693561105579296,6.1847751856075925,21.08380187158861,19.53725953369563,-0.5438235131042854,4.880374403022722,-2.8893578304403293,7778.06396484375,11.597888888888887,7.302222222222222,177.96884487139775,0.9649474021432912,50.06103026997568,1723.0,1435.0,1350.0,1528.0,1599.0,994.0,160.0,293.7,1649259398.0046651,1649259399.1427467,623b7446-7039-4ea6-9ba6-28b68a6697ac
0.8897109157895007,1.3141508127521917,1.0971052879166128,-0.4292479405751773,0.5456095673340748,-0.7934669477448096,0.599045863820133,0.5755359971882035,6.037587607089779,21.395594283168503,20.28819822159373,-0.6120122671730944,4.82908128444767,-2.912224403969203,7778.06396484375,11.606666666666666,7.30111111111111,177.98957221879903,1.0379038068875015,48.94218760677461,1723.0,1435.0,1350.0,1528.0,1599.0,994.0,160.0,293.7,1649259399.2508926,1649259400.4746544,623b7446-7039-4ea6-9ba6-28b68a6697ac
0.8969426981380727,1.3232365620137077,1.0964872991553407,-0.4413184462838074,0.5425196240252701,-0.7941375319609236,0.5996112577058559,0.5748522649860631,6.166132752982662,21.23563028921053,19.879618926234745,-0.5873826717635899,4.867314032844242,-2.907405580085968,7785.1279296875,11.600888888888887,7.294444444444445,177.99277330079002,1.091047172799811,48.2778147267525,1723.0,1435.0,1350.0,1528.0,1599.0,994.0,160.0,293.7,1649259400.5862312,1649259401.702038,623b7446-7039-4ea6-9ba6-28b68a6697ac
1.1232448947111866,1.7483865527236853,1.16638576581854,-0.4907312586725353,0.521139845879107,-1.1762651796256938,0.5331314557779419,0.5060845901128728,7.238119831553627,20.888281197867183,18.320460697741428,-1.333142389997714,6.47862558014796,-2.8292086744857725,7785.1279296875,11.562444444444443,7.274444444444445,177.74952142586935,1.1821705526439166,46.80433877601557,1813.0,1435.0,1350.0,1528.0,1662.0,994.0,160.0,293.7,1649259403.431657,1649259404.5723264,3c3086de-02aa-473f-86a4-cd8e76d9d6ed
1.136761753942567,1.746624627076498,1.1744064701270012,-0.4875098273853044,0.529292036851444,-1.1783821212521794,0.5407971450048745,0.5147758775420275,7.246790177136768,20.925142274295823,18.255746433179805,-1.3445284175613486,6.472641949929467,-2.862444950501699,7778.06396484375,11.566,7.279999999999999,177.725429071937,1.206100523571945,46.36871652039628,1813.0,1435.0,1350.0,1528.0,1662.0,994.0,160.0,293.7,1649259404.68069,1649259406.002908,3c3086de-02aa-473f-86a4-cd8e76d9d6ed
1.137248255697748,1.7419831362966065,1.1768915736742818,-0.4763728785637708,0.5323556827859398,-1.1793156795976354,0.5395480189694917,0.5150782975297583,7.063973808165498,21.21972233081761,18.9361795122663,-1.369655487572963,6.449288147030825,-2.8679797565810743,7778.06396484375,11.558666666666666,7.296666666666667,177.73918051946598,1.2260713563748271,45.81032237335592,1813.0,1435.0,1350.0,1528.0,1662.0,994.0,160.0,293.7,1649259406.1108007,1649259407.229388,3c3086de-02aa-473f-86a4-cd8e76d9d6ed
0.154028271290542,-0.0476332831597479,0.907987602122966,-0.2391966532518195,0.6373611609750579,0.3866418435899129,0.8403770117696358,0.8120678712967683,4.271308673899986,23.1210888043702,23.433566763443004,1.612774619879904,-0.3291722378646809,-3.2836260417247103,7771.01171875,11.648888888888887,7.337777777777777,178.72767433472671,1.469857468296652,45.39841453453491,1470.0,1435.0,1350.0,1528.0,1403.0,994.0,160.0,293.7,1649259407.8910897,1649259409.07428,ca700637-8b09-49f8-857e-666dcaec7a7c
0.1262056308198806,-0.0487246250011058,0.8876597193987144,-0.2406167126138187,0.6189003932381892,0.3828287219648743,0.8218242030215598,0.7961710989866869,4.401873833118731,22.88679994022896,22.406642763865484,1.604746035975498,-0.3262057529536731,-3.205762845949049,7778.06396484375,11.645777777777775,7.337777777777777,178.69342169494905,1.498222330856232,45.08228757680986,1470.0,1435.0,1350.0,1528.0,1403.0,994.0,160.0,293.7,1649259409.1825435,1649259410.303956,ca700637-8b09-49f8-857e-666dcaec7a7c
0.1371190484084152,-0.0514069591023574,0.8867787568182183,-0.2293351301154421,0.6194920845140112,0.3753602630247896,0.8195757761615051,0.8006548039881122,4.476111563515846,22.89212073977724,22.43560662715134,1.562548317977256,-0.3384930414430924,-3.2023016824001447,7778.06396484375,11.641666666666667,7.318888888888889,178.7157032898414,1.5352142796620016,44.80252113113137,1470.0,1435.0,1350.0,1528.0,1403.0,994.0,160.0,293.7,1649259410.4133525,1649259411.5325296,ca700637-8b09-49f8-857e-666dcaec7a7c
-0.1116411395714728,-0.4864053357788044,0.8187211110285963,-0.1054481034508723,0.6428441667794149,0.6966354778875551,0.8678446358319107,0.8482925262219674,3.9648402809462713,24.110434252990043,23.64506695420369,2.0096608085900627,-1.996649169382045,-3.2607628923108347,7777.280381944444,11.583777777777778,7.30111111111111,179.16529821522778,1.6745782658287187,44.53389244725944,1385.0,1435.0,1350.0,1528.0,1331.0,994.0,160.0,293.7,1649259412.4418232,1649259413.5826745,f1218966-c190-4db0-a035-80d521f96647
-0.1099186602317285,-0.4977921096190876,0.8124097373599213,-0.1007934646201041,0.6390967887178427,0.6986340795217255,0.8624668194956451,0.8407320265768817,3.902171411200933,24.17544637711575,22.90742772284253,2.0036197875917474,-2.033347352173226,-3.241846737907201,7778.06396484375,11.579333333333333,7.300000000000001,179.1918646154595,1.7054987100708765,44.33633529679608,1385.0,1435.0,1350.0,1528.0,1331.0,994.0,160.0,293.7,1649259413.6946905,1649259414.6443298,f1218966-c190-4db0-a035-80d521f96647
-0.1183206776809117,-0.4989360465284626,0.8207986048299386,-0.084134065733185,0.6495105551271035,0.6911393233891212,0.8648861794136279,0.8368926075596103,3.5519975259729946,24.393982204684804,23.903696454583766,1.951047499912551,-2.045504883938759,-3.2698320393180107,7778.06396484375,11.561777777777776,7.254444444444443,179.16076904089817,1.7222874099145062,44.09729043894921,1385.0,1435.0,1350.0,1528.0,1331.0,994.0,160.0,293.7,1649259414.7533865,1649259415.8401785,f1218966-c190-4db0-a035-80d521f96647
-0.3875008207910825,-1.0188488741386277,0.7507818038358391,0.0127323825465925,0.6795158770444232,1.119418624303235,0.950799753747156,0.9275265632124144,3.620547496332676,25.74771282630011,25.092461119110894,2.7006529758240423,-4.022857329450454,-3.398473571002936,7789.846028645833,11.510666666666667,7.266666666666666,179.45398147286772,1.8936370771006543,43.91983074066367,1297.0,1435.0,1350.0,1528.0,1253.0,994.0,160.0,293.7,1649259417.9735696,1649259419.111575,19985d99-4176-45b0-9ac8-c8ec6654814a
-0.391037820898985,-1.0032282129913497,0.7555679288036917,0.0266962980845388,0.6842362585372512,1.0920035938596475,0.9449222869475686,0.9237265902887782,3.331699428262872,25.770849446508304,25.19594188644748,2.6078113588205816,-3.964558554379589,-3.401111661093964,7784.343044704861,11.520555555555555,7.281111111111111,179.4603183705977,1.8815901175086327,44.03036217418216,1297.0,1435.0,1350.0,1528.0,1253.0,994.0,160.0,293.7,1649259419.219715,1649259420.5436623,19985d99-4176-45b0-9ac8-c8ec6654814a
-0.3891707057059881,-0.9994150887763188,0.7516627664031325,0.0261703503567518,0.681277802171046,1.0909648469135176,0.9397022549560384,0.9237528876714683,3.1449310678804405,25.701760677282888,25.477082789445085,2.6059619171886457,-3.951610847151774,-3.383575712015542,7773.362467447917,11.515333333333334,7.306666666666666,179.47552388950993,1.9293074554498304,43.85545848446601,1297.0,1435.0,1350.0,1528.0,1253.0,994.0,160.0,293.7,1649259420.6512668,1649259421.758783,19985d99-4176-45b0-9ac8-c8ec6654814a
0.4077586480914502,0.4407224268681722,0.9539159945288098,-0.2813382300901928,0.5928791258782915,-0.069381227705086,0.7250498077339507,0.7005274916042606,4.4313811417834765,22.0286029111596,20.85944499766242,0.6778059149315783,1.5322216326468094,-3.0657926536752047,7771.01171875,11.65222222222222,7.352222222222222,178.5598550689997,1.8003769864111965,43.88758769432175,1553.0,1435.0,1350.0,1528.0,1471.0,994.0,160.0,293.7,1649259422.3912284,1649259423.6144516,b25c8ac0-c9f3-4bbb-ac39-60e6b13c6b5f
0.4218014545429998,0.4520434533686553,0.95392914322731,-0.2857298952526461,0.5913801746477045,-0.0777175015712278,0.7223017304813404,0.6979240499975758,4.37281984490343,21.92947350558457,20.66748485044125,0.6682631512076265,1.5773380459231183,-3.058795947360784,7775.713216145833,11.650666666666666,7.343333333333332,178.50111999559704,1.786597696374996,43.74095719321992,1553.0,1435.0,1350.0,1528.0,1471.0,994.0,160.0,293.7,1649259423.7228088,1649259424.8449814,b25c8ac0-c9f3-4bbb-ac39-60e6b13c6b5f
0.4131627618152065,0.4508469221130787,0.9503921441960876,-0.28700531888713,0.5884874617541687,-0.0712614912989899,0.7204609131846749,0.6912050668698438,4.352583274026419,21.8947874803166,21.231114200017032,0.6853213139618662,1.567930339816871,-3.0467746472705697,7771.01171875,11.652555555555557,7.344444444444444,178.48666124403402,1.7567208836936752,43.74855160466708,1553.0,1435.0,1350.0,1528.0,1471.0,994.0,160.0,293.7,1649259424.9531758,1649259426.2866066,b25c8ac0-c9f3-4bbb-ac39-60e6b13c6b5f
0.4166471660461222,0.4373169148240514,0.9487880033921628,-0.7085789282767091,0.5404421302068125,0.3506144185525803,0.8372213249530779,0.8147765024847502,4.771489671054769,21.42861983110513,24.57823799803002,2.5818738503824776,1.5363493308223295,-3.1455189270818944,7779.633734809027,11.636555555555557,7.33,178.4822975120643,1.8591378864666583,43.87970262037993,1553.0,1522.0,1350.0,1528.0,1471.0,994.0,160.0,293.7,1649259427.8904006,1649259428.9258354,62e7b292-37cb-460c-8648-79ed841f6a8e
0.4093101941383109,0.4392366243118015,0.9423977375093656,-0.7173622608358788,0.5334864705452896,0.351837247217515,0.8313701556532901,0.8090568201241627,4.726066413301683,21.36773665287434,23.82398825210193,2.6035698647877985,1.5512310746110305,-3.1199189217825967,7778.06396484375,11.638777777777776,7.33,178.47722951170016,1.8819751457071576,43.74182197105984,1553.0,1522.0,1350.0,1528.0,1471.0,994.0,160.0,293.7,1649259429.0343611,1649259429.9697292,62e7b292-37cb-460c-8648-79ed841f6a8e
0.4654561338158279,0.4577692043641065,0.9638675339997936,-0.727611168191846,0.5505812912300855,0.3503544789350049,0.8514588331279869,0.8219374840975223,4.7208110912955625,21.277701956352267,25.01337135224365,2.624016061268016,1.6128566445362782,-3.1972070004091475,7785.1279296875,11.63811111111111,7.334444444444445,178.48712417907777,1.8740467190368504,43.78716266404516,1553.0,1522.0,1350.0,1528.0,1471.0,994.0,160.0,293.7,1649259430.0774164,1649259431.1894083,62e7b292-37cb-460c-8648-79ed841f6a8e
0.47185853686323,0.4533846202649729,0.96346194736232,-1.187086565103077,0.4952895114281993,0.7970520615654395,0.975308921796319,0.96014847614206,5.359930590354067,20.910689643059385,28.23105234423667,4.6626505657574855,1.6199093518419962,-3.297104298081796,7782.773274739583,11.619,7.323333333333333,178.47975516387325,1.9937495076430585,43.99989990993886,1553.0,1613.0,1350.0,1528.0,1471.0,994.0,160.0,293.7,1649259432.924034,1649259434.0639284,14fb4020-f07d-43a9-af0f-49a0b7326c5c
0.4719242803489017,0.4544233671848699,0.9694314550008666,-1.1827737896081796,0.5002202720761325,0.796434072909901,0.9794639095105216,0.9479070408348036,5.351238986310229,21.059272827145787,28.88929182424891,4.652916067405702,1.6178828013294944,-3.316848253032244,7784.343044704861,11.627111111111113,7.32888888888889,178.47335603553086,1.975198073527069,44.00541604660355,1553.0,1613.0,1350.0,1528.0,1471.0,994.0,160.0,293.7,1649259434.1719549,1649259435.4899714,14fb4020-f07d-43a9-af0f-49a0b7326c5c
0.4731602576834106,0.4545811515216414,0.9629754455689784,-1.1894533327023966,0.493080530686914,0.7954479207797849,0.9762030330353754,0.9511416197863428,5.636642950730259,20.879705400434187,27.86054279614541,4.664235300827298,1.6259824189113292,-3.2948977694211083,7787.491373697917,11.622666666666667,7.306666666666666,178.45196084741076,1.9830569176452075,43.93913740871756,1553.0,1613.0,1350.0,1528.0,1471.0,994.0,160.0,293.7,1649259435.59849,1649259436.729935,14fb4020-f07d-43a9-af0f-49a0b7326c5c
0.4875843761920283,0.4393418138778044,0.954192117263376,-1.6078189798193732,0.4366200338333915,1.2171134345747017,1.0753573454288694,1.048560303941125,5.332548328173499,21.080073095481502,31.259983302142064,6.556784139291633,1.5918051366191406,-3.348211016717672,7785.1279296875,11.58888888888889,7.311111111111113,178.48452567155354,2.121411909373597,44.00472012621812,1553.0,1710.0,1350.0,1528.0,1471.0,994.0,160.0,293.7,1649259437.3919177,1649259438.5826406,b4c0a793-8e34-43ff-962f-5aa15feb4585
0.4833373476794863,0.4464421092443162,0.964106233442254,-1.594670267225669,0.4459161613193979,1.197561323647151,1.0805905261927784,1.051755436825287,5.47542307430808,21.0639628526302,31.248481904631056,6.483644607407586,1.6165356063789218,-3.380772912849917,7789.059678819444,11.596444444444444,7.304444444444444,178.46557265551667,2.1079009414216663,43.92459365924488,1553.0,1710.0,1350.0,1528.0,1471.0,994.0,160.0,293.7,1649259438.6955264,1649259439.80149,b4c0a793-8e34-43ff-962f-5aa15feb4585
0.498326860057204,0.4480199526620558,0.977097144325652,-1.6058992678097654,0.4547915305934938,1.209618677848893,1.0980125478479066,1.0802092139280275,5.793791106073465,21.118919184149178,31.82676105026053,6.537332578611247,1.61728189119205,-3.4342666135025413,7792.205078125,11.598555555555556,7.307777777777777,178.48823370536294,2.0654900675672025,43.96363653836049,1553.0,1710.0,1350.0,1528.0,1471.0,994.0,160.0,293.7,1649259439.910281,1649259441.0243022,b4c0a793-8e34-43ff-962f-5aa15feb4585
0.4960521358085383,0.4298090099009171,0.9574398449183092,-1.9510530538389328,0.3879698616899165,1.560478503883514,1.158614886540747,1.137695311445273,5.526853132916749,22.32126832611205,34.12858964072404,8.111568103873637,1.5717380981154878,-3.405406322311189,7792.205078125,11.548444444444446,7.285555555555555,178.4922802129912,2.192887230284973,44.021933720746375,1553.0,1814.0,1350.0,1528.0,1471.0,994.0,160.0,293.7,1649259441.9341297,1649259443.070831,5e6d0c18-faa1-434f-bcc6-bfaf0fd7fb08
0.4962099201482547,0.4286650734181831,0.9614896430181296,-1.939929238285447,0.394991264985051,1.5508931033257989,1.1605345960186215,1.1396544671126427,5.391238493445358,22.23192492997148,34.087578322573535,8.064470408762075,1.5676566107666088,-3.423380200304412,7792.205078125,11.55477777777778,7.297777777777777,178.44154405001652,2.204675899633069,43.857862711053855,1553.0,1814.0,1350.0,1528.0,1471.0,994.0,160.0,293.7,1649259443.178818,1649259444.3024683,5e6d0c18-faa1-434f-bcc6-bfaf0fd7fb08
0.4968673548927011,0.4278235569263864,0.9501291704684658,-1.950421915775334,0.3813297704716387,1.5577304261167044,1.1530266910263949,1.1296483096920285,5.718491749730436,22.19804746474804,33.495173635037624,8.102783740427952,1.5680057672471628,-3.37938411824113,7790.632378472223,11.552555555555555,7.292222222222222,178.40983679406952,2.198989885728706,43.91148311113304,1553.0,1814.0,1350.0,1528.0,1471.0,994.0,160.0,293.7,1649259444.4105675,1649259445.5278633,5e6d0c18-faa1-434f-bcc6-bfaf0fd7fb08
0.3896923408810868,0.4573555261915169,0.9605823829833696,0.1251668836845532,0.6337321211712089,-0.4674054651643346,0.6111952579932046,0.5828072255333979,4.291310201049106,23.4393012691954,19.37941173796764,-1.1242064365729336,1.5591118107509785,-2.9656058185539376,7785.1279296875,11.657,7.330000000000002,178.36959483729964,1.464277464620032,43.90609636860763,1553.0,1349.0,1350.0,1528.0,1471.0,994.0,160.0,293.7,1649259447.4663951,1649259448.6063757,95e168ae-7acc-4cb8-b269-432259784b07
0.3796861838207055,0.4508863681966596,0.9613713047290502,0.0939124331963263,0.6345736376466623,-0.4349544754223708,0.6235418825702426,0.5996244064096921,4.219362999160402,23.1803126447464,19.05440167941936,-0.9825479554963796,1.5421320285907336,-2.9868655736906384,7786.700629340277,11.648555555555555,7.347777777777777,178.3888681133176,1.4467076211799188,44.07266039734719,1553.0,1349.0,1350.0,1528.0,1471.0,994.0,160.0,293.7,1649259448.7140317,1649259449.8294723,95e168ae-7acc-4cb8-b269-432259784b07
0.4066541577123708,0.45321368723262,0.952140920709016,0.0863387842133967,0.6249356442289222,-0.4322063973056966,0.6163495464152853,0.5863047783559227,4.305719604888438,23.0455888826398,18.71594318288436,-0.9606515546095804,1.5535944646048094,-2.951062376672974,7785.1279296875,11.650555555555554,7.337777777777777,178.39459636530148,1.4183047419771455,43.90481381086348,1553.0,1349.0,1350.0,1528.0,1471.0,994.0,160.0,293.7,1649259449.9373653,1649259451.0575533,95e168ae-7acc-4cb8-b269-432259784b07
0.3628558538988804,0.4615105138362469,0.9556647710302816,0.5391798554826095,0.6704301288212183,-0.877276778791152,0.4828902920101452,0.4592094921743613,3.590016399232444,24.719517809878056,15.365822039998069,-2.9719047927941302,1.5639675729062084,-2.8287514642893274,7783.558159722223,11.632222222222222,7.353333333333334,178.4231602164105,1.2201931722522543,43.9857682485461,1553.0,1264.0,1350.0,1528.0,1471.0,994.0,160.0,293.7,1649259452.9952726,1649259454.0103047,a38b9b44-ede3-479e-8f9f-adc48c182a5c
0.3660772842339576,0.4598274808644392,0.9592149187003354,0.5246899935816061,0.6725076226274083,-0.8600256802509869,0.4905691299447675,0.4586703955990874,3.533519175430661,24.749638847972,15.729932840256486,-2.9000476408010787,1.5568375280166884,-2.847222378631581,7785.1279296875,11.629666666666663,7.343333333333334,178.42986746217548,1.2111329144602654,44.0080096212134,1553.0,1264.0,1350.0,1528.0,1471.0,994.0,160.0,293.7,1649259454.1182375,1649259455.355507,a38b9b44-ede3-479e-8f9f-adc48c182a5c
0.3595555313672953,0.4551465454091283,0.9518253520028191,0.5315404636669523,0.6664592229424176,-0.8668104111113685,0.4818909911959499,0.4575527565877592,3.573080748527809,24.781489053643508,14.94819617119308,-2.9310083303769408,1.5446183208993247,-2.818149930588784,7778.06396484375,11.637,7.343333333333334,178.46743805606997,1.1735450672233136,44.17040989074392,1553.0,1264.0,1350.0,1528.0,1471.0,994.0,160.0,293.7,1649259455.4640057,1649259456.5852158,a38b9b44-ede3-479e-8f9f-adc48c182a5c
0.3439874761618718,0.4559617645073408,0.961739468205386,0.950300103355488,0.7143073239382984,-1.2596279831062045,0.3664454476613016,0.3447501004526769,2.771022144609335,26.65807178381912,13.613454650788976,-4.746023765898898,1.5142844951724508,-2.7319082031739823,7775.713216145833,11.592,7.34,178.45805792960982,0.9912700855729066,44.21470025241686,1553.0,1178.0,1350.0,1528.0,1471.0,994.0,160.0,293.7,1649259457.4998634,1649259458.6366217,5aa9e998-dc5f-462e-b002-3efd5748a351
0.3297605878066585,0.4580655557206098,0.9730079001091828,0.9497610068524488,0.7239190199717273,-1.2606535825924494,0.3734011074019558,0.3491417646493033,2.483750194657768,26.92896650579052,13.758475365139496,-4.744876956976468,1.5237082436367493,-2.770120876494945,7778.06396484375,11.605375,7.331250000000001,178.44117996298831,0.950127018151258,44.4165592362606,1553.0,1178.0,1350.0,1528.0,1471.0,994.0,160.0,293.7,1649259458.7453082,1649259459.8649397,5aa9e998-dc5f-462e-b002-3efd5748a351
0.3440400709341019,0.4712799942978155,0.9570453840357648,0.9352054012321224,0.7046561818327889,-1.2581027332045267,0.3590427321697984,0.3344546718786922,2.7081470653951705,26.73671170928656,13.940605808065056,-4.708238296360404,1.57084488688715,-2.699718227602853,7778.06396484375,11.606333333333332,7.34,178.45033526238828,0.922164081393618,44.66593783829863,1553.0,1178.0,1350.0,1528.0,1471.0,994.0,160.0,293.7,1649259459.9734936,1649259461.050454,5aa9e998-dc5f-462e-b002-3efd5748a351
0.3201094454017739,0.4674405753368298,0.9407935967701132,1.2068443031024767,0.7089952511904581,-1.5201565152472176,0.2561278931888109,0.2348664524951031,2.3423990841120115,28.45046102569033,11.235779233426909,-5.899922797761648,1.548560439871003,-2.5398032847073058,7778.06396484375,11.571777777777775,7.321111111111112,178.4458668008513,0.8291144696238957,44.780785192462666,1553.0,1088.0,1350.0,1528.0,1471.0,994.0,160.0,293.7,1649259462.004348,1649259463.1423366,26a42bfa-475b-4efc-964f-ddbd7c0e9d91
0.3173876654676155,0.477551921853041,0.9437652018114316,1.2123010119013475,0.7102969719734799,-1.5301758332806972,0.2545631984819753,0.2357079690338841,2.331904085383909,28.503069232407515,11.938587820992243,-5.934143080244848,1.5798468816615656,-2.541165470718533,7778.06396484375,11.555777777777775,7.291111111111111,178.43444520673918,0.7835881875922275,44.74250046434493,1553.0,1088.0,1350.0,1528.0,1471.0,994.0,160.0,293.7,1649259463.251165,1649259464.3723876,26a42bfa-475b-4efc-964f-ddbd7c0e9d91
0.3125094994629411,0.4651264049976817,0.9329043796071844,1.190106013337385,0.7011191828956216,-1.499486741638326,0.2521701357863902,0.2291862159936022,2.0882328269822943,28.44768154943404,11.616237230523812,-5.816196125227117,1.539868491049959,-2.5127536994025466,7773.362467447917,11.558,7.283333333333331,178.43444368891937,0.775505459122311,44.987448502909466,1553.0,1088.0,1350.0,1528.0,1471.0,994.0,160.0,293.7,1649259464.4798295,1649259465.6004534,26a42bfa-475b-4efc-964f-ddbd7c0e9d91
0.4195530276635517,0.4589070722131735,0.9610820334872124,-0.3403627364320595,0.5879352165568345,-0.0280811713719296,0.7432081555106769,0.71520143518699,4.759822442317113,21.987388063235542,21.63270084820272,0.904129674338138,1.5989679047535088,-3.091660565533632,7779.633734809027,11.653888888888888,7.34,178.43896982760938,1.1980217378761582,44.91366614331031,1553.0,1435.0,1350.0,1528.0,1471.0,994.0,160.0,293.7,1649259467.533843,1649259468.6730816,dd91aeae-5757-4feb-9c20-5ef575845349
0.4399299651233767,0.4555061116482549,0.967331709472327,-0.3344650397226983,0.5941110574489993,-0.0309956304854552,0.748709367197545,0.7248520715805113,4.826764566012699,22.089467584178223,21.560404325032792,0.885286798826039,1.58605099186885,-3.116880687674679,7785.1279296875,11.654000000000002,7.34,178.4272856506692,1.2022890645716662,44.84132912763052,1553.0,1435.0,1350.0,1528.0,1471.0,994.0,160.0,293.7,1649259468.7820177,1649259469.901661,dd91aeae-5757-4feb-9c20-5ef575845349
0.4263134798560627,0.4607782326702497,0.9657892663716456,-0.3354638349071892,0.5917215350008639,-0.0331070077270101,0.7436901057515045,0.7164571355574569,4.612095868309235,22.19315563887688,21.8383292165416,0.8833420908320568,1.6049077309721915,-3.103548713422959,7792.205078125,11.651333333333334,7.33,178.44537654505086,1.1975542849468686,44.614019293687626,1553.0,1435.0,1350.0,1528.0,1471.0,994.0,160.0,293.7,1649259470.010245,1649259471.333593,dd91aeae-5757-4feb-9c20-5ef575845349
0.4955130393072072,0.4903587508594332,1.21510168415466,-0.3182203285688618,0.8216269726183808,-0.0912080645017391,0.9923890769681672,0.9731788330727028,6.342016488013252,22.21083082861672,21.86426607641803,0.7272903302284306,1.7170611612867177,-4.105653302774313,7786.700629340277,11.635666666666667,7.33,178.42878222100734,1.188680873145768,44.7017921574367,1553.0,1435.0,1350.0,1446.0,1471.0,994.0,160.0,293.7,1649259471.891147,1649259472.973748,f436e6ab-ff21-49d3-bd07-a033b5d7e9a8
