raw_voltage_G-,raw_voltage_G0,raw_voltage_G1,raw_voltage_G2,raw_voltage_G3,raw_voltage_G4,raw_voltage_G5,raw_voltage_G6,load_x,load_y,load_z,load_l,load_m,load_n,rpm,voltage,current,roll,pitch,yaw,aileron1_pwm,elevator_pwm,throttle_pwm,rudder_pwm,aileron2_pwm,pbaro,pdiff,Tt,sample_start_time,sample_end_time,uid
-0.0410457860984818,0.1179613984355188,-0.0382056677672503,-0.0567584787234513,-0.1992640583513734,0.1893851143531034,-0.3335122645602394,-0.3556152266194142,-15.407278352759198,24.370254858986,34.26062088789111,0.7109635474277296,0.2528043256757567,0.8396543618498116,5635.38916015625,11.96,0.1222222222222222,179.4286445066866,-4.279642380354972,100.289488208166,1553.0,1435.0,1200.0,1528.0,1471.0,994.0,160.0,293.7,1649261858.4400628,1649261859.4161012,a18d0791-15fd-4989-97d2-1498c01d63ba
-0.0339035152169279,0.1309103353516693,-0.0324622158637024,-0.0595687597755578,-0.1955313453441681,0.1810270953338418,-0.3300652825638142,-0.3518617787992679,-15.379441970336606,24.251856313141005,34.544729146379815,0.698081676161364,0.2993637506117188,0.8238444978799063,5641.158420138889,11.959444444444443,0.1255555555555555,179.52362056382538,-4.320373217401088,100.21985215284798,1553.0,1435.0,1200.0,1528.0,1471.0,994.0,160.0,293.7,1649261859.524871,1649261860.6542728,a18d0791-15fd-4989-97d2-1498c01d63ba
-0.0099754160316479,0.1149766444430712,-0.0436492281274204,-0.0559695569398235,-0.2021567717408953,0.1921594891502234,-0.3378907810117153,-0.3673570145617066,-15.55636893085859,24.26342575591228,34.30678544977236,0.7143713982841601,0.2418117169934308,0.8568990433884648,5646.52587890625,11.963333333333331,0.1288888888888889,179.60658155930415,-4.338272297303538,100.15924484870284,1553.0,1435.0,1200.0,1528.0,1471.0,994.0,160.0,293.7,1649261860.7697113,1649261861.8756254,a18d0791-15fd-4989-97d2-1498c01d63ba
0.2218229465782187,0.5564046459919755,-0.0053996697020642,-0.2949339836995924,-0.2723576691204679,-0.0168653330218001,-0.3884738245578528,-0.4134695014663524,-14.751186993063785,23.18246597625944,34.7581083009681,0.7789259247879974,1.9195642873110903,1.0253571725117805,5650.24853515625,11.946666666666664,0.13,179.46449996418954,-4.360311088457315,100.07151258663384,1637.0,1435.0,1200.0,1528.0,1535.0,994.0,160.0,293.7,1649261864.0159378,1649261865.1476822,59a7c605-350d-4225-9c72-3f697e82e37d
0.2115932613748405,0.5451493630704384,-0.0073193793989918,-0.2813908246685739,-0.2715555985365124,-0.0141172554602062,-0.3906039137464593,-0.4120757390638592,-14.807283925448733,23.34764939818599,35.33625613189327,0.7556145277923159,1.870836713149322,1.0293795517072335,5649.834906684027,11.951444444444444,0.1288888888888889,179.46282125547356,-4.337320576847314,100.02273592904103,1637.0,1435.0,1200.0,1528.0,1535.0,994.0,160.0,293.7,1649261865.256553,1649261866.388301,59a7c605-350d-4225-9c72-3f697e82e37d
0.211290841370194,0.5514344392816604,-0.0063989706617425,-0.2906080619886326,-0.2729625092580521,-0.0154189764105723,-0.3901831554510206,-0.410419003042949,-14.787192486689952,23.32799962911832,34.825674703219235,0.7733255095697149,1.8999854932499889,1.029423788627171,5648.180392795139,11.946222222222222,0.13,179.46718650526307,-4.324113742040925,99.98052308324064,1637.0,1435.0,1200.0,1528.0,1535.0,994.0,160.0,293.7,1649261866.496397,1649261867.6120844,59a7c605-350d-4225-9c72-3f697e82e37d
0.4802737017239886,0.9964388750737176,0.0487598107009277,-0.5207497393822065,-0.3318292309948873,-0.2275337580751372,-0.4301026054086395,-0.4520872305049397,-13.892543687604968,22.82890751556021,36.58872327082085,0.8159878930068054,3.578888403426853,1.1463964815711585,5642.80859375,11.917,0.12,179.09357060420393,-4.304305813992935,99.93847416198032,1723.0,1435.0,1200.0,1528.0,1599.0,994.0,160.0,293.7,1649261868.3465805,1649261869.4515884,d407955e-b8e9-4f9d-99ca-f668aab4fe86
0.4642059963377952,1.0006990523735724,0.0309959219466361,-0.5294410300055958,-0.3490145799532976,-0.2282437877512258,-0.4479059441716113,-0.4662483796422648,-14.008232074626994,22.66643489134461,35.80956070951536,0.8318537724631693,3.602532363204614,1.2186919587327814,5640.333333333333,11.914,0.12,179.0668554576303,-4.28260530693055,99.94537720650148,1723.0,1435.0,1200.0,1528.0,1599.0,994.0,160.0,293.7,1649261869.5595162,1649261870.6865177,d407955e-b8e9-4f9d-99ca-f668aab4fe86
0.4888072048378481,1.0009225801973782,0.0463667479435636,-0.5230902079843548,-0.3345510116376233,-0.2302423897869251,-0.4334818211591911,-0.4577280225801586,-13.940137458899596,22.772565352116125,36.50058789391478,0.8146500952980789,3.5969585211814787,1.1585644769278307,5634.977701822917,11.915333333333333,0.12,179.03347859988617,-4.260234872147073,99.89762811292384,1723.0,1435.0,1200.0,1528.0,1599.0,994.0,160.0,293.7,1649261870.7953568,1649261871.9123108,d407955e-b8e9-4f9d-99ca-f668aab4fe86
0.6662751412114687,1.3237230637696993,0.08277548770336,-0.7299455680094993,-0.3898675867135517,-0.3746150959763807,-0.4654200116711643,-0.4911914625159257,-13.233078888910091,22.8032995930033,33.87602654508332,0.9587945580827578,4.853690593435263,1.2637770114867837,5636.624674479167,11.875333333333336,0.1133333333333333,178.7413969436792,-4.1920761298283,99.7847721383578,1813.0,1435.0,1200.0,1528.0,1662.0,994.0,160.0,293.7,1649261873.0276992,1649261874.166999,00b6754c-7e42-4277-8135-099b3af8777d
0.6472884256811997,1.3094830255272911,0.0819734172974854,-0.7243573697641129,-0.3860150178678717,-0.3672649734174231,-0.4602262753263507,-0.4807119489801851,-13.138218839953913,22.60512440734302,33.68783262523549,0.961369744684643,4.8005361192901415,1.2504364032900062,5639.095703125,11.876666666666669,0.1188888888888888,178.72012318114432,-4.172532444723824,99.6815171330351,1813.0,1435.0,1200.0,1528.0,1662.0,994.0,160.0,293.7,1649261874.2799947,1649261875.3936837,00b6754c-7e42-4277-8135-099b3af8777d
0.6572288390749591,1.3126255639513884,0.0844453721508229,-0.7203996105836964,-0.3856600030094418,-0.3717881257772968,-0.4609100076926888,-0.4805673133070787,-13.088612328755874,22.79676046065798,34.004766735779896,0.943746839519708,4.808835141222304,1.248374799981805,5639.095703125,11.879333333333337,0.1133333333333333,178.69423221073052,-4.1471664976706055,99.58387806102994,1813.0,1435.0,1200.0,1528.0,1662.0,994.0,160.0,293.7,1649261875.502246,1649261876.6234314,00b6754c-7e42-4277-8135-099b3af8777d
-0.2927937801215943,-0.3832669397488338,-0.0898360486176721,0.2308909950810043,-0.1292062818259368,0.4207758563216072,-0.2913651236822956,-0.3152350680847021,-16.381227446766317,26.05754060210334,34.94123346402056,0.590295307233507,-1.6649058492584063,0.6960622832219935,5653.979654947917,11.961,0.13,179.76430428761807,-4.133939409456052,99.28807622845504,1470.0,1435.0,1200.0,1528.0,1403.0,994.0,160.0,293.7,1649261878.5566971,1649261879.695584,db6efcc0-c93e-4d9b-b7f8-5d3eca1458cf
-0.3311980934189163,-0.3852392445581405,-0.0852385560811446,0.2427030751925365,-0.1204244692397758,0.4184616859823738,-0.2892405973912795,-0.3088979011738715,-16.77751989109104,26.02383846934093,35.91160818824656,0.558410607476116,-1.6792621725842576,0.675779619318198,5728.2958984375,11.95411111111111,0.12,179.76431491235678,-4.1332068242357,99.1374948423733,1470.0,1435.0,1200.0,1528.0,1403.0,994.0,160.0,293.7,1649261879.805704,1649261880.9234562,db6efcc0-c93e-4d9b-b7f8-5d3eca1458cf
-0.314893707638144,-0.3981775642004183,-0.0899983843536337,0.2486199881917674,-0.1206085509622663,0.4248256544371483,-0.2909630768540186,-0.3200742947763957,-16.901005504678995,25.952275211736254,35.76532214138036,0.5585673007448628,-1.7266496673490592,0.683193991795536,5766.840983072917,11.963666666666668,0.12,179.7550607649413,-4.09301078151522,98.98780289870348,1470.0,1435.0,1200.0,1528.0,1403.0,994.0,160.0,293.7,1649261881.0319726,1649261882.152831,db6efcc0-c93e-4d9b-b7f8-5d3eca1458cf
-0.5603273263631818,-0.8201062183566009,-0.1532304686214229,0.4649817693513746,-0.0890385294251648,0.6246332242573077,-0.2697016320515418,-0.2939872773862851,-16.927835918797676,27.43285849005284,33.543987790033086,0.5258012500156277,-3.319883355024474,0.643199256619278,5766.396864149306,11.901,0.1177777777777777,179.8630445378994,-4.052686056133504,98.6275089021655,1385.0,1435.0,1200.0,1528.0,1331.0,994.0,160.0,293.7,1649261883.8284645,1649261885.0194902,40674f34-e364-4f82-bf6a-4318c8f48b64
-0.583981838058425,-0.8413019270970762,-0.1345198725516502,0.4902535612895881,-0.0637404367273752,0.6293930518343069,-0.2557640123173421,-0.2784455165930041,-17.689751574698263,27.897906751760644,34.69995747120267,0.4833055103326316,-3.4061502876632623,0.5619571424248495,5753.493760850694,11.906777777777778,0.11,179.85826188766055,-4.048914700778664,98.34082461322264,1385.0,1435.0,1200.0,1528.0,1331.0,994.0,160.0,293.7,1649261885.128268,1649261886.2497077,40674f34-e364-4f82-bf6a-4318c8f48b64
-0.5715431675700967,-0.8413545219901699,-0.1465377817792031,0.4878604987894372,-0.0742856915712383,0.6238443025584484,-0.2645604912481193,-0.2865319656743637,-17.42460254782709,27.56639232141707,33.51372145590699,0.4733832080547171,-3.398183486659572,0.6038472624900735,5743.642415364583,11.902444444444445,0.12,179.84253120309214,-4.030089181606293,98.10972440374536,1385.0,1435.0,1200.0,1528.0,1331.0,994.0,160.0,293.7,1649261886.3579772,1649261887.3020127,40674f34-e364-4f82-bf6a-4318c8f48b64
-0.8621031752811593,-1.3413866512642365,-0.1972917537183064,0.7531748663036147,-0.0110930553829187,0.8598896752409664,-0.2259296170773334,-0.2577494657921054,-18.541307862111545,29.845753062598227,32.08362067472197,0.4171173284794862,-5.288874027724986,0.4700466245251039,5725.73583984375,11.851,0.1066666666666666,-179.98806583828713,-4.020521272375837,97.69743900724522,1297.0,1435.0,1200.0,1528.0,1253.0,994.0,160.0,293.7,1649261888.388047,1649261889.4360735,a5eb5d74-b3cd-48ce-b18f-b01c27935e4c
-0.8724775019168868,-1.3492758766126525,-0.1764379196089837,0.7700709393763578,0.009274275450107,0.8599422700225601,-0.205759514991337,-0.2246015988280962,-18.35111746630761,30.140043713163188,33.35660566058045,0.3824100428464344,-5.33184522944882,0.3861627892715913,5719.792805989583,11.848999999999998,0.1,179.98335604339945,-4.015763950755184,97.4380443596762,1297.0,1435.0,1200.0,1528.0,1253.0,994.0,160.0,293.7,1649261889.544862,1649261890.759135,a5eb5d74-b3cd-48ce-b18f-b01c27935e4c
-0.8531054166247185,-1.3404546101201975,-0.1762002315520081,0.7734263851973939,0.0104101205973211,0.8556689441213176,-0.2074410310648664,-0.2334476379318735,-18.491556364521863,29.992877845518787,34.41340090520938,0.3643722661490206,-5.30753302929162,0.3892353515751227,5710.4775390625,11.853222222222222,0.1022222222222222,179.95112210397645,-3.985260705376861,97.12651411926257,1297.0,1435.0,1200.0,1528.0,1253.0,994.0,160.0,293.7,1649261890.8681042,1649261891.9836433,a5eb5d74-b3cd-48ce-b18f-b01c27935e4c
-0.0213884846910364,0.1205253941660796,-0.0547730255435954,-0.0445170420630779,-0.2109269530091398,0.1852958699778029,-0.3535508808639359,-0.3796904938187036,-15.817427005077109,24.23998000879176,35.50097632884899,0.6724634972882376,0.2517708865326076,0.9085871284575024,5700.3525390625,11.969333333333331,0.13,179.4383919455421,-3.931698836224313,96.7752944084919,1553.0,1435.0,1200.0,1528.0,1471.0,994.0,160.0,293.7,1649261892.8933885,1649261894.030681,6895d8e4-95c2-4cdd-95cb-6c981658f1d4
-0.0093442786325317,0.1240229472940502,-0.0459239526042491,-0.0459765473936402,-0.2030903291922769,0.1854405056319959,-0.3454249851414822,-0.3747071369094693,-15.86678726965456,24.26651966795009,35.88272468023908,0.6767333649157075,0.2625959015471211,0.8751849773359958,5709.632703993056,11.970666666666666,0.13,179.37345657819293,-3.91769865597308,96.93524453738516,1553.0,1435.0,1200.0,1528.0,1471.0,994.0,160.0,293.7,1649261894.1390884,1649261895.2588928,6895d8e4-95c2-4cdd-95cb-6c981658f1d4
-0.025885338948689,0.122195278545346,-0.0419004513903606,-0.0428340088566379,-0.198448838938281,0.1839941491024559,-0.3419537287290675,-0.3656871297885798,-15.914109195025413,24.29467828369928,35.86269263080464,0.6667544081479201,0.2561221413468091,0.8581697976125657,5718.944498697917,11.969888888888889,0.13,179.32605961881248,-3.921903206589653,97.0563058458741,1553.0,1435.0,1200.0,1528.0,1471.0,994.0,160.0,293.7,1649261895.367549,1649261896.4126303,6895d8e4-95c2-4cdd-95cb-6c981658f1d4
-0.0088972229496136,0.1031954128318718,-0.069644201581643,-0.4003208022074379,-0.2619701976958944,0.5448469430811105,-0.2640871381009668,-0.2950917680207748,-15.33184915985729,23.590969553892247,37.91465347650978,2.2786152046789363,0.2047970581340233,0.8697971863759681,5729.5634765625,11.955777777777778,0.12,179.29167948217025,-3.7737720560089247,97.18502531424244,1553.0,1522.0,1200.0,1528.0,1471.0,994.0,160.0,293.7,1649261897.397542,1649261898.532614,8809c3a7-5b3d-4769-a56e-18462aea5ca8
-0.0221961180360469,0.1148916836522419,-0.0778884345248007,-0.4072886011514774,-0.2704283505483801,0.5391267550358049,-0.2742338872190043,-0.2957522373061235,-15.48512990710866,23.384098356972387,37.75113788829648,2.279593720793609,0.2515310393455317,0.9081033442886692,5719.793891059027,11.958444444444444,0.1222222222222222,179.27550559421564,-3.770475351369532,97.17966968702324,1553.0,1522.0,1200.0,1528.0,1471.0,994.0,160.0,293.7,1649261898.640839,1649261899.765229,8809c3a7-5b3d-4769-a56e-18462aea5ca8
-0.0256092162417243,0.1195392419530728,-0.0639376671875083,-0.4061325270742106,-0.2602345696133334,0.5343411357687771,-0.2608788558235527,-0.2785244086977161,-15.15560237376298,23.48883755537936,37.971495378572925,2.267821961336621,0.2654207140188169,0.8572586415187624,5687.74169921875,11.955555555555556,0.1222222222222222,179.26935842396267,-3.7660168505250673,97.1971079188842,1553.0,1522.0,1200.0,1528.0,1471.0,994.0,160.0,293.7,1649261899.8735385,1649261900.9935837,8809c3a7-5b3d-4769-a56e-18462aea5ca8
0.0078016215559422,0.115699822728748,-0.1101290394360346,-0.85826375394147,-0.352130821455458,0.9718771122057148,-0.188626762002446,-0.2089940944080228,-15.395121400809112,22.82862088811704,40.55776731147446,4.2645360171004185,0.282521299373018,0.9418392703492552,5686.903483072917,11.939444444444446,0.1177777777777777,179.2404970801698,-3.6082227846798016,97.2593324600428,1553.0,1613.0,1200.0,1528.0,1471.0,994.0,160.0,293.7,1649261902.928367,1649261904.0692642,88460323-ebff-459c-b634-9a3ab6ed9c2a
0.0041462839552483,0.1153974027424486,-0.1019636986071373,-0.8565675712452392,-0.343150260366736,0.973021048697946,-0.1770427595937024,-0.2062986114491332,-15.196034568478314,22.63045412408488,40.977407212831935,4.262540438849519,0.2765641369331034,0.9027747139790148,5691.51806640625,11.944555555555556,0.12,179.2096382854997,-3.5922185605214696,97.20901673315706,1553.0,1613.0,1200.0,1528.0,1471.0,994.0,160.0,293.7,1649261904.1773033,1649261905.296154,88460323-ebff-459c-b634-9a3ab6ed9c2a
-0.0020467521056237,0.0992902501028795,-0.1170584028485649,-0.8555814185137721,-0.3555757805313451,0.9802791285038696,-0.1904412822995611,-0.2146348860402151,-15.301816455956402,22.77990129140687,39.78451191326592,4.2766214798510696,0.2263980148653285,0.9555930007634608,5683.9697265625,11.943,0.12,179.18652947880778,-3.588609422159418,97.17213598836872,1553.0,1613.0,1200.0,1528.0,1471.0,994.0,160.0,293.7,1649261905.4044368,1649261906.52126,88460323-ebff-459c-b634-9a3ab6ed9c2a
0.0073808632946157,0.0913221402693531,-0.1409495854993981,-1.2583394094881657,-0.4228182261441687,1.3831288751628867,-0.104869560644772,-0.1256313533084624,-15.210500186723426,22.369820557864944,43.45967552516654,6.087125713838118,0.2113601629643736,0.958830152619944,5676.44140625,11.902444444444448,0.1122222222222222,179.15521837383267,-3.4089532725892147,97.101962624836,1553.0,1710.0,1200.0,1528.0,1471.0,994.0,160.0,293.7,1649261908.457873,1649261909.5918665,0c670bbf-7b2d-45fc-97b8-8417d59d3a4c
-0.0006266928514028,0.0851028070179071,-0.1418042508299385,-1.253881997772193,-0.42359399940307,1.38414132481803,-0.105290318973973,-0.1252368924161643,-15.101614536551091,22.49060860949975,43.313951314336784,6.0801357375800285,0.1879538305610641,0.960758441557883,5676.44140625,11.907777777777778,0.11,179.1275060196402,-3.418406989594485,96.94370865958662,1553.0,1710.0,1200.0,1528.0,1471.0,994.0,160.0,293.7,1649261909.6995423,1649261911.029109,0c670bbf-7b2d-45fc-97b8-8417d59d3a4c
0.031719100333532,0.1043919441532096,-0.1415412768446708,-1.2569062003691696,-0.4265261592414414,1.3699801784239078,-0.1083013705803728,-0.1300493154729225,-14.932486032922764,22.300093237915583,43.582380232082215,6.054013679965692,0.2571094780202597,0.9715633157695414,5670.600423177083,11.906444444444444,0.11,179.13414496351345,-3.41405319460136,96.80355014217834,1553.0,1710.0,1200.0,1528.0,1471.0,994.0,160.0,293.7,1649261911.1368644,1649261912.258768,0c670bbf-7b2d-45fc-97b8-8417d59d3a4c
0.0171108985890634,0.0786467972108271,-0.1513502050658182,-1.447102277518785,-0.4585432419087504,1.5756915474215183,-0.0696704990579858,-0.0874212397644512,-15.256887619205957,22.969426282130488,44.44638660661569,6.949233447477415,0.1779946178006357,0.969474472736106,5662.696126302083,11.848444444444445,0.1044444444444444,179.10649939339288,-3.321352657673282,96.5128792994899,1553.0,1814.0,1200.0,1528.0,1471.0,994.0,160.0,293.7,1649261914.6018658,1649261915.7397425,568ee17f-828c-4b0f-9c8e-f58ec2a330a3
0.0072756737369609,0.0893629845275032,-0.1528754538994478,-1.4674564817142663,-0.4643023721694556,1.5845274725156413,-0.0689736180792801,-0.0877762546050107,-15.173135751881196,22.894224749884508,44.52789732698693,7.014483733397749,0.2192797032244803,0.979728078067744,5656.877332899306,11.851333333333336,0.1,179.11527087410698,-3.3504365517965806,96.27579129084025,1553.0,1814.0,1200.0,1528.0,1471.0,994.0,160.0,293.7,1649261915.847489,1649261916.969567,568ee17f-828c-4b0f-9c8e-f58ec2a330a3
0.0141655906370313,0.0787388380842071,-0.1500747814598796,-1.460040609445705,-0.458556390633822,1.5931004237168849,-0.0647528865744063,-0.0886046226645684,-15.33973364873485,22.99030034750545,45.26386888044171,7.017829717004443,0.1733550607569704,0.961736382437743,5653.97509765625,11.853111111111112,0.1,179.13427246037796,-3.345062188989034,96.13460217377718,1553.0,1814.0,1200.0,1528.0,1471.0,994.0,160.0,293.7,1649261917.0781488,1649261918.1973734,568ee17f-828c-4b0f-9c8e-f58ec2a330a3
-0.0354312926302043,0.1284672065148346,-0.0135387128894351,0.4340165923339933,-0.1292472450189477,-0.2872419952019336,-0.4540595353739527,-0.480133406265281,-16.087247164828483,26.0638039017932,31.82802740374616,-1.455424585327217,0.2597477193359516,0.8832716088323,5661.44384765625,11.967888888888888,0.1244444444444444,179.09056532096915,-3.9693946976854826,95.93494132504946,1553.0,1349.0,1200.0,1528.0,1471.0,994.0,160.0,293.7,1649261920.541071,1649261921.590747,0867368e-d209-44ac-8036-cd40f8aca580
-0.0286597138726135,0.1291772361022824,-0.0070695541929219,0.4325570871686093,-0.1239483200608269,-0.2851907983339986,-0.4456706652214747,-0.476754190464815,-15.897307327515996,26.03182199903164,32.08388645645106,-1.4472764807075371,0.2593880062771906,0.8558720810862563,5654.389702690973,11.97111111111111,0.12,179.06818962124817,-3.946227786953792,96.24760461795545,1553.0,1349.0,1200.0,1528.0,1471.0,994.0,160.0,293.7,1649261921.6999588,1649261922.9074972,0867368e-d209-44ac-8036-cd40f8aca580
-0.0577972257150047,0.1335294544461826,-0.0045450045022088,0.4259958882958232,-0.1233171826310025,-0.28154860894662,-0.443040925464879,-0.4668137737557615,-15.905594551452896,26.06268511976429,32.36832633636546,-1.423920066826324,0.2742175330716516,0.8486788256642726,5665.18603515625,11.96811111111111,0.12,179.01774639749792,-3.929671740428765,96.51307965170558,1553.0,1349.0,1200.0,1528.0,1471.0,994.0,160.0,293.7,1649261923.0171034,1649261924.1370542,0867368e-d209-44ac-8036-cd40f8aca580
-0.0452270717059922,0.1462968381720509,0.0156513933018276,0.7930811556542267,-0.0712483426133668,-0.6518291333342965,-0.5362915026836729,-0.5545550472955487,-16.43724755418632,27.44694601597029,29.26838613748605,-3.074623963022593,0.3094483521727595,0.8824495988827742,5649.007649739583,11.955666666666666,0.1266666666666666,178.97365524967574,-4.057899055721908,96.9528846392816,1553.0,1264.0,1200.0,1528.0,1471.0,994.0,160.0,293.7,1649261925.865898,1649261927.0103753,0c3ad494-e307-4b7e-a60e-ade55778d2c0
-0.0538394680179905,0.140642898959336,0.0176368464186453,0.7922922339532207,-0.0693417816199243,-0.6428222732254057,-0.5323600414994941,-0.555422861438406,-16.42311781167085,27.556017871378994,29.679116831177502,-3.0517102334542274,0.2847271900144077,0.871402210714301,5639.095703125,11.95188888888889,0.12,178.97649053709125,-4.060470764240026,97.1431532189906,1553.0,1264.0,1200.0,1528.0,1471.0,994.0,160.0,293.7,1649261927.125388,1649261928.2325408,0c3ad494-e307-4b7e-a60e-ade55778d2c0
-0.0426499271446844,0.154199204409208,0.029181401855698,0.7912534870405084,-0.0629778123413227,-0.6554581748310327,-0.5237607917565779,-0.553923909502377,-16.07518772532509,27.59488113250824,29.7103152256992,-3.0767490496063017,0.3336929177417719,0.8366568300620747,5646.52587890625,11.949444444444444,0.1122222222222222,178.96067940807254,-4.0529945055791465,97.28339976994822,1553.0,1264.0,1200.0,1528.0,1471.0,994.0,160.0,293.7,1649261928.341159,1649261929.46169,0c3ad494-e307-4b7e-a60e-ade55778d2c0
-0.0552332298887348,0.1556587096335054,0.0523362560694814,1.1789822162168182,-0.0076875429145265,-1.0278294395086962,-0.616288195283225,-0.636432004883317,-16.42377520958081,29.365495744856293,27.44845526202652,-4.775783468382368,0.3154411912778081,0.8609417959730747,5657.70654296875,11.941222222222224,0.11,178.97525503176135,-4.189238328523768,97.56567099777732,1553.0,1178.0,1200.0,1528.0,1471.0,994.0,160.0,293.7,1649261931.3957777,1649261932.534481,a2374815-de36-4ad1-9cbe-f50afa6443fb
-0.0668961239785218,0.1543964348434968,0.0554919430762814,1.1689234638623187,-0.0054259671963022,-1.0199007704987555,-0.6125671131246969,-0.6377074290432145,-16.619181487580768,29.45667555537008,27.10964421880444,-4.734667406418335,0.3165328524764015,0.8473690024386079,5651.07666015625,11.916444444444444,0.11,178.98950280637,-4.193484856344615,97.6622787112178,1553.0,1178.0,1200.0,1528.0,1471.0,994.0,160.0,293.7,1649261932.643046,1649261933.7628355,a2374815-de36-4ad1-9cbe-f50afa6443fb
-0.0528664644677018,0.1594060879575643,0.0602912173028709,1.1695546012848903,-0.0007450311443896,-1.02462115558446,-0.6093982761200957,-0.6352486219849649,-16.696889279491145,29.405279454321263,27.250644004447818,-4.746816812468087,0.3348480868280268,0.8307170317224423,5650.24853515625,11.918,0.11,178.97640857482116,-4.199257457126269,97.74531939223692,1553.0,1178.0,1200.0,1528.0,1471.0,994.0,160.0,293.7,1649261933.87144,1649261934.9925048,a2374815-de36-4ad1-9cbe-f50afa6443fb
-0.0730891601379535,0.1642842541009333,0.0764509648562546,1.374989832008917,0.0241454511366767,-1.227992192845748,-0.662045674285959,-0.694128505253627,-16.684911887026264,31.054084735763105,25.752289403381507,-5.655728276648663,0.3420982122066758,0.8493563701992893,5646.52587890625,11.898,0.1,178.97140584070908,-4.27837628146945,97.89420537358468,1553.0,1088.0,1200.0,1528.0,1471.0,994.0,160.0,293.7,1649261936.844526,1649261937.7868683,5efa34c4-6b71-46be-af8a-264be4ce6087
-0.0720504131048873,0.1548171930983535,0.0714281628867943,1.3831946188507025,0.0218970240130772,-1.2270323371348997,-0.665819351562784,-0.6913672782420726,-16.66647574809632,31.05893808352528,25.61018116840813,-5.672310642802846,0.3063914713370668,0.8633752483511121,5641.570963541667,11.887,0.1,178.99250201832558,-4.280001866491913,97.90456449382584,1553.0,1088.0,1200.0,1528.0,1471.0,994.0,160.0,293.7,1649261937.894858,1649261939.087279,5efa34c4-6b71-46be-af8a-264be4ce6087
-0.0593487719780818,0.1575126757571485,0.0766744926438459,1.3672058036249926,0.0254734694256834,-1.2140282658302746,-0.6568913836904356,-0.6876461956364055,-16.71497136109685,30.98565867413562,25.79685511289353,-5.607241108794667,0.3174898356529352,0.839086561982898,5639.095703125,11.896888888888888,0.1,178.9852438039675,-4.297477047778999,97.9036120618916,1553.0,1088.0,1200.0,1528.0,1471.0,994.0,160.0,293.7,1649261939.1953614,1649261940.315256,5efa34c4-6b71-46be-af8a-264be4ce6087
-0.0393233068288862,0.1278097717213697,-0.0450955847891978,-0.0483301641396883,-0.2060882323492475,0.1802862168939143,-0.3443730893848479,-0.3677251779722156,-15.44191756133862,24.32335373245193,35.37396208742257,0.6710109486068293,0.2786440807627916,0.8766351983524882,5632.508951822917,11.970333333333334,0.12,179.02327429726614,-3.871470702441833,97.898654862374,1553.0,1435.0,1200.0,1528.0,1471.0,994.0,160.0,293.7,1649261942.4519465,1649261943.5926769,d73a1b7c-3738-466d-be67-73e8d1cfea9d
-0.0113358003991317,0.1178122113037548,-0.0389986352966386,-0.0385561309959011,-0.1978323674300798,0.1808880225756194,-0.3385107927738877,-0.3610911537783012,-15.52331546790389,24.45745012900615,35.391276204151126,0.6514697771387634,0.240755206114625,0.8475213919724655,5649.834906684027,11.968222222222222,0.12,179.03666602149886,-3.8499171393103424,97.92759892734676,1553.0,1435.0,1200.0,1528.0,1471.0,994.0,160.0,293.7,1649261943.7006571,1649261944.7630775,d73a1b7c-3738-466d-be67-73e8d1cfea9d
-0.0443461089692743,0.1127019200449259,-0.0387973591054498,-0.034984236985095,-0.197173415406383,0.1806938264615192,-0.3367205469494328,-0.354563330833314,-15.349218176449751,24.457116474761623,35.12633720382976,0.6430292884813571,0.2222774142810843,0.8429617724787248,5653.97509765625,11.970888888888888,0.12,179.01452254820964,-3.8418092778787134,97.956489868626,1553.0,1435.0,1200.0,1528.0,1471.0,994.0,160.0,293.7,1649261944.8714037,1649261945.9076707,d73a1b7c-3738-466d-be67-73e8d1cfea9d
0.0253551312778527,0.1393937728464496,0.1219060071815653,-0.0484222049779941,-0.0517619739841485,0.1603527940686848,-0.1734663138862358,-0.1983567981904813,-14.44576569810562,24.411245586945,35.436326166791105,0.6358350962739489,0.3250877119342979,0.1976102476980521,5650.24853515625,11.968555555555556,0.1155555555555555,178.99579265168566,-3.844981663588839,97.95297763357284,1553.0,1435.0,1200.0,1446.0,1471.0,994.0,160.0,293.7,1649261946.9604406,1649261948.0975418,e385b503-cbec-4d1d-9387-bb53ac6611b0
0.0333232412902242,0.1527002530823996,0.1330298039715895,-0.0579813075171706,-0.0446879751499223,0.1548171931082569,-0.1623951107016139,-0.1853658849978288,-14.217811284081863,24.28280657062749,35.33736511955,0.6447602796660554,0.3761387283358598,0.1586480339998039,5650.24853515625,11.969444444444443,0.11,179.0135526613475,-3.8435582331930607,97.9787896773562,1553.0,1435.0,1200.0,1446.0,1471.0,994.0,160.0,293.7,1649261948.2067404,1649261949.3273938,e385b503-cbec-4d1d-9387-bb53ac6611b0
0.0379384336648083,0.1582884488180188,0.1280070021277566,-0.057297575289864,-0.0494872494393425,0.1504781234775236,-0.1695348533330936,-0.1935049288984591,-14.325822717076417,24.229489896271208,35.542682783876586,0.6328422923986082,0.3956391078893373,0.1831150200208423,5648.180392795139,11.969888888888889,0.12,178.9964923666206,-3.860279484918637,98.00583419082984,1553.0,1435.0,1200.0,1446.0,1471.0,994.0,160.0,293.7,1649261949.4360323,1649261950.5560975,e385b503-cbec-4d1d-9387-bb53ac6611b0
0.108152471217785,0.188701382168921,0.3240146078835735,-0.074522368140704,0.1251142889531342,0.1243911107684254,0.0306672045201346,0.011470107853158,-12.850108403546145,24.288711468546552,35.33260277635515,0.6239380103788297,0.5156708715943805,-0.6026832655452964,5656.877332899306,11.966444444444445,0.12,178.98845702851708,-3.868460011973934,97.98579213907529,1553.0,1435.0,1200.0,1354.0,1471.0,994.0,160.0,293.7,1649261951.4663756,1649261952.6005976,7a37b9fc-e981-4cf3-8161-8f8e636a6745
0.0894418767213063,0.1723575533443202,0.3312858364476416,-0.0643058306561021,0.1353308257615489,0.1299135630879363,0.0414622842522286,0.0151780402676539,-12.739687539049864,24.357874865532835,35.24671255285997,0.6141641354164712,0.4535555433324868,-0.6438402683246719,5653.97509765625,11.964222222222222,0.12,178.99950979241396,-3.869239365017355,98.03459156396532,1553.0,1435.0,1200.0,1354.0,1471.0,994.0,160.0,293.7,1649261952.7096794,1649261953.8602912,7a37b9fc-e981-4cf3-8161-8f8e636a6745
0.0954639795294918,0.1845200969280275,0.3298526286545292,-0.0720635617657728,0.1310443508814271,0.1252326273277372,0.0379384336389165,0.0194776639176637,-12.724372596729244,24.308216161379946,35.241310506546554,0.6207512787884393,0.4999754021742189,-0.629603981787858,5659.367567274306,11.969444444444443,0.12,179.000349146772,-3.8595126538886952,98.057644211324,1553.0,1435.0,1200.0,1354.0,1471.0,994.0,160.0,293.7,1649261953.9693992,1649261955.062804,7a37b9fc-e981-4cf3-8161-8f8e636a6745
0.1745270881254743,0.2179835274820209,0.5528282009373073,-0.0756794534186643,0.3307204425217278,0.0860758105401608,0.2597963793607215,0.2341827203132439,-11.227882437266798,24.6143156699672,35.56343244643708,0.5548537574478459,0.6266227114562863,-1.5159961280341512,5664.772406684027,11.958666666666668,0.1144444444444444,178.95296281213027,-3.8704835029474207,98.01686115178984,1553.0,1435.0,1200.0,1252.0,1471.0,994.0,160.0,293.7,1649261955.97207,1649261957.1097994,13741e5c-5ae6-4d58-9f97-6e8768bc6b1a
0.170687668969205,0.2069912178992879,0.5468060986309193,-0.0678033840129653,0.3281038521667715,0.0877982897221403,0.2551154437796583,0.2360761325622825,-11.273563148972302,24.61526544550541,35.26739643789707,0.5405941665561226,0.586990477985727,-1.499269674750036,5668.93310546875,11.96288888888889,0.1188888888888888,178.97123736270956,-3.8633611808947816,98.02255904737746,1553.0,1435.0,1200.0,1252.0,1471.0,994.0,160.0,293.7,1649261957.2184496,1649261958.3385108,13741e5c-5ae6-4d58-9f97-6e8768bc6b1a
0.181338112553362,0.2161427100808597,0.5564440920686184,-0.073286390631543,0.3337840885511399,0.0846294539454048,0.2627811332625694,0.2377986117040551,-11.180692535125624,24.707822737775533,35.43878846596272,0.547009239825994,0.6204254217068838,-1.5297303677484593,5657.70654296875,11.957666666666666,0.11,178.94632842171643,-3.867869485201944,98.00525134802064,1553.0,1435.0,1200.0,1252.0,1471.0,994.0,160.0,293.7,1649261958.4504948,1649261959.568282,13741e5c-5ae6-4d58-9f97-6e8768bc6b1a
-0.0785984640720837,0.0967525517404875,-0.2680317476016329,-0.0037692313226824,-0.4078813041583816,0.1827581716805806,-0.5852967082846585,-0.6159200318002039,-17.09818549116001,24.86541268081827,35.44901175981588,0.5677180961198416,0.1536079415040857,1.7937529857075123,5657.70654296875,11.95775,0.1149999999999999,179.06214490383272,-3.87088442082214,98.12856623948072,1553.0,1435.0,1200.0,1604.0,1471.0,994.0,160.0,293.7,1649261961.5018444,1649261962.6364508,cb3bf917-2f34-47af-a910-0117b9624bd4
-0.1122267622406896,0.0947134924122795,-0.2725017991268249,-0.0144206869375815,-0.4116377862478995,0.1894726037440586,-0.5862626320180262,-0.6090958560596816,-17.130431020378207,24.706593715301867,34.706776774316346,0.6054234387773691,0.1537922164375945,1.80499354780133,5661.44384765625,11.963,0.12,179.0493929406523,-3.858005885698669,98.11045599289643,1553.0,1435.0,1200.0,1604.0,1471.0,994.0,160.0,293.7,1649261962.7451046,1649261963.868164,cb3bf917-2f34-47af-a910-0117b9624bd4
-0.0758109403349416,0.0997373057645786,-0.261996495241296,-0.0134992667378283,-0.4040287353691787,0.1849671525839808,-0.5780254770296971,-0.6050460567449024,-17.026679340559646,24.847387298097274,34.95643779954288,0.5947690452542651,0.1702424241761452,1.7695647638961285,5656.048122829861,11.964777777777776,0.11,179.04764744786442,-3.862179985055192,98.05483548575532,1553.0,1435.0,1200.0,1604.0,1471.0,994.0,160.0,293.7,1649261963.9766824,1649261965.097772,cb3bf917-2f34-47af-a910-0117b9624bd4
-0.1472872575363484,0.0680752454919837,-0.4520477843336852,0.0190306083222119,-0.5756192646911048,0.1931456413329131,-0.7804891782423433,-0.8102972866118996,-18.411223437751698,25.273232230524936,34.45852434286628,0.5323511508346427,0.0496567647999409,2.5452120960171576,5650.24853515625,11.941666666666666,0.11,179.02831497687365,-3.8784674723366033,98.02644314828548,1553.0,1435.0,1200.0,1676.0,1471.0,994.0,160.0,293.7,1649261966.0073905,1649261967.1511934,a82df390-7632-4c34-b40f-b778a71531f4
-0.1592262746813856,0.0591867268796409,-0.4554927437523385,0.0241323025201216,-0.5770787706306093,0.20094281789182,-0.7830794727883571,-0.8151360092130818,-18.5339530856804,25.3983631302078,34.972312426007434,0.5390423691554179,0.0117899776174233,2.555140571695016,5653.56103515625,11.934555555555557,0.1011111111111111,179.0345835727119,-3.864367827455581,97.95779367584758,1553.0,1435.0,1200.0,1676.0,1471.0,994.0,160.0,293.7,1649261967.2640572,1649261968.3743763,a82df390-7632-4c34-b40f-b778a71531f4
-0.1520470858905507,0.0676676359282045,-0.4502332639984431,0.0198852736014123,-0.5731736065789793,0.1952757300332336,-0.7776490587199892,-0.8026447422197921,-18.40893642626121,25.220775431995165,34.83475017980019,0.5350135614231801,0.0447862277970286,2.5358758402174355,5648.594021267361,11.935444444444446,0.1044444444444444,179.0542727313593,-3.8708307042302295,97.89933408674143,1553.0,1435.0,1200.0,1676.0,1471.0,994.0,160.0,293.7,1649261968.4821155,1649261969.6044493,a82df390-7632-4c34-b40f-b778a71531f4
-0.210453599852094,0.0474054950280799,-0.6523287842064462,0.0684828550791248,-0.7566111353742165,0.1800626890564966,-1.003990838110526,-1.0309062368890691,-20.14688962609252,25.84848903472957,34.56379521853306,0.3843837382155884,-0.0352913825488079,3.3795845036430863,5646.52587890625,11.947111111111113,0.11,179.08422690541934,-3.8981405041484862,97.82948629555918,1553.0,1435.0,1200.0,1747.0,1471.0,994.0,160.0,293.7,1649261970.5130332,1649261971.6467187,f6080c76-2ffc-4224-b125-d4652c627db1
-0.2254299664985902,0.0371758093056558,-0.6581799561107096,0.0704420107823842,-0.7615156011716391,0.1881754343350108,-1.007527839611188,-1.030459180720256,-20.08470530139953,25.96678723943658,34.51078711918042,0.3987105008196542,-0.074239380359899,3.3979758482386706,5650.24853515625,11.949,0.11,179.11975754948176,-3.904309872516301,97.77617287453768,1553.0,1435.0,1200.0,1747.0,1471.0,994.0,160.0,293.7,1649261971.7549312,1649261972.8792832,f6080c76-2ffc-4224-b125-d4652c627db1
-0.2039186971393084,0.0441446183629189,-0.6378389158764451,0.0682987733059669,-0.7451454673577242,0.1844412047390068,-0.9877127419973932,-1.0147859250398,-19.843847720506595,26.03542211222381,34.8223675134875,0.3967925531197581,-0.0510138134211352,3.3211437399853323,5650.24853515625,11.945,0.105,179.112094077233,-3.902031150654455,97.73828581521164,1553.0,1435.0,1200.0,1747.0,1471.0,994.0,160.0,293.7,1649261972.9869134,1649261974.10378,f6080c76-2ffc-4224-b125-d4652c627db1
-0.0105671073708041,0.1216693307239659,-0.1049090067049611,-0.0453980048143922,-0.2394201809177581,0.1918307717599101,-0.3782441368387479,-0.4027533113831404,-15.458885288235416,21.72695245507244,36.21377985085492,0.6702740356300242,0.2440936065754454,1.053312899683702,7988.28173828125,11.677,6.951111111111112,179.8790317340167,-4.021609833774807,86.24379992431237,1553.0,1435.0,1350.0,1528.0,1471.0,994.0,160.0,293.7,1649261978.0417063,1649261979.023729,074eef55-85e4-4445-bc0a-7dcddeddcab4
-0.0447638329764681,0.1088230547340772,-0.1103303156230012,-0.0365964695616534,-0.2416908598743534,0.1970710327233586,-0.3817244962355681,-0.4083632545774607,-15.46894260354384,21.79026810095456,36.28650553514416,0.662351806938562,0.1939126127808325,1.067343103426142,7988.28173828125,11.6765,7.0375000000000005,-179.836821544401,-4.026972172603502,80.7035054497074,1553.0,1435.0,1350.0,1528.0,1471.0,994.0,160.0,293.7,1649261979.1315525,1649261980.2488103,074eef55-85e4-4445-bc0a-7dcddeddcab4
-0.0349053447747382,0.1059040442175553,-0.1084986010220763,-0.038113626912772,-0.2393807348639821,0.1994044204885502,-0.3787043413037959,-0.4061851218583905,-15.480573272966517,21.776261535323105,36.032087504572495,0.6709695217386659,0.1856044461446511,1.05667202150526,7995.7333984375,11.675,7.007777777777778,-179.7391798162111,-4.01320447965933,76.28865805177594,1553.0,1435.0,1350.0,1528.0,1471.0,994.0,160.0,293.7,1649261980.3571498,1649261981.4802272,074eef55-85e4-4445-bc0a-7dcddeddcab4
0.1862951708455916,0.5282006951908612,-0.0853831917584812,-0.2605632871189854,-0.3179573543224103,-0.003519406059841,-0.4421468137747743,-0.4732434876462171,-14.816778038393464,20.70205519786155,36.7405120639886,0.7112415356519066,1.7873322033487002,1.2735676649634151,7996.562879774306,11.645,7.042222222222223,-179.96795624355082,-3.9051443888236417,70.81960263994166,1637.0,1435.0,1350.0,1528.0,1535.0,994.0,160.0,293.7,1649261982.3942938,1649261983.7299778,17dc4d2a-2eae-4f2c-9079-c0b414a2b2ac
0.2014950630653079,0.532513467161756,-0.0847783516774197,-0.2626933761634494,-0.3181414360499434,-0.0060045096935978,-0.442830546078989,-0.4662746769801136,-14.863248525467196,20.69485642599377,36.70917186951655,0.7104161425816338,1.8044148755227167,1.2743968394714715,7995.7333984375,11.640222222222222,7.029999999999999,179.96426642357918,-3.858379553964511,67.28683376136479,1637.0,1435.0,1350.0,1528.0,1535.0,994.0,160.0,293.7,1649261983.8376217,1649261984.9628346,17dc4d2a-2eae-4f2c-9079-c0b414a2b2ac
0.1911338908587882,0.5331446045240913,-0.0825825193093403,-0.2629957962410842,-0.3179047595045592,-0.0060571044778968,-0.4414104865818974,-0.4680234540372646,-14.761580843758871,20.83093091050305,36.76172727946421,0.7120510872286608,1.8057753944110373,1.2692225460561837,7995.7333984375,11.643444444444444,7.02,179.87208315490105,-3.8342290485604695,65.13752652936313,1637.0,1435.0,1350.0,1528.0,1535.0,994.0,160.0,293.7,1649261985.070325,1649261986.1055872,17dc4d2a-2eae-4f2c-9079-c0b414a2b2ac
0.4433390171984401,0.9895884048044192,-0.0496976286332322,-0.5139913078856961,-0.3990848245649155,-0.2160023502160901,-0.501513191655158,-0.5322811491810461,-13.98557735896011,19.93262083826289,37.539282505752816,0.8026574769273429,3.538305758461006,1.475577478266905,8010.67919921875,11.609555555555556,7.035555555555556,179.23033375868482,-3.786789258202107,60.9064057180082,1723.0,1435.0,1350.0,1528.0,1599.0,994.0,160.0,293.7,1649261987.9203117,1649261989.0579062,0e9046a4-3ff5-45e7-b958-bb77752b83dd
0.4563430766505874,0.9871821935545,-0.0567453300696962,-0.5087975713577165,-0.4050280364345258,-0.2174750043683399,-0.5098494672682431,-0.5398679490455984,-14.04816685612257,19.98978982552381,37.61502732462415,0.7876410491285754,3.5279673946907844,1.504942205963584,8008.80908203125,11.61325,7.0175,179.1262393990041,-3.776238382771567,59.50251801126506,1723.0,1435.0,1350.0,1528.0,1599.0,994.0,160.0,293.7,1649261989.1656578,1649261990.287537,0e9046a4-3ff5-45e7-b958-bb77752b83dd
0.4530164568030017,0.98638012313458,-0.0568373709717109,-0.5061678314683568,-0.4039366944321329,-0.2184348592946307,-0.511690285264558,-0.5322154058105544,-14.255366174156272,20.03364583441747,37.70418461056159,0.7797481351335077,3.525306581622396,1.50609101009018,8003.19873046875,11.615555555555554,7.038888888888888,179.05879431658988,-3.759755464330935,58.42750087741841,1723.0,1435.0,1350.0,1528.0,1599.0,994.0,160.0,293.7,1649261990.3960354,1649261991.5168068,0e9046a4-3ff5-45e7-b958-bb77752b83dd
0.6511146959159444,1.3354911471536683,-0.0098570778549305,-0.7301690961454013,-0.4577806172772354,-0.3695002522260983,-0.5350818222054384,-0.5651660479690056,-13.144456044688493,20.02739647069894,35.620087918666314,0.9481008630874652,4.8758512712950415,1.5868120553643084,8003.19873046875,11.567,7.02,178.53197879026715,-3.700186680962707,56.33429378361964,1813.0,1435.0,1350.0,1528.0,1662.0,994.0,160.0,293.7,1649261993.344001,1649261994.2906885,24e9f382-7f3b-4ae1-8b15-ba9099d26b5d
0.646302273558834,1.3391596334902622,-0.0072930820468001,-0.7217802243245245,-0.4537571152818036,-0.3769161182848803,-0.5359496364505819,-0.5598276760001307,-13.336999017469658,20.01322025294845,36.18238062082111,0.9125395878209666,4.88511896484074,1.580254148416239,8003.19873046875,11.572666666666668,7.023333333333333,178.41417168746278,-3.6933163644313214,55.68465969291652,1813.0,1435.0,1350.0,1528.0,1662.0,994.0,160.0,293.7,1649261994.3998778,1649261995.6095953,24e9f382-7f3b-4ae1-8b15-ba9099d26b5d
0.6619229231771477,1.3391727821735375,-0.0079110707711725,-0.7317863863103972,-0.4548616060175821,-0.3720116536610989,-0.5317814985655319,-0.5546602367097717,-13.118145233882863,19.79639024880948,35.587034738325926,0.9446791244387708,4.890084940881236,1.5759825650766786,8003.19873046875,11.574222222222222,7.027777777777778,178.2748145789171,-3.663519332154056,55.10933236855883,1813.0,1435.0,1350.0,1528.0,1662.0,994.0,160.0,293.7,1649261995.7261925,1649261996.8476536,24e9f382-7f3b-4ae1-8b15-ba9099d26b5d
-0.3399682752354692,-0.3976121701293067,-0.1492990081999229,0.2347481143301799,-0.1583847580191874,0.4358442609744427,-0.3179310568373702,-0.3392976916723854,-16.16870340939991,23.07995878917674,35.29336245073032,0.5929188110260141,-1.7276293145637385,0.8548485804744432,8006.523383246527,11.65522222222222,7.043333333333333,179.1177798302621,-3.693579326714367,53.874609095354266,1470.0,1435.0,1350.0,1528.0,1403.0,994.0,160.0,293.7,1649261998.980575,1649262000.1246853,3c3a1099-9882-4235-bd3a-163c60d81b47
-0.3055055369340105,-0.3946274154762507,-0.146340551346976,0.2310664795249176,-0.1567411709075958,0.4364753983361844,-0.3143414622007173,-0.339863085713147,-16.082224042627278,23.05435451877784,35.34191420430869,0.6026707756025481,-1.7168366583616166,0.8439347733848842,8010.67919921875,11.666,7.059999999999999,179.03653852463432,-3.692194505860147,53.48989223961908,1470.0,1435.0,1350.0,1528.0,1403.0,994.0,160.0,293.7,1649262000.2413857,1649262001.2827618,3c3a1099-9882-4235-bd3a-163c60d81b47
-0.3063091246680364,-0.4009291822732911,-0.1469190940393967,0.2325598679576573,-0.1570461195431944,0.4404483271460663,-0.3147419918141985,-0.3460207226043472,-16.120941826256857,23.20105026314172,35.21916207444011,0.6091343579944883,-1.739328188046541,0.8446991764000658,8010.67919921875,11.663000000000002,7.066666666666666,178.9696117776871,-3.6799418579671817,53.20080675972801,1470.0,1435.0,1350.0,1528.0,1403.0,994.0,160.0,293.7,1649262001.3918426,1649262002.5757675,3c3a1099-9882-4235-bd3a-163c60d81b47
-0.5686110075092992,-0.8381199410629864,-0.1803693800056955,0.4693865821701543,-0.0883942433583749,0.6468413700534699,-0.2672954203529777,-0.2910814151505755,-17.05833190582063,24.93650895546274,34.703349414840915,0.5479889216824737,-3.3991026671980844,0.6763165325721048,8010.67919921875,11.601666666666668,7.053333333333334,178.99637701231464,-3.648883849446272,52.76849676640123,1385.0,1435.0,1350.0,1528.0,1331.0,994.0,160.0,293.7,1649262003.4857562,1649262004.623341,bdb49efb-5b6b-47d7-b2bf-e5910959339c
-0.5654816167781586,-0.8369365577840279,-0.1800275138506878,0.4645741597767199,-0.0876842136810912,0.6509043167978347,-0.264862911199466,-0.2890828131142054,-17.06431434287997,24.808486781151142,34.827972957856595,0.5671597538779704,-3.395114439989096,0.6717451938130098,8003.19873046875,11.605555555555558,7.054444444444446,178.96170545426787,-3.645696664992946,52.50963183794784,1385.0,1435.0,1350.0,1528.0,1331.0,994.0,160.0,293.7,1649262004.7321002,1649262006.0607345,bdb49efb-5b6b-47d7-b2bf-e5910959339c
-0.5656919959827578,-0.8436949910387318,-0.1837354465688542,0.473673056762908,-0.0912080645159826,0.6508780194079212,-0.2700566469165302,-0.2957623517996534,-17.02127683046994,25.04399262913647,35.03647934990771,0.5480072453110847,-3.423966607721154,0.6884834294461346,8003.19873046875,11.604666666666668,7.050000000000001,178.88650658932585,-3.626093358028841,52.32940325686376,1385.0,1435.0,1350.0,1528.0,1331.0,994.0,160.0,293.7,1649262006.1698987,1649262007.285643,bdb49efb-5b6b-47d7-b2bf-e5910959339c
-0.8576983598214701,-1.349473107213434,-0.2366195082666086,0.7454302849660926,-0.0275420747162981,0.8862002142027292,-0.22945346798785,-0.2616020344269457,-17.868536852362965,27.088738978305308,33.547428955332755,0.4740476568458324,-5.338524961092734,0.5536962748697539,7995.7333984375,11.546444444444443,7.041111111111111,178.97690034844143,-3.598936763048216,51.979335571333095,1297.0,1435.0,1350.0,1528.0,1253.0,994.0,160.0,293.7,1649262009.3631012,1649262010.306182,b3e7a6bf-4d5a-4ab0-89ea-96ac7ae4d3f3
-0.8625107849933545,-1.345147182006589,-0.2337136461312722,0.7414067842985239,-0.022940030960978,0.8883960462733381,-0.2266659440661283,-0.2566844212344618,-18.17532827507805,26.929105516941537,33.960676678008234,0.4870559225636682,-5.323114433358562,0.5404202531900162,7995.7333984375,11.546,7.036666666666666,178.9701672997396,-3.5894052814933324,51.88737390434804,1297.0,1435.0,1350.0,1528.0,1253.0,994.0,160.0,293.7,1649262010.4174757,1649262011.6024857,b3e7a6bf-4d5a-4ab0-89ea-96ac7ae4d3f3
-0.8427745820118413,-1.3320642166496877,-0.234752393252133,0.7257598372660071,-0.0285413757131123,0.8882382619278109,-0.2270472563187768,-0.2504256410213253,-17.96941191585168,26.827097574874315,33.70712564926393,0.5213323289595424,-5.271396674823482,0.5512824244124211,7995.7333984375,11.552,7.053333333333334,178.9706636268193,-3.578236072357461,51.80567459659093,1297.0,1435.0,1350.0,1528.0,1253.0,994.0,160.0,293.7,1649262011.7104309,1649262012.8114946,b3e7a6bf-4d5a-4ab0-89ea-96ac7ae4d3f3
-0.052143286144691,0.1019462866960089,-0.1166770905596874,-0.0305005314928541,-0.2433384928783365,0.1973532239698734,-0.3873430363839493,-0.4065138393558939,-15.70712809499449,21.650600041645795,36.123727131392144,0.64784723779053,0.1700938100191122,1.0851207250731938,7997.392361111111,11.669777777777778,7.09,178.54413045571053,-3.604055088625625,51.7256896663155,1553.0,1435.0,1350.0,1528.0,1471.0,994.0,160.0,293.7,1649262014.954737,1649262016.093014,a84ba093-7c2b-402a-b2f7-2a12c0a3b695
-0.0513017695726723,0.102906141515939,-0.1195698039069348,-0.0293302974904688,-0.2424838275006332,0.1986286474409822,-0.3892364489913093,-0.4126805793826247,-15.964601182732263,21.39242542169152,36.57770706315354,0.6461607764981783,0.1711607257927636,1.0912881472166367,8008.185709635417,11.670666666666667,7.086666666666667,178.57132523334587,-3.595907479287577,51.72361215044296,1553.0,1435.0,1350.0,1528.0,1471.0,994.0,160.0,293.7,1649262016.2016032,1649262017.318656,a84ba093-7c2b-402a-b2f7-2a12c0a3b695
-0.0404935409115043,0.1074029955520406,-0.1215815545822523,-0.0400201878903129,-0.2495315295597097,0.2013372787638743,-0.3915111739015596,-0.414692330090232,-15.737699368725885,21.582208722522854,36.17001614993193,0.6775683594303412,0.1912259001592947,1.106824498473202,8010.67919921875,11.671333333333331,7.07,178.6009363801276,-3.608605797023884,51.75437190737011,1553.0,1435.0,1350.0,1528.0,1471.0,994.0,160.0,293.7,1649262017.4277391,1649262018.4776528,a84ba093-7c2b-402a-b2f7-2a12c0a3b695
-0.017859576761448,0.1000235427441546,-0.1546313107204033,-0.4283518057301372,-0.3181303103278363,0.5836173874383666,-0.3131110474824928,-0.3472470913302942,-15.560243397757151,20.44683527578796,38.8375221174904,2.4039261522893183,0.1843479381244924,1.1337384154343335,8010.67919921875,11.65477777777778,7.052222222222223,178.5934459393378,-3.485317752001784,51.84232766840695,1553.0,1522.0,1350.0,1528.0,1471.0,994.0,160.0,293.7,1649262019.4602728,1649262020.5993347,f9f81e11-fbee-44d6-bc95-abec8607fe95
-0.0197307374277634,0.0894919429189367,-0.1565404003660843,-0.4209430194383387,-0.3181429532260048,0.5880297860405099,-0.3150707092319165,-0.3443265632242208,-15.663197681165949,20.627162023851863,38.95109475355786,2.39819562184202,0.1435399812716234,1.1379528882374168,8010.67919921875,11.65488888888889,7.062222222222222,178.57872764058638,-3.4828444883282668,51.88857184363747,1553.0,1522.0,1350.0,1528.0,1471.0,994.0,160.0,293.7,1649262020.708545,1649262021.82385,f9f81e11-fbee-44d6-bc95-abec8607fe95
-0.0289226878006124,0.093846689929327,-0.1588712598637321,-0.4235414047071429,-0.3233351719378023,0.5831885376926622,-0.3179442055154008,-0.3409938737785281,-15.394525106965594,20.66277318908167,38.50767135638994,2.393362579101338,0.1620741388948808,1.1523453483942503,8010.67919921875,11.650666666666666,7.063333333333334,178.5919524046393,-3.4779878918053027,51.92152143510352,1553.0,1522.0,1350.0,1528.0,1471.0,994.0,160.0,293.7,1649262021.9326885,1649262023.062453,f9f81e11-fbee-44d6-bc95-abec8607fe95
-0.0105408100206041,0.0946750577758605,-0.1905596205410506,-0.9282543020468312,-0.410511043868569,1.0700058261020104,-0.2166992312212413,-0.2412347012252938,-15.252444879235592,20.02475527387553,42.03124950706528,4.6206404997558606,0.1930672958442901,1.171131263978851,8018.171875,11.633,7.07,178.59880536110657,-3.3261113073862725,52.03369249347778,1553.0,1613.0,1350.0,1528.0,1471.0,994.0,160.0,293.7,1649262024.8424778,1649262025.9206753,c9896b06-9f0b-4b42-9387-a74f1d1cea2b
-0.0093574273196562,0.1078631999197254,-0.1894814274196814,-0.9323566977022444,-0.4108266127108043,1.062221798359125,-0.2170673947664523,-0.241629162124007,-15.215519014793385,19.822036693832263,42.22949761465877,4.611162779877343,0.2410824334731127,1.1725640011443073,8018.171875,11.639666666666669,7.07,178.6457242072451,-3.3372365946112312,52.044381739528845,1553.0,1613.0,1350.0,1528.0,1471.0,994.0,160.0,293.7,1649262026.0362675,1649262027.154677,c9896b06-9f0b-4b42-9387-a74f1d1cea2b
-0.0215857151586017,0.08190767386279,-0.1942281071182947,-0.9198128343116472,-0.4101034341844108,1.0755940217255484,-0.2172251791160059,-0.2390125715670202,-15.265027424177834,19.97450002122722,42.136775107485306,4.613650711807491,0.1430628889491283,1.17501529538441,8018.171875,11.640555555555556,7.066666666666666,178.67405127846288,-3.3355904004415846,52.08540765023348,1553.0,1613.0,1350.0,1528.0,1471.0,994.0,160.0,293.7,1649262027.263795,1649262028.3810947,c9896b06-9f0b-4b42-9387-a74f1d1cea2b
-0.0071747436896589,0.0836827478342943,-0.2294666167393212,-1.379425867411321,-0.4949651393497792,1.5153653222284131,-0.1330340697025948,-0.1600283452384314,-15.277470581720136,19.36776552857448,44.92960989130819,6.633312111774266,0.1793997194486062,1.219127986902705,8018.171875,11.585333333333333,7.036666666666666,178.68914599652862,-3.1843076867413256,52.19833761851552,1553.0,1710.0,1350.0,1528.0,1471.0,994.0,160.0,293.7,1649262029.4962635,1649262030.633012,b4f3db7e-c5d4-4fd0-9ea5-1a23be4df89e
-0.0118425309595722,0.0811713468731752,-0.2286119513986435,-1.3736930298683072,-0.493505633696012,1.5095141517927613,-0.1322319991857815,-0.1586214345269483,-15.138330968742713,19.34187526358038,44.504666208197726,6.607105101390671,0.1721098152278887,1.2140880771885243,8010.67919921875,11.584,7.059999999999999,178.74943835306203,-3.199762199251145,52.23598903631521,1553.0,1710.0,1350.0,1528.0,1471.0,994.0,160.0,293.7,1649262030.7409766,1649262031.8609324,b4f3db7e-c5d4-4fd0-9ea5-1a23be4df89e
0.0112334313401233,0.089954675886012,-0.2227870783260039,-1.368604479539216,-0.4886932096638979,1.4987190712323026,-0.1307330477171481,-0.1553079628476425,-15.200542339725702,19.36205527899158,44.88766100872402,6.571822142665369,0.2018415814533514,1.1990550438349272,7999.880805121527,11.583555555555556,7.07,178.75715950246376,-3.1919370317601645,52.25539701884181,1553.0,1710.0,1350.0,1528.0,1471.0,994.0,160.0,293.7,1649262031.968997,1649262033.0912435,b4f3db7e-c5d4-4fd0-9ea5-1a23be4df89e
0.0038701613213562,0.0836433017477371,-0.2386707050982738,-1.6576000075300044,-0.5442990609276661,1.7850451262173093,-0.0776254605391983,-0.108196180935169,-15.12832442393841,20.03133119291845,47.01476153083701,7.871159363046526,0.1933924606199906,1.2203077583306303,7988.28173828125,11.541555555555554,7.055555555555555,178.72242723162435,-3.0461599011336946,52.30773334335704,1553.0,1814.0,1350.0,1528.0,1471.0,994.0,160.0,293.7,1649262034.8401356,1649262036.1647332,235eb28f-a75f-4fba-aa79-4bce3d9438e7
0.0272748409692171,0.0788440276479569,-0.2444429835166345,-1.6556802971410565,-0.5476125334884391,1.7856105210524242,-0.0835686715697903,-0.1060529433602982,-15.31839113995538,20.00865118604724,46.63435688125625,7.867505401549403,0.1795063533669854,1.2399269271840505,7987.455349392361,11.551333333333334,7.061111111111111,178.73626823052243,-3.015675106752504,52.364190548671495,1553.0,1814.0,1350.0,1528.0,1471.0,994.0,160.0,293.7,1649262036.2734344,1649262037.391821,235eb28f-a75f-4fba-aa79-4bce3d9438e7
0.006052844945957,0.077068953676645,-0.2479931319703758,-1.6539052198318864,-0.5516360357315542,1.7867676062263664,-0.0884599868357392,-0.1136528902695651,-15.359883744439813,20.160080557337523,46.7497906478865,7.866925971314974,0.171678292282984,1.2570829394161802,7988.28173828125,11.55188888888889,7.074444444444444,178.77802193582863,-3.0345979086886783,52.37846488512692,1553.0,1814.0,1350.0,1528.0,1471.0,994.0,160.0,293.7,1649262037.5000694,1649262038.6211865,235eb28f-a75f-4fba-aa79-4bce3d9438e7
-0.0466476366124341,0.1068001784153248,-0.0746391891923388,0.4769991709308995,-0.1558450365016341,-0.300923215640712,-0.4889875380704557,-0.5171687415499798,-15.67320478914896,23.18931255136869,32.1542256361042,-1.6049636109071463,0.1634473443637876,1.052200001793384,7988.28173828125,11.670222222222222,7.110000000000001,178.7880699030076,-3.782747209169537,52.338878626517335,1553.0,1349.0,1350.0,1528.0,1471.0,994.0,160.0,293.7,1649262039.3420117,1649262040.4663298,2c45aa48-bb9e-43c0-ab8a-d2b90031ed27
-0.0460159934618048,0.1158970531699781,-0.077375635360235,0.4695180691303953,-0.1605411443964398,-0.3047692098341608,-0.494373447783171,-0.5226168549841383,-15.792880589382174,23.18840868693353,31.864831006742648,-1.5969791621072886,0.2017256810726676,1.070538376674487,7988.28173828125,11.661,7.096666666666668,178.79162615483546,-3.8069156438201497,52.47148485197837,1553.0,1349.0,1350.0,1528.0,1471.0,994.0,160.0,293.7,1649262040.574659,1649262041.6137574,2c45aa48-bb9e-43c0-ab8a-d2b90031ed27
-0.0646871428587518,0.1123995000522636,-0.075679453493887,0.4680585639579112,-0.1573591596643616,-0.2994702844795567,-0.4915990721438136,-0.5188300292636101,-15.959518642663111,23.170691794314447,31.958143872754977,-1.5818814788534354,0.1892470487308012,1.0595285416261255,7988.28173828125,11.66888888888889,7.108888888888889,178.81553485257012,-3.806929683653444,52.61260566714972,1553.0,1349.0,1350.0,1528.0,1471.0,994.0,160.0,293.7,1649262041.7225893,1649262042.9234192,2c45aa48-bb9e-43c0-ab8a-d2b90031ed27
-0.0753507359779055,0.1206437324346292,-0.0381004781977059,0.8888168045733823,-0.0845285265182544,-0.7120238876066267,-0.5785777222695336,-0.6047304874823027,-16.218679104858392,24.798717598759985,29.331168486439672,-3.445957662618272,0.1958905948188678,1.0330776456746238,7988.28173828125,11.656444444444444,7.1,178.84595347949374,-3.964237667702777,52.94767577508285,1553.0,1264.0,1350.0,1528.0,1471.0,994.0,160.0,293.7,1649262044.8551917,1649262046.19952,8f9e0e09-9981-49bb-a448-c76dd55515df
-0.0832005079946364,0.1226291855162689,-0.042294912350496,0.8752867972586624,-0.0914578897143257,-0.7007160043487619,-0.5809181908509196,-0.6038363760294584,-16.204390331798685,24.883298691947683,29.41777800616269,-3.3896541153222914,0.2038698637861019,1.0517845344641703,7988.28173828125,11.642111111111111,7.106666666666667,178.8223012933079,-3.960463229276437,53.06602284228662,1553.0,1264.0,1350.0,1528.0,1471.0,994.0,160.0,293.7,1649262046.3079116,1649262047.4274166,8f9e0e09-9981-49bb-a448-c76dd55515df
-0.0767970926641984,0.1215904385413912,-0.0335773265114896,0.8761151650488537,-0.0841209168907548,-0.6983229406782633,-0.5725293201175924,-0.5972751742670406,-16.17190136566909,25.030709362640383,29.78541364136004,-3.3846589384266985,0.1969387954426026,1.0183266312588872,7988.28173828125,11.641555555555556,7.110000000000001,178.83164802773211,-3.959539967941754,53.147231514788345,1553.0,1264.0,1350.0,1528.0,1471.0,994.0,160.0,293.7,1649262047.536111,1649262048.585471,8f9e0e09-9981-49bb-a448-c76dd55515df
-0.0868295483725605,0.1305709978935884,-0.0023886182413464,1.3044470748797188,-0.0192715445832209,-1.1193444293045056,-0.6729065011743472,-0.6910648577271803,-16.597808912732646,27.039588964224865,26.968885753016075,-5.28275555254855,0.2078730786587906,1.0301490271339928,7988.28173828125,11.616,7.080000000000001,178.80989918759497,-4.102345657972119,53.33349798309872,1553.0,1178.0,1350.0,1528.0,1471.0,994.0,160.0,293.7,1649262050.342982,1649262051.317275,8408c88b-52c6-4f6a-9c59-41a578fc65e5
-0.0701307032974673,0.1315702987806986,-0.001468209458347,1.294375173462552,-0.0196923028554083,-1.1154524123271747,-0.6702241661266942,-0.6947464939031619,-16.564337336582717,27.001043721272712,26.35742438260537,-5.251580241361987,0.2181012896163398,1.0248578419981862,7980.84423828125,11.600444444444443,7.084444444444443,178.8113669193566,-4.112923866017308,53.387690601248366,1553.0,1178.0,1350.0,1528.0,1471.0,994.0,160.0,293.7,1649262051.426223,1649262052.544463,8408c88b-52c6-4f6a-9c59-41a578fc65e5
-0.1121670873816035,0.1289405595896275,-0.002598997363629,1.2989772171687566,-0.0183642844934722,-1.1145320028422148,-0.6716047797463236,-0.6972841932865183,-16.7466369189135,26.95959099556996,26.71598796143331,-5.260258750122336,0.2057115014415212,1.0266735222274976,7980.84423828125,11.622888888888887,7.09,178.87438072681937,-4.130490211357065,53.44166427388963,1553.0,1178.0,1350.0,1528.0,1471.0,994.0,160.0,293.7,1649262052.6548295,1649262053.7767725,8408c88b-52c6-4f6a-9c59-41a578fc65e5
-0.094298008252992,0.1378159293199068,0.0273274356790441,1.5173507758281872,0.0197274891629226,-1.330617859384356,-0.7149823455756877,-0.7361386065330622,-16.716411783093825,28.71810749649243,25.74753616816695,-6.2254213758736565,0.2224095122740715,0.9966806720686489,7980.84423828125,11.58,7.085555555555555,178.87324995105675,-4.207881614454533,53.54980400283376,1553.0,1088.0,1350.0,1528.0,1471.0,994.0,160.0,293.7,1649262054.8889334,1649262056.0291808,79940fc4-d608-40d9-88b4-a204c59573db
-0.1053166162959127,0.1295848456838109,0.0261309043611149,1.5074235096339663,0.0191489465633795,-1.3145106916624762,-0.7113796012309794,-0.7425683216366343,-16.777113513853298,28.725852712113657,25.60084726119804,-6.166895113064689,0.194414212791156,0.9926346057051308,7980.84423828125,11.58611111111111,7.068888888888889,178.84455708526343,-4.195954823503223,53.60914278906806,1553.0,1088.0,1350.0,1528.0,1471.0,994.0,160.0,293.7,1649262056.1373713,1649262057.2578504,79940fc4-d608-40d9-88b4-a204c59573db
-0.0969934910762008,0.1252720734212163,0.0282215470473251,1.5164566646414692,0.0236326520026369,-1.3161674288839584,-0.7089996864388263,-0.7372956923030006,-16.794862435781123,28.681531545539045,25.96470705932885,-6.191135250693339,0.174159046171934,0.9803656969285788,7980.84423828125,11.58688888888889,7.103333333333334,178.8918675289144,-4.206934969208317,53.66582273444045,1553.0,1088.0,1350.0,1528.0,1471.0,994.0,160.0,293.7,1649262057.3666153,1649262058.4863894,79940fc4-d608-40d9-88b4-a204c59573db
-0.0634380166317334,0.0971207152472032,-0.1206085510059278,-0.0356548206133343,-0.246375842082498,0.2040327613631679,-0.3885132705681319,-0.4117338729499754,-15.722485353232692,21.59830021033144,35.70772182570001,0.6738673571400433,0.1561752053040359,1.0950777803613585,7980.84423828125,11.667222222222222,7.117777777777778,178.96249472057195,-3.7815178699826735,53.73604352984241,1553.0,1435.0,1350.0,1528.0,1471.0,994.0,160.0,293.7,1649262060.420549,1649262061.5591166,08f981ad-da01-4ed6-98cb-42c94944cabb
-0.0592147563876939,0.107723115734999,-0.1159943697873472,-0.0472292136942054,-0.245711327152346,0.2036327375987519,-0.3822302154445417,-0.4041784281787497,-15.43292664769844,21.47230045399995,35.6544777963493,0.6986092022600286,0.1960785616294764,1.0802978365285985,7993.24951171875,11.667666666666667,7.093333333333334,178.95313736140903,-3.764523647849643,53.69059393328533,1553.0,1435.0,1350.0,1528.0,1471.0,994.0,160.0,293.7,1649262061.6682684,1649262062.7871175,08f981ad-da01-4ed6-98cb-42c94944cabb
-0.0336562185797348,0.1026431675885702,-0.111272976056193,-0.0375219355355645,-0.2394990731104207,0.2034936648527201,-0.3801506981376547,-0.4091698768296273,-15.65590270786321,21.670110696313028,36.22250241067152,0.677924153821958,0.17267694161497,1.062474424210552,7995.7333984375,11.670333333333332,7.1,178.97671517442393,-3.75476359211691,53.6903958577994,1553.0,1435.0,1350.0,1528.0,1471.0,994.0,160.0,293.7,1649262062.8952243,1649262064.0154324,08f981ad-da01-4ed6-98cb-42c94944cabb
