raw_voltage_G-,raw_voltage_G0,raw_voltage_G1,raw_voltage_G2,raw_voltage_G3,raw_voltage_G4,raw_voltage_G5,raw_voltage_G6,load_x,load_y,load_z,load_l,load_m,load_n,rpm,voltage,current,roll,pitch,yaw,aileron1_pwm,elevator_pwm,throttle_pwm,rudder_pwm,aileron2_pwm,pbaro,pdiff,Tt,sample_start_time,sample_end_time,uid
0.0100631969305308,0.0983303938145478,-0.0814517331003135,-0.3679881645704849,-0.1789230258047407,0.6032139995391641,-0.1476422740543196,-0.1704289658098399,-13.196110662176054,12.442789267789816,50.28500878424192,2.2653956771234225,0.0568774597504529,0.6301973426598088,-1.0,12.042666666666667,0.0377777777777777,177.44325877912564,-13.131070838156855,103.1854785504226,1525.0,1435.0,1000.0,1528.0,1475.0,1021.47,138.0,293.25,1637229964.7699945,1637229965.791587,f93a84dc-d95b-4839-9c82-6c56422f0587
0.0539798426924508,0.1829948466430033,-0.0566532909927327,-0.463132152868,-0.1889423338775185,0.6027012002712199,-0.1332050046793272,-0.1624345575380395,-12.745237789597962,12.8971128806944,49.69375904039239,2.483244148158931,0.3897637530657355,0.5981905146564123,-1.0,12.045333333333335,0.0333333333333333,177.6555015952144,-13.264370232954905,104.36258803961324,1525.0,1435.0,1000.0,1528.0,1475.0,1021.47,138.0,293.25,1637229965.9004796,1637229967.0206268,f93a84dc-d95b-4839-9c82-6c56422f0587
0.0587265222386858,0.1752897118534154,-0.065515512072937,-0.4581093550443315,-0.1969104432879357,0.5972050457298508,-0.1459066456033676,-0.1719016197793468,-12.936960738488173,13.152823585261492,48.41239351288833,2.460516445936173,0.3724025963710172,0.6362734211563931,-1.0,12.044888888888888,0.0388888888888888,177.8185427641621,-13.278533673700046,105.29495515482434,1525.0,1435.0,1000.0,1528.0,1475.0,1021.47,138.0,293.25,1637229967.1291883,1637229968.252866,f93a84dc-d95b-4839-9c82-6c56422f0587
0.18942456023055,0.3969767176571907,-0.035010536329946,-0.5505841467283082,-0.2172646278514097,0.4641534004242872,-0.1678649710269012,-0.186772796630059,-12.67664651164323,12.629131585063622,48.30931165611669,2.368294037476042,1.216245422005798,0.6799438052139019,-1.0,12.040666666666668,0.03,178.20484004978022,-13.4505270387836,107.13154521131658,1627.0,1435.0,1000.0,1528.0,1556.0,1021.47,138.0,293.25,1637229970.187142,1637229971.325631,65891b94-1d82-485f-b7a2-a3bf27ddeb60
0.2150261664484734,0.448977067801263,-0.0131448019931451,-0.5861267241609324,-0.2128132465164714,0.4395127465219093,-0.1544248106377233,-0.1740930692958291,-12.176969108631758,12.6198418270995,47.53072623115014,2.394253143311072,1.4204044055958935,0.6301750655535914,-1.0,12.03588888888889,0.03,178.3968290782502,-13.411427620879865,107.66824326245842,1627.0,1435.0,1000.0,1528.0,1556.0,1021.47,138.0,293.25,1637229971.4338667,1637229972.6664698,65891b94-1d82-485f-b7a2-a3bf27ddeb60
0.1940841293455482,0.4333629923619346,-0.0186782110240291,-0.5963580577361909,-0.2156484329869018,0.4596466853152357,-0.1533427825537156,-0.1770241331360519,-12.314380705137204,12.599061089652617,46.862958995737664,2.461987273658679,1.36964165418003,0.6370303529201721,-1.0,12.03711111111111,0.03,178.54302092942532,-13.517588587103198,108.09270612733874,1627.0,1435.0,1000.0,1528.0,1556.0,1021.47,138.0,293.25,1637229972.7751772,1637229973.987816,65891b94-1d82-485f-b7a2-a3bf27ddeb60
0.4123387766844211,0.7945549055824693,0.0713081790586641,-0.777084223070217,-0.2314679616768636,0.279810883146981,-0.1527401337167284,-0.1822562191715718,-11.418517617828542,13.526415756875345,48.28234210593595,2.476851645075434,2.7333819200322647,0.5794251688892892,-1.0,12.033,0.03,178.7964573753084,-13.497034366024646,108.90455227791529,1729.0,1435.0,1000.0,1528.0,1636.0,1021.47,138.0,293.25,1637229975.66867,1637229976.6499605,dcd06542-2370-453c-81e1-12768f8a2107
0.3972177772988584,0.7649429484721891,0.0661719696642301,-0.7937255505405639,-0.229180635294008,0.3169148577942123,-0.1423033569915603,-0.1710798268529554,-11.587835766246949,13.199920240971124,47.27973441468824,2.595102808869553,2.634121314016728,0.5633237594249062,-1.0,12.026666666666667,0.03,178.87287808520193,-13.507561679674144,109.14652311291158,1729.0,1435.0,1000.0,1528.0,1636.0,1021.47,138.0,293.25,1637229976.7584202,1637229977.8755076,dcd06542-2370-453c-81e1-12768f8a2107
0.3933690447104678,0.7605737466129456,0.0664732947546091,-0.7482392606220646,-0.2230171823536352,0.2838787600276082,-0.1530551549762904,-0.1796675694225145,-11.763650297425144,13.367327633785928,47.88750029835333,2.419393508934215,2.608013514578375,0.5703621397767987,-1.0,12.030444444444443,0.03,178.99355993873698,-13.71380739994419,109.37802630354992,1729.0,1435.0,1000.0,1528.0,1636.0,1021.47,138.0,293.25,1637229977.9843254,1637229979.1078222,dcd06542-2370-453c-81e1-12768f8a2107
0.53824629814317,1.0249189497706552,0.1281910831351932,-0.8738581543247185,-0.2413135947621471,0.1260478356160983,-0.1637888747771913,-0.1862599977482149,-10.909397172806866,14.284757583514835,46.00892949730896,2.357377237259091,3.6294667912058407,0.5548925752386481,-1.0,12.0224,0.03,179.260377484114,-13.697695761574783,109.67917495998908,1830.0,1435.0,1000.0,1528.0,1717.0,1021.47,138.0,293.25,1637229981.2467377,1637229982.3847706,2a618bb5-55db-476a-be9f-06d02cf5e63f
0.525527127135437,1.004632704065869,0.1118910811531739,-0.8476078525664855,-0.2473833657893394,0.1224785167443397,-0.1808591732224597,-0.2105533128272785,-11.313397956380292,14.214858158786162,45.98667468477919,2.288660337506584,3.552171205287962,0.6071732869097974,-1.0,12.012333333333334,0.03,179.343262588602,-13.614706288001704,109.66800957386188,1830.0,1435.0,1000.0,1528.0,1717.0,1021.47,138.0,293.25,1637229982.492961,1637229983.6129608,2a618bb5-55db-476a-be9f-06d02cf5e63f
0.5263626171800129,0.9903334977599428,0.105960471819214,-0.8699606403308163,-0.255341066275654,0.1525972498141254,-0.1780650742388789,-0.1913644322861416,-11.192513796775875,14.379109622488928,45.33616256891693,2.407514257626896,3.5058292951033745,0.6192912729872423,-1.0,12.01422222222222,0.03,179.39189657113215,-13.728784771565426,109.67493007331092,1830.0,1435.0,1000.0,1528.0,1717.0,1021.47,138.0,293.25,1637229983.7214148,1637229984.6681626,2a618bb5-55db-476a-be9f-06d02cf5e63f
0.5749169127705119,1.0947971443730016,0.09849584860825,-0.9188299938208948,-0.2962526909806083,0.1043716669961409,-0.2176755235110295,-0.2446166565849203,-11.050055706935495,15.189652808571472,46.44159239483599,2.4146316442556843,3.892383195657172,0.7551240224688344,-1.0,12.013,0.03,179.48537757575255,-13.812243327352505,109.56746994818918,1932.0,1435.0,1000.0,1528.0,1798.0,1021.47,138.0,293.25,1637229986.6686916,1637229987.60085,96f454c9-2aa1-4852-be98-7e9ceb6a20d7
0.5408809678357814,1.034888400457218,0.0889082558058909,-0.8632082406347452,-0.2883497782741138,0.1292172215705507,-0.2160319390768507,-0.2385353852650985,-10.99552841768317,15.289946609082554,48.87649869496975,2.345596922437054,3.638268208221925,0.7517587229855085,-1.0,11.978333333333332,0.1277777777777777,179.56579925867993,-13.679831572555344,109.28560246043104,1932.0,1435.0,1000.0,1528.0,1798.0,1021.47,138.0,293.25,1637229987.7092807,1637229988.845814,96f454c9-2aa1-4852-be98-7e9ceb6a20d7
0.5208976907441539,1.0103852586595354,0.0626108651780504,-0.8614139951671751,-0.3102779696994472,0.1410784419817749,-0.2414116638319345,-0.272804178601274,-11.327559158140636,15.59900835527952,47.18461005252965,2.368505830774689,3.561828944129957,0.8479128188232673,-1.0,11.983111111111112,0.1211111111111111,179.71961360096878,-13.79501199330516,108.90726613974547,1932.0,1435.0,1000.0,1528.0,1798.0,1021.47,138.0,293.25,1637229988.9537733,1637229990.1664486,96f454c9-2aa1-4852-be98-7e9ceb6a20d7
-0.1435398792275251,-0.1559128042117229,-0.1420014820870357,-0.2665985457879152,-0.1853395885027744,0.7358054409652675,-0.1561363320668909,-0.1802247453406808,-13.433269562406808,13.443992183349218,46.71833428512912,2.3375704040768617,-0.879703996602737,0.6980849321346586,-1.0,12.031,0.03,-179.9724262229076,-13.663603801997304,108.49804673927277,1423.0,1435.0,1000.0,1528.0,1394.0,1021.47,138.0,293.25,1637229992.4184425,1637229993.4438722,3cfa9b4a-95ad-42ca-8a6c-ba7c932ee693
-0.0978169283698203,-0.0831890034473654,-0.0964746669687269,-0.2889798260266533,-0.1633412709128167,0.6821061699986538,-0.1300723279333737,-0.1534249615098477,-12.767436197848134,13.697769076765413,46.55355928191929,2.27164580354635,-0.6045516603635206,0.5776872036724258,-1.0,12.029333333333334,0.03,179.91720034891856,-13.718076078447972,108.57435133595044,1423.0,1435.0,1000.0,1528.0,1394.0,1021.47,138.0,293.25,1637229993.552026,1637229994.5545204,3cfa9b4a-95ad-42ca-8a6c-ba7c932ee693
-0.1377150063479012,-0.149877551973055,-0.1387932016534279,-0.2721341516208843,-0.1868122449359558,0.7349507757444799,-0.1554526015187521,-0.1726773931608193,-13.321747333453828,13.689195587335664,46.724284156053606,2.3499791475673444,-0.857021093859184,0.6954114927822566,-1.0,12.030333333333331,0.03,179.8649463661283,-13.654515002078,108.59679685538292,1423.0,1435.0,1000.0,1528.0,1394.0,1021.47,138.0,293.25,1637229994.6615646,1637229995.621784,3cfa9b4a-95ad-42ca-8a6c-ba7c932ee693
-0.3173179990338134,-0.4552971576847769,-0.1993084362019074,-0.0851613132007007,-0.1720385854500519,0.8612023546919502,-0.1693540607250989,-0.1961171377178503,-14.36013712160503,15.087884775888396,46.30814832566679,2.2175881795003414,-2.0183256205219773,0.7403673260427991,-1.0,12.012777777777778,0.03,179.90031763911009,-13.631112022933118,108.64420519841198,1321.0,1435.0,1000.0,1528.0,1314.0,1021.47,138.0,293.25,1637229996.2204034,1637229997.4432125,c463f0b7-6b1a-44cc-b876-93c2aca16b83
-0.275940689582446,-0.3731177887674355,-0.1627112288306511,-0.1591912155166043,-0.1616702901903241,0.8367950892640671,-0.1407282515012968,-0.1582324536008756,-13.793583071041576,14.80722423176836,44.84670573166941,2.329749107786248,-1.6897302504123146,0.6433470262360529,-1.0,12.012333333333332,0.03,179.86015916243005,-13.652430561152546,108.46265725245324,1321.0,1435.0,1000.0,1528.0,1314.0,1021.47,138.0,293.25,1637229997.5512702,1637229998.5627058,c463f0b7-6b1a-44cc-b876-93c2aca16b83
-0.2951569640104888,-0.4192341115971072,-0.163998705192845,-0.1177591256465617,-0.1498638556057079,0.845985479390578,-0.1367014622626349,-0.1619579176647104,-13.908072025945732,14.961670329162166,45.16241898810629,2.2578929275010293,-1.8698625103666189,0.6183729515460082,-1.0,12.016333333333332,0.03,179.8730090249886,-13.624533507261276,108.34778030080278,1321.0,1435.0,1000.0,1528.0,1314.0,1021.47,138.0,293.25,1637229998.6706965,1637229999.904767,c463f0b7-6b1a-44cc-b876-93c2aca16b83
-0.4136141369508572,-0.6227705050560235,-0.1764247724968594,-0.0307503589571791,-0.1181891923800261,0.936664907038558,-0.1150466537796373,-0.1363606912657192,-14.687091326188362,15.98226164372227,41.12235070467632,2.2705019879754813,-2.603410083919828,0.5308103392329978,-1.0,11.984666666666666,0.11,179.909773656561,-13.693674753319408,108.10807481188118,1220.0,1435.0,1000.0,1528.0,1233.0,1021.47,138.0,293.25,1637230000.8154747,1637230001.8409283,2f62aa72-00ac-4f19-8f10-7f4ce309ceaa
-0.4387380138469708,-0.6662105267956132,-0.1852420689022877,0.0031814907868632,-0.1150882904559487,0.9548320240225128,-0.1184713409174087,-0.1366740682933877,-14.932458067668456,16.21621985730042,42.04683623656275,2.235919737620485,-2.7775263619985844,0.5395593332605298,-1.0,11.988111111111111,0.1,179.95507754241578,-13.531037609033907,107.69970235486558,1220.0,1435.0,1000.0,1528.0,1233.0,1021.47,138.0,293.25,1637230001.9486272,1637230003.1824112,2f62aa72-00ac-4f19-8f10-7f4ce309ceaa
-0.4569916962573183,-0.6876199004371505,-0.1937416075625004,0.0228042798006741,-0.1140079069837473,0.9657103760593484,-0.1213317326141893,-0.1472478129770436,-15.098415379883235,16.002847633618227,43.13894434330522,2.214353501876528,-2.869287680896929,0.552839561216997,-1.0,11.987333333333332,0.09,179.9369987905927,-13.680276957807472,107.47840422575716,1220.0,1435.0,1000.0,1528.0,1233.0,1021.47,138.0,293.25,1637230003.2909355,1637230004.4066803,2f62aa72-00ac-4f19-8f10-7f4ce309ceaa
-0.4251586949489257,-0.6761673808174615,-0.1282742434620526,0.0781997319511141,-0.0498028200016164,0.9178622745341442,-0.0701307063847005,-0.0923914488234467,-14.819216684932314,16.327949050673794,45.62599114256647,1.9878258262588115,-2.853017072556733,0.3086923876534199,-1.0,11.985,0.1166666666666666,179.84869810500277,-13.559295524586329,106.94123033810315,1118.0,1435.0,1000.0,1528.0,1152.0,1021.47,138.0,293.25,1637230006.3455136,1637230007.377002,20ce3d74-08b2-4175-8d67-4702d615e30b
-0.4035926369976243,-0.6347084303551365,-0.1179508719273516,0.0547901281628276,-0.0484545303545667,0.8931975123055812,-0.0680953965851016,-0.0985154537619189,-14.824479835918744,16.095492956573533,44.8809441716334,1.9840587843158453,-2.687347490008495,0.2937384094372503,-1.0,11.981888888888887,0.1255555555555555,179.87891030843147,-13.479214117888867,106.675549639768,1118.0,1435.0,1000.0,1528.0,1152.0,1021.47,138.0,293.25,1637230007.4972084,1637230008.5988705,20ce3d74-08b2-4175-8d67-4702d615e30b
-0.4031269540367053,-0.632352621212491,-0.1143212829451734,0.0492156279310503,-0.0478518807925215,0.8876230136723214,-0.0674790502671314,-0.0887224134714841,-14.835347614514871,16.289310749832538,43.70168116121814,1.985378967292068,-2.6670633517246363,0.2855782861928292,-1.0,11.986555555555556,0.1111111111111111,179.84436321160953,-13.541876075745597,106.51395191746496,1118.0,1435.0,1000.0,1528.0,1152.0,1021.47,138.0,293.25,1637230008.707724,1637230009.7357671,20ce3d74-08b2-4175-8d67-4702d615e30b
0.0490885280449204,0.1705956277130811,-0.0761922533958996,-0.4681812421256211,-0.2053913521022368,0.6106956073229058,-0.1507322171653086,-0.1810399643362202,-12.966585872578952,12.917121669744072,48.30126292657833,2.5114244944453343,0.3565507729246163,0.6685118680107326,-1.0,12.043222222222225,0.0355555555555555,179.47451757497225,-13.507662709555616,106.22835211078034,1525.0,1435.0,1000.0,1528.0,1475.0,1021.47,138.0,293.25,1637230011.762194,1637230013.0118463,36cc3033-6395-4050-b19f-6f64ba882fdf
0.0713492703820535,0.2126057095687174,-0.0667514896932005,-0.455492749551302,-0.2003159556226283,0.564556836165021,-0.1539930942287822,-0.1709812106672926,-12.791578586170742,12.567195706407071,49.28131727370733,2.377517090610396,0.5032196008382269,0.6602157498072101,-1.0,12.044888888888888,0.0311111111111111,179.3666370137616,-13.557735300679674,106.58323659749568,1525.0,1435.0,1000.0,1528.0,1475.0,1021.47,138.0,293.25,1637230013.1200762,1637230014.240694,36cc3033-6395-4050-b19f-6f64ba882fdf
0.0422643544773914,0.1680710777410753,-0.0758766849245859,-0.4487737644557725,-0.2021699215562399,0.5991379043648429,-0.1515605856237701,-0.176201243752849,-12.799814158810475,12.817783502913189,48.8451336156219,2.4412021111836446,0.3387103389783337,0.6656626038877398,-1.0,12.043666666666669,0.0333333333333333,179.2803398503282,-13.532487316685245,106.89793604568416,1525.0,1435.0,1000.0,1528.0,1475.0,1021.47,138.0,293.25,1637230014.3488455,1637230015.364896,36cc3033-6395-4050-b19f-6f64ba882fdf
0.0828280823045537,0.1999303672834493,-0.0809389334697977,-0.8626685743033918,-0.2576837239987453,0.9630937845064992,-0.0603612231614419,-0.0938641024317012,-12.91967470212134,12.256035881439557,51.17884337165281,4.189040569311053,0.4889956414627176,0.621990482777884,-1.0,12.039333333333332,0.03,179.1098583286447,-13.321162971312342,107.5358984814606,1525.0,1535.0,1000.0,1528.0,1475.0,1021.47,138.0,293.25,1637230017.406354,1637230018.541794,7c52b1a7-e146-4880-9cca-a69ac3246dbe
0.0672337285431445,0.1674530889533937,-0.0986239318033308,-0.8568568556801418,-0.2631930288597621,0.9904167750579737,-0.0670144657734014,-0.088696665105873,-13.313265360702973,11.94707727745956,51.21214064770135,4.234207629474187,0.3678348054291683,0.6590934759240263,-1.0,12.041888888888888,0.03,179.09581545971116,-13.303805183901618,107.6841272468282,1525.0,1535.0,1000.0,1528.0,1475.0,1021.47,138.0,293.25,1637230018.6503923,1637230019.7547324,7c52b1a7-e146-4880-9cca-a69ac3246dbe
-0.0155964840220806,0.0151522901556777,-0.1203614673139296,-0.6844680535528115,-0.2231541489399496,0.9953738328072848,-0.0636029248845238,-0.0940092856457721,-13.620494675085146,10.889140011141995,53.21198076989735,3.848548454575726,-0.2415565642657676,0.6154554715633993,-1.0,12.040555555555557,0.03,179.09166118687597,-13.455823755621203,107.79381704925898,1525.0,1535.0,1000.0,1528.0,1475.0,1021.47,138.0,293.25,1637230019.8626149,1637230020.90821,7c52b1a7-e146-4880-9cca-a69ac3246dbe
0.0620082174869559,0.1365311911587633,-0.1367425527271114,-1.2083891329609886,-0.3400542928256684,1.3648658894669037,-0.0086660264418121,-0.0343196809244674,-13.323022299075951,12.301275959682927,54.19055995277063,5.869535317356345,0.2664009275861153,0.7298902114059583,-1.0,12.032,0.03,179.15145721632973,-13.34408347348335,107.97372726763676,1525.0,1636.0,1000.0,1528.0,1475.0,1021.47,138.0,293.25,1637230021.7052546,1637230022.842704,6d47411c-5e18-42e4-b96d-ef079ad65508
0.0744392140025333,0.157801945864708,-0.1261310055035957,-1.2194455512616178,-0.3346693524535212,1.3557138505096409,-0.0026515943120685,-0.0277393065607439,-13.36750658530355,12.28162534631987,54.46930756959208,5.874330194309199,0.3460571699830624,0.702374675945191,-1.0,12.035,0.03,179.11105588847917,-13.127353033382384,108.03811470203256,1525.0,1636.0,1000.0,1528.0,1475.0,1021.47,138.0,293.25,1637230022.9514878,1637230023.9598942,6d47411c-5e18-42e4-b96d-ef079ad65508
0.0733489682355443,0.1582539331842584,-0.1250045998943321,-1.225496141016237,-0.3345482737841152,1.3570040614033747,0.0005106679193694,-0.0221571369376519,-13.224622313002332,12.207941045572657,53.94058211831355,5.890433386298848,0.3522422933953565,0.6955580415146786,-1.0,12.035,0.03,179.09511422695635,-13.258609537572427,108.0574244057261,1525.0,1636.0,1000.0,1528.0,1475.0,1021.47,138.0,293.25,1637230024.068629,1637230025.300537,6d47411c-5e18-42e4-b96d-ef079ad65508
0.0932911573157326,0.1688550689513977,-0.1319076671027428,-1.54022969802303,-0.3846639930707941,1.6492064777104205,0.0606385601282737,0.0373407148753281,-13.633144226922028,12.812386978662246,55.95458651750536,7.260791648574634,0.4153674162282188,0.6884477324177167,-1.0,12.020333333333332,0.03,179.1655699049748,-13.088628327245614,108.04074963723237,1525.0,1737.0,1000.0,1528.0,1475.0,1021.47,138.0,293.25,1637230027.234845,1637230028.3716784,b74ffc60-fac5-44de-87ba-9c3e652f98b6
0.0933596400312007,0.1642119360549701,-0.1388518255210779,-1.533573147523424,-0.3911835588830909,1.6499460883138326,0.053749190369639,0.0238359075312277,-13.516481753382726,12.909758307368142,56.22913930899199,7.247840309086464,0.3934356469887186,0.7165276637303643,-1.0,12.019222222222222,0.03,179.17419112152714,-13.16218955947039,107.97278546044122,1525.0,1737.0,1000.0,1528.0,1475.0,1021.47,138.0,293.25,1637230028.4800005,1637230029.4888382,b74ffc60-fac5-44de-87ba-9c3e652f98b6
0.0933733365400973,0.1670197302135204,-0.1198136060917625,-1.53568242952149,-0.3782403070117177,1.649288654410903,0.0731572141259684,0.0426960688523389,-13.02788942760713,13.161282359775214,56.39294976276244,7.254008407557431,0.4005274829550675,0.6461051509426631,-1.0,12.02211111111111,0.03,179.21893796750965,-13.069366055421314,107.86954715113647,1525.0,1737.0,1000.0,1528.0,1475.0,1021.47,138.0,293.25,1637230029.5971096,1637230030.8302405,b74ffc60-fac5-44de-87ba-9c3e652f98b6
0.1057725567050922,0.1620358258824341,-0.1429481901442445,-1.7575565753913645,-0.4313122901687271,1.887289427255423,0.1008417946593285,0.0783575247482303,-13.469575248375666,13.971514866289995,60.4956991562034,8.293972486060477,0.3744629789091309,0.7131058355493387,-1.0,12.009444444444446,0.03,179.24585953757818,-12.998333795600477,107.67866764895166,1525.0,1837.0,1000.0,1528.0,1475.0,1021.47,138.0,293.25,1637230031.7405615,1637230032.8844178,249d11a9-3764-4a66-880a-51e4d3411095
0.0266437033498374,0.0235537594210638,-0.1474844918381039,-1.666370214011363,-0.3764953654061518,1.955163014532923,0.1461784978516964,0.1287301789807193,-13.958276089979671,11.844444321754782,62.975834903236006,8.226622272065141,-0.1750020867418882,0.568149303540528,-1.0,12.014,0.03,179.34433872285123,-13.15325140316778,107.4869154003729,1525.0,1837.0,1000.0,1528.0,1475.0,1021.47,138.0,293.25,1637230032.992469,1637230034.2201278,249d11a9-3764-4a66-880a-51e4d3411095
0.0427771536946906,0.0532698129242703,-0.1373862911812272,-1.6722476938848987,-0.3745099097843268,1.9390295661389985,0.1485847103805401,0.120998746503346,-13.800348421983424,11.931932643626348,64.09766555873553,8.20496753064486,-0.0732440495096029,0.5534550384525092,-1.0,12.012444444444444,0.03,179.38154048653055,-13.032247866695572,107.34170102515898,1525.0,1837.0,1000.0,1528.0,1475.0,1021.47,138.0,293.25,1637230034.3281307,1637230035.4281914,249d11a9-3764-4a66-880a-51e4d3411095
-0.038360164932552,0.0366832805618205,-0.0407981559031942,0.1268888089527977,-0.0671366393583619,0.204918100511323,-0.2079098765898325,-0.226071514196283,-13.591752378608431,12.647069912449377,49.78347213087046,0.2571497779452978,-0.225440597849737,0.5041450919074122,-1.0,12.045,0.03,179.4070656623688,-13.629945388677388,106.9633586331942,1525.0,1334.0,1000.0,1528.0,1475.0,1021.47,138.0,293.25,1637230037.2736216,1637230038.3063233,0b8587cb-edfb-4013-aafd-bffaf5fd71a3
-0.0018363735258251,0.1210250434502278,-0.0702753408830579,-0.0153400896653985,-0.1433820962906368,0.2404151983141892,-0.2447059596190031,-0.2616283331166915,-12.884320814617482,13.796056673369453,47.68768257041816,0.6639210724644063,0.1201224070390809,0.7065901082326657,-1.0,12.044444444444444,0.0355555555555555,179.33131734665358,-13.511436768527002,107.21301874337613,1525.0,1334.0,1000.0,1528.0,1475.0,1021.47,138.0,293.25,1637230038.4137735,1637230039.4330776,0b8587cb-edfb-4013-aafd-bffaf5fd71a3
0.0138922068393218,0.1416263110217486,-0.0501666015334973,-0.0478244922465919,-0.1328253370414113,0.2416248795083155,-0.2258797658837509,-0.2549575627254971,-12.826923847358346,13.877629926756253,46.62609077047387,0.7413179493471441,0.2116680011421971,0.6387138142268677,-1.0,12.044,0.0333333333333333,179.20969292701307,-13.535313022863123,107.3731851615931,1525.0,1334.0,1000.0,1528.0,1475.0,1021.47,138.0,293.25,1637230039.540635,1637230040.55524,0b8587cb-edfb-4013-aafd-bffaf5fd71a3
0.0475994381567761,0.2662649892905102,-0.0724782954199043,0.1971110648921699,-0.1697238684267221,-0.1441523937856692,-0.3784183590541963,-0.4021408023165171,-12.27607126133673,15.871774785062554,40.51250330506903,-0.6666785031522312,0.6978871639037765,0.944739722573965,-1.0,12.044,0.03,179.09385443650945,-13.675726913455382,107.75685586002042,1525.0,1234.0,1000.0,1528.0,1475.0,1021.47,138.0,293.25,1637230042.2080688,1637230043.2106082,ef5a2f01-2cbf-47b9-9527-61166cbb790c
0.0476816173086976,0.2316400907581781,0.0026062417720209,0.210807624712891,-0.0831890040242143,-0.1232651413915874,-0.2866103129685005,-0.3138938603950201,-12.32950956132269,15.327101504328995,41.10087726083342,-0.6504432469760691,0.5662506045747487,0.5907590232048406,-1.0,12.036555555555555,0.03,179.10184424001852,-13.688567099912577,107.9252071215928,1525.0,1234.0,1000.0,1528.0,1475.0,1021.47,138.0,293.25,1637230043.331416,1637230044.439482,ef5a2f01-2cbf-47b9-9527-61166cbb790c
0.0308211537203186,0.1989190140274348,-0.0125558485246513,0.2450490197753726,-0.0873527576553419,-0.1201012338880328,-0.3017450106232953,-0.3224131201709587,-12.693044088752307,15.520765821738207,41.358105676335605,-0.7201868594730113,0.4386461117584231,0.6350164531336183,-1.0,12.04022222222222,0.03,179.09989080591595,-13.66889795751397,107.99231904255754,1525.0,1234.0,1000.0,1528.0,1475.0,1021.47,138.0,293.25,1637230044.5473242,1637230045.7808647,ef5a2f01-2cbf-47b9-9527-61166cbb790c
-0.013472969547339,0.1513327880553067,0.0022923161879104,0.5481867099730802,-0.0400464873347471,-0.3622290404874417,-0.3650428455217028,-0.3937990485131811,-13.305554190035195,17.331850118378643,39.787495502884354,-1.935898180505496,0.2420735777059533,0.6339796982000527,-1.0,12.042555555555555,0.03,179.11546515504335,-13.770629071741862,108.24692496860848,1525.0,1133.0,1000.0,1528.0,1475.0,1021.47,138.0,293.25,1637230046.7832658,1637230047.9209385,bb785f3d-4cf3-4a6f-8476-cda5b8651e54
0.0192886512472965,0.2003845457493392,0.0153166487117035,0.5150355634806586,-0.0435374650552634,-0.3822944890757755,-0.3604621666866721,-0.3777746194362825,-12.876434453463348,17.391110758415707,39.49276151798522,-1.904996661862581,0.4305308020968116,0.6199636976856008,-1.0,12.035666666666666,0.03,179.09699935916728,-13.723453714054491,108.33046349452708,1525.0,1133.0,1000.0,1528.0,1475.0,1021.47,138.0,293.25,1637230048.029197,1637230049.0577774,bb785f3d-4cf3-4a6f-8476-cda5b8651e54
0.0303143809096149,0.1989327099532464,0.0202748004592228,0.5419356022923361,-0.032867848511116,-0.3984290395098678,-0.3599690965068192,-0.3799249827117732,-13.09446047149916,17.276127250693985,40.54112837856355,-2.002391037735141,0.4143374204680843,0.5994043000729279,-1.0,12.035333333333334,0.03,179.09451468812918,-13.734747621574584,108.40916700542324,1525.0,1133.0,1000.0,1528.0,1475.0,1021.47,138.0,293.25,1637230049.1654904,1637230050.2867029,bb785f3d-4cf3-4a6f-8476-cda5b8651e54
0.0105759964625736,0.1961172462920792,0.018688741151945,0.6396490340709272,-0.0312237109456404,-0.4925063407699548,-0.3954031915907308,-0.4205698001571508,-13.089101128750032,18.295535152601687,39.41213679661535,-2.4277113242874537,0.4016321376289331,0.6482866100646195,-1.0,12.025,0.03,179.09844735927132,-13.828126078493725,108.51574375941227,1525.0,1033.0,1000.0,1528.0,1475.0,1021.47,138.0,293.25,1637230051.1873147,1637230052.1339664,71f3dae9-d4d2-4292-b141-399b5b95fffe
-0.0135830902160022,0.1630340310389752,0.0111665902242674,0.6546719660864855,-0.0341005373017327,-0.471390642456036,-0.3985523042778669,-0.4277533723304506,-13.139734758364582,18.73964048325574,39.72596482959668,-2.4115555714291848,0.2728079114441651,0.6632957351653156,-1.0,12.025666666666666,0.03,179.15978245801804,-13.7842737027013,108.49083178277952,1525.0,1033.0,1000.0,1528.0,1475.0,1021.47,138.0,293.25,1637230052.2419198,1637230053.3582866,71f3dae9-d4d2-4292-b141-399b5b95fffe
0.016348274138058,0.2004694644105298,0.040712807812207,0.6101433620767188,-0.0135387136385148,-0.4769382785668782,-0.3678566673575437,-0.406619029990187,-13.09565127077514,18.213884248645098,38.5614302870833,-2.325753769684737,0.4305693557263686,0.5540543903189833,-1.0,12.031555555555556,0.03,179.1844910467955,-13.84319044016314,108.45561077395952,1525.0,1033.0,1000.0,1528.0,1475.0,1021.47,138.0,293.25,1637230053.466493,1637230054.4754555,71f3dae9-d4d2-4292-b141-399b5b95fffe
0.0549407935212239,0.1833049378864039,-0.0581106051310738,-0.4430524411457788,-0.1857625399023086,0.5651101773076713,-0.1415500460520471,-0.1753120638136751,-12.808121552121907,12.6531928238982,46.98878371463499,2.3513248074014963,0.4127772226728773,0.6041821465587883,-1.0,12.04377777777778,0.0377777777777777,179.24431895046538,-13.533469820424603,108.40447618328324,1525.0,1435.0,1000.0,1528.0,1475.0,1021.47,138.0,293.25,1637230056.3168185,1637230057.3419158,3f87e8d4-0abb-4520-a5f8-89fd0522c07a
0.0455175611379599,0.1662116331578428,-0.074971068562684,-0.4433537649756342,-0.1993084368160554,0.5837101016706121,-0.1532606026981552,-0.171463329904282,-12.867611229257042,12.727906263585544,47.10188820991427,2.3934448635095262,0.347055051349234,0.6603044768207328,-1.0,12.043,0.03,179.2102438956061,-13.498668204192358,108.44724834568568,1525.0,1435.0,1000.0,1528.0,1475.0,1021.47,138.0,293.25,1637230057.450887,1637230058.6828537,3f87e8d4-0abb-4520-a5f8-89fd0522c07a
0.074088582356433,0.2136428136245863,-0.0590145775065799,-0.4450932255378677,-0.1929669299008537,0.5428669679072679,-0.1488092205562485,-0.1672447893604463,-12.472037877679872,12.500305927652056,47.75350344264516,2.3051774147231363,0.5175976570306946,0.6305918588680884,-1.0,12.04188888888889,0.03,179.238759176481,-13.409668183122411,108.48457988295924,1525.0,1435.0,1000.0,1528.0,1475.0,1021.47,138.0,293.25,1637230058.7908618,1637230059.9116094,3f87e8d4-0abb-4520-a5f8-89fd0522c07a
0.0947514212013641,0.1860589995760334,0.0467081072294955,-0.4710597960151541,-0.0925416472415069,0.5856908351603773,-0.024168424198246,-0.0541322801742811,-11.977708374060718,12.715493269688617,47.48181895426452,2.466878895088388,0.422953718101362,0.1685442710205276,-1.0,12.044,0.03,179.25872609615465,-13.380739011756564,108.51238027070102,1525.0,1435.0,1000.0,1439.0,1475.0,1021.47,138.0,293.25,1637230061.7338772,1637230062.7798698,a801adbc-27d4-4d26-9073-30017fdc2e06
0.0816216894449015,0.1772236655594966,0.0391623572351834,-0.4467368108487703,-0.0963513976820076,0.57361573959524,-0.0350866884701472,-0.0595076529589836,-11.943875247670505,12.821472436104235,47.64592648947894,2.3852478588404904,0.3846506571477395,0.1989200722268092,-1.0,12.04388888888889,0.03,179.26143388670562,-13.475718009671205,108.49683324233028,1525.0,1435.0,1000.0,1439.0,1475.0,1021.47,138.0,293.25,1637230062.887498,1637230064.0080366,a801adbc-27d4-4d26-9073-30017fdc2e06
0.0948936545550881,0.19444023926614,0.0531602397158979,-0.4563791950001545,-0.0864624822153751,0.5653293215523333,-0.0198972051106035,-0.0398120009381424,-11.573105420912674,12.524823735674216,47.71773001939843,2.387306590328825,0.448032209589335,0.1472247421713806,-1.0,12.043555555555557,0.0377777777777777,179.21814870120554,-13.492604703756676,108.57817624188566,1525.0,1435.0,1000.0,1439.0,1475.0,1021.47,138.0,293.25,1637230064.1154869,1637230065.4489658,a801adbc-27d4-4d26-9073-30017fdc2e06
0.1343972682858795,0.2043877757077898,0.1882017305456571,-0.4967533704426967,0.0316665041522428,0.5877511339591519,0.1253904092640943,0.09580584430187,-10.869040611585874,12.843278152146617,48.07707782256892,2.538012572570354,0.490710667515547,-0.4028880840533193,-1.0,12.04,0.03,179.25054201170917,-13.438845423164372,108.49586790892756,1525.0,1435.0,1000.0,1351.0,1475.0,1021.47,138.0,293.25,1637230067.219777,1637230068.1577036,0b98cdd9-c1a9-45c5-b115-7bcf5fa249c1
0.1564213337752575,0.2345640322189199,0.218470028108713,-0.4693646350455283,0.0607908660879957,0.5376940516670523,0.1454816175008947,0.1154236993464389,-10.538724742005524,12.42974950418184,48.9462119005763,2.362815993515038,0.5923886644484248,-0.5069031071494419,-1.0,12.041666666666666,0.03,179.27726626520172,-13.415235451342143,108.47625615909072,1525.0,1435.0,1000.0,1351.0,1475.0,1021.47,138.0,293.25,1637230068.265653,1637230069.3352215,0b98cdd9-c1a9-45c5-b115-7bcf5fa249c1
0.1242727721671627,0.1987864310029463,0.1934217629523452,-0.4680103126337699,0.0409626326208128,0.567147128780983,0.1266789824030473,0.1009601335837619,-10.767171890575607,12.823544143146362,48.15515328662818,2.427068152949023,0.4650809385624423,-0.4247361639208751,-1.0,12.042666666666666,0.03,179.26510397501963,-13.446422664274854,108.46307617072232,1525.0,1435.0,1000.0,1351.0,1475.0,1021.47,138.0,293.25,1637230069.44703,1637230070.5617073,0b98cdd9-c1a9-45c5-b115-7bcf5fa249c1
0.1695437322016809,0.2079247747735068,0.3460781172999506,-0.4513509072933269,0.1828107643769017,0.5357085994110284,0.2787830937618117,0.2526171904751692,-9.77451460571022,13.028888653716574,48.305093275214446,2.328328143382706,0.4986305371768706,-1.0405165067242177,-1.0,12.042,0.03,179.2635193711322,-13.435737687092011,108.44323447118344,1525.0,1435.0,1000.0,1262.0,1475.0,1021.47,138.0,293.25,1637230071.2079334,1637230072.198147,0a34402a-63cb-4206-a040-8041150aec3e
0.173525595560589,0.2172997947375823,0.3408153523011668,-0.4632137750183961,0.1757170431851906,0.5365939447924309,0.2732776261156731,0.2476239739484257,-9.83507848821357,12.92215108814011,48.14413839231967,2.356051585602164,0.5367728888368283,-1.0150374568741982,-1.0,12.0382,0.03,179.2609320954746,-13.414624547839129,108.41554420126928,1525.0,1435.0,1000.0,1262.0,1475.0,1021.47,138.0,293.25,1637230072.310119,1637230073.3233783,0a34402a-63cb-4206-a040-8041150aec3e
0.1786031836089045,0.2265433277420981,0.3490760206869076,-0.4855769703826299,0.1763284586324952,0.5414414302467092,0.2812156035949466,0.2480677426222359,-9.672118440374344,13.145430013563224,47.25267612230754,2.419221817197838,0.5814702310756893,-1.0387450347017675,-1.0,12.038888888888888,0.03,179.25775469147274,-13.404380857794918,108.38919705010991,1525.0,1435.0,1000.0,1262.0,1475.0,1021.47,138.0,293.25,1637230073.441182,1637230074.4530303,0a34402a-63cb-4206-a040-8041150aec3e
0.2113554888483658,0.2439395996260654,0.471795531397275,-0.4427100229833032,0.2953427797122801,0.4857523237405114,0.3942730150510677,0.3630311685291246,-9.152784709184408,13.11643196321203,48.27537033675974,2.2037264517679422,0.6364784300434981,-1.524798392593407,-1.0,12.032333333333334,0.03,179.25870332885745,-13.467488770086202,108.32287135980964,1525.0,1435.0,1000.0,1173.0,1475.0,1021.47,138.0,293.25,1637230076.2979813,1637230077.2452495,262785d0-f292-4a6d-a32c-1b3ec6333707
0.2287775105043243,0.2650186022685101,0.4650157347589037,-0.4435181211425827,0.2825091033189936,0.4694123304174097,0.3806038499517829,0.3674277630936157,-8.922203853886927,13.225032899793767,48.70129433328817,2.169397479880316,0.7098020906596085,-1.4753539905526278,-1.0,12.033333333333337,0.03,179.28324040399573,-13.390417105219257,108.2017872840235,1525.0,1435.0,1000.0,1173.0,1475.0,1021.47,138.0,293.25,1637230077.353421,1637230078.3445911,262785d0-f292-4a6d-a32c-1b3ec6333707
0.2414605233079016,0.2971370303637708,0.4354585646695787,-0.5143430468531435,0.2334069451080601,0.4900941308117807,0.3492113419040432,0.3325974180956205,-8.72488372478493,13.710517240997737,46.60353504735633,2.377147442625312,0.8543160589268378,-1.3232437890572912,-1.0,12.035333333333332,0.03,179.25979464130484,-13.525667941981418,108.19429456650398,1525.0,1435.0,1000.0,1173.0,1475.0,1021.47,138.0,293.25,1637230078.453036,1637230079.5726736,262785d0-f292-4a6d-a32c-1b3ec6333707
0.0065508512989146,0.1602125401934425,-0.2332759059238373,-0.4174261700984334,-0.3421361688893614,0.5778616722419271,-0.3238238679954244,-0.3472449856902206,-14.03897776251334,12.64402214703791,47.56972250397606,2.3128626973947988,0.315469699081997,1.3128502241961977,-1.0,12.042222222222222,0.03,179.26398685963537,-13.455224975703969,108.242147630739,1525.0,1435.0,1000.0,1617.0,1475.0,1021.47,138.0,293.25,1637230081.7103035,1637230082.8498964,2b43139e-aa3c-4a5a-832d-569bec9182ce
0.0284845205714361,0.2004826124407862,-0.2120971884151788,-0.4475377846788986,-0.3377329977779001,0.5650038917338729,-0.3067546646354891,-0.3330915069259025,-13.290472642428394,12.751499283117004,47.55132927343249,2.3540348569846965,0.4664240622735769,1.2587431705480356,-1.0,12.044,0.0377777777777777,179.30002900897566,-13.419054570589305,108.18364706049786,1525.0,1435.0,1000.0,1617.0,1475.0,1021.47,138.0,293.25,1637230082.9585657,1637230084.0795124,2b43139e-aa3c-4a5a-832d-569bec9182ce
0.0414359865938275,0.1932113838628308,-0.2067456684941769,-0.4267759896112079,-0.3278320279696493,0.5572724592433764,-0.3052557132104642,-0.3282396372554211,-13.58917572667806,12.847760588897328,48.18368413376843,2.29068281214349,0.4334468050616625,1.2357744986170818,-1.0,12.042111111111112,0.03,179.27903604310666,-13.515217183368868,108.2483312286676,1525.0,1435.0,1000.0,1617.0,1475.0,1021.47,138.0,293.25,1637230084.1881132,1637230085.194705,2b43139e-aa3c-4a5a-832d-569bec9182ce
-0.0447931649062758,0.1348443233995262,-0.3836088086242589,-0.4033318690698532,-0.4810538184379548,0.6004264761983182,-0.483617813926349,-0.5102307814768765,-15.277967657529167,13.279465679830476,47.89371022640378,2.3279303614088827,0.2149663954174649,1.9308776368529337,-1.0,12.035222222222224,0.03,179.21612392957158,-13.411490610402208,108.3324829537917,1525.0,1435.0,1000.0,1706.0,1475.0,1021.47,138.0,293.25,1637230087.2414324,1637230088.3858595,743bd443-eed1-40d9-9fa7-8adf6be41f7e
-0.0126577503098935,0.1911338902795402,-0.3643065183028116,-0.4048176668379245,-0.4745452113472339,0.5449652801755452,-0.4769645719741557,-0.5049055575687542,-14.456819398470492,12.952566785001148,47.7551006187729,2.205838567256103,0.4229041547237906,1.893539666595128,-1.0,12.041333333333334,0.03,179.23623959558714,-13.440202164352002,108.28739763399034,1525.0,1435.0,1000.0,1706.0,1475.0,1021.47,138.0,293.25,1637230088.499855,1637230089.608142,743bd443-eed1-40d9-9fa7-8adf6be41f7e
-0.0287451805489398,0.1594729267818549,-0.365379232877367,-0.3989905990445501,-0.4674870993578772,0.5684795304624504,-0.4705277348987199,-0.505385484371384,-14.80509592427552,12.999310931573811,47.4726941502777,2.2455699178367468,0.3083396205394801,1.871782866661709,-1.0,12.041,0.03,179.25287186512605,-13.452507698779163,108.26709299940772,1525.0,1435.0,1000.0,1706.0,1475.0,1021.47,138.0,293.25,1637230089.7160466,1637230090.837775,743bd443-eed1-40d9-9fa7-8adf6be41f7e
-0.0843838911099469,0.136527356534085,-0.5347531083761037,-0.3334991290559553,-0.618904790039432,0.541967377451354,-0.6607834053764121,-0.6877776855622295,-15.843981770248217,13.489924146928956,47.69573375939728,2.032592110459524,0.2088634837221838,2.5769625301779087,-1.0,12.039,0.03,179.2325163835796,-13.439139595617371,108.2713178508643,1525.0,1435.0,1000.0,1795.0,1475.0,1021.47,138.0,293.25,1637230091.747532,1637230092.7731707,2196806e-a0fa-4ca8-a439-9fdd96bcb3a9
-0.0623072291788411,0.1676634683525592,-0.5071145454449761,-0.3604408071906292,-0.6058612830494627,0.5344463245330269,-0.6375759525579481,-0.6631370223312445,-15.3906096227222,13.744582628855612,47.627028554291975,2.0797467671894334,0.3281164631197526,2.492126810983886,-1.0,12.040666666666668,0.03,179.226053506805,-13.484436366691774,108.21926118465012,1525.0,1435.0,1000.0,1795.0,1475.0,1021.47,138.0,293.25,1637230092.881194,1637230093.9087553,2196806e-a0fa-4ca8-a439-9fdd96bcb3a9
-0.0641918756242397,0.1706493179512889,-0.514616969774112,-0.3409171838221186,-0.6099450463882957,0.5126386645820445,-0.651993495952178,-0.6804001676169377,-15.586341287255214,13.69981704594756,47.41584855320757,1.9858990157194665,0.3396920893115382,2.528559299349677,-1.0,12.037666666666668,0.03,179.2306024127922,-13.548985448897932,108.18604142125687,1525.0,1435.0,1000.0,1795.0,1475.0,1021.47,138.0,293.25,1637230094.0169227,1637230095.137869,2196806e-a0fa-4ca8-a439-9fdd96bcb3a9
-0.13946378320272002,0.10472066030691421,-0.6496990483993612,-0.24584990225643558,-0.7166653839851765,0.49431650613124,-0.8018821209073337,-0.8316639307975765,-16.806923552254023,14.338874859389858,46.9746928527579,1.727103656658214,0.08471100926175072,3.0625755739958738,-1.0,12.027111111111111,0.030000000000000002,179.2365553021088,-13.49990570166073,108.13532498993982,1525.0,1435.0,1000.0,1883.0,1475.0,1021.4699999999999,138.0,293.25,1637230095.7068431,1637230096.7766273,1df6275b-ab30-4905-a880-5041f766ed25
-0.14361822348828995,0.09618113055861617,-0.6466381410293073,-0.27920047353497873,-0.7153948913310382,0.5293073764461428,-0.790999928495185,-0.8172562406416812,-17.13035581223912,14.440568084342132,46.44820547172066,1.8815433489126432,0.06393993813139455,3.0388426504196704,-1.0,12.024444444444445,0.030000000000000002,179.26048676714072,-13.498247009193541,108.03322200985713,1525.0,1435.0,1000.0,1883.0,1475.0,1021.4699999999999,138.0,293.25,1637230096.8854063,1637230098.005717,1df6275b-ab30-4905-a880-5041f766ed25
-0.10321337322119702,0.13699687458029985,-0.6204229298340452,-0.29615682986416475,-0.7015202832686956,0.5019005627142606,-0.7717014767220304,-0.7974784050123747,-16.60686330103562,14.333919000942231,46.19154111618792,1.8590269164410884,0.21934123868016675,2.961571724305703,-1.0,12.027222222222223,0.030000000000000002,179.24202704254387,-13.466691250636865,107.94756991984534,1525.0,1435.0,1000.0,1883.0,1475.0,1021.4699999999999,138.0,293.25,1637230098.1133537,1637230099.2292194,1df6275b-ab30-4905-a880-5041f766ed25
