raw_voltage_G-,raw_voltage_G0,raw_voltage_G1,raw_voltage_G2,raw_voltage_G3,raw_voltage_G4,raw_voltage_G5,raw_voltage_G6,load_x,load_y,load_z,load_l,load_m,load_n,rpm,voltage,current,roll,pitch,yaw,aileron1_pwm,elevator_pwm,throttle_pwm,rudder_pwm,aileron2_pwm,pbaro,pdiff,Tt,sample_start_time,sample_end_time,uid
-0.0750614646316528,0.0392533033242063,0.0101289408576354,0.3109185073518818,-0.0709590712237138,-0.4842489490574969,-0.3833852780626195,-0.4121283341490344,-14.09110214736499,20.46170679563717,-24.26496514855572,-1.664341621154773,0.4247252990186366,0.5837010175008162,-1.0,12.052,0.04,177.34468700684386,12.509662219607604,59.01921382559496,1525.0,1435.0,1000.0,1528.0,1475.0,1021.47,138.0,293.25,1637229799.1770422,1637229800.2244613,50211474-27f0-4813-8b70-5012969a8d71
-0.0894209373426079,0.0259588756290084,0.0010859248916069,0.3131620035009588,-0.0757517712057053,-0.4724178588638137,-0.3895536613271891,-0.4071537428497055,-14.333796689784071,20.46965431758385,-24.19858335117288,-1.643325540776721,0.3751431377290224,0.6096696235725821,-1.0,12.049,0.04,177.5740310987945,12.593900365597449,57.3869090353535,1525.0,1435.0,1000.0,1528.0,1475.0,1021.47,138.0,293.25,1637229800.3602974,1637229801.3439128,50211474-27f0-4813-8b70-5012969a8d71
-0.0926412724118444,0.0287211975925174,-0.0022439824929645,0.3164146620024211,-0.0782565979563834,-0.4790157667023302,-0.3941803597265586,-0.4188078731448683,-14.345838726608896,20.378024494924773,-24.355348088739724,-1.666293404512213,0.3863650328251308,0.6243785944754714,-1.0,12.049666666666669,0.04,177.82028066785088,12.673239178950148,56.0161743079317,1525.0,1435.0,1000.0,1528.0,1475.0,1021.47,138.0,293.25,1637229801.456622,1637229802.5674334,50211474-27f0-4813-8b70-5012969a8d71
0.1085206346822166,0.3876279957557802,-0.0012578302574278,0.1400380589395947,-0.1612906200293925,-0.6521447021879118,-0.4753735768982988,-0.4937686078226692,-14.452065569715437,19.836339840118605,-22.36634303410636,-1.6607530373066544,1.7373761504792191,0.8965661612170844,-1.0,12.044777777777778,0.0355555555555555,178.37140104288017,12.888671693381337,53.42501265214808,1627.0,1435.0,1000.0,1528.0,1556.0,1021.47,138.0,293.25,1637229804.8192737,1637229805.9538238,56685225-1995-406d-ad4c-01f17f50a7d4
0.1043130519725018,0.3843276732427065,0.001200975981567,0.1228395646216556,-0.1595681406903042,-0.6272673602348893,-0.4672082345770189,-0.491625369669148,-14.607054499771944,19.84889713882165,-21.49984098784362,-1.565788954792653,1.7206887131818749,0.8798011970092974,-1.0,12.0361,0.03,178.64912746283554,12.99343828597199,52.75186434508036,1627.0,1435.0,1000.0,1528.0,1556.0,1021.47,138.0,293.25,1637229806.0624144,1637229807.1861951,56685225-1995-406d-ad4c-01f17f50a7d4
0.0901546456159714,0.3726461532540614,-0.0053651543116655,0.1223141646875155,-0.1637932554137172,-0.611259912855409,-0.4682130143205087,-0.4987152581576755,-14.558272162905707,19.825481504170856,-20.949611019579983,-1.5290028185520117,1.6713020004210684,0.8953386104854193,-1.0,12.037,0.03,178.84614776043014,13.055974995234813,52.24614628652093,1627.0,1435.0,1000.0,1528.0,1556.0,1021.47,138.0,293.25,1637229807.2947905,1637229808.4146717,56685225-1995-406d-ad4c-01f17f50a7d4
0.3080257943665815,0.7573139659043281,0.0092353773690575,-0.0609457907504291,-0.2400557012426802,-0.806107233154604,-0.5450507282623979,-0.5694580032696465,-14.709005234465565,19.39017148238115,-19.29251547968732,-1.5554316414812817,3.123901665878907,1.1360576592422211,-1.0,12.031888888888888,0.03,179.18431497969692,13.171674320634072,51.52027248593728,1729.0,1435.0,1000.0,1528.0,1636.0,1021.47,138.0,293.25,1637229810.1819923,1637229811.218995,0e7a8702-3c9c-4ec4-9773-28db81d90527
0.3049621483231751,0.7533852454155834,0.0007407716122261,-0.0626490948396646,-0.2477959013290477,-0.8011589381211729,-0.5529509054881568,-0.5806683657187132,-14.791625539610711,19.4383366738791,-19.42246004114792,-1.5406359097731797,3.110575054315287,1.1686762114220612,-1.0,12.029,0.03,179.33306891072073,13.220230704626124,51.34632388434007,1729.0,1435.0,1000.0,1528.0,1636.0,1021.47,138.0,293.25,1637229811.327713,1637229812.306371,0e7a8702-3c9c-4ec4-9773-28db81d90527
0.3096145950403368,0.7567250139430701,0.0071261073054048,-0.0644110202320912,-0.2436031103333555,-0.8040801415510389,-0.5481872410615883,-0.5673761256056972,-14.74849617431689,19.542676601712,-19.561657592309366,-1.5422166215096265,3.12465315869348,1.1476587960464493,-1.0,12.029,0.03,179.45824502872964,13.254433446077394,51.223235906942406,1729.0,1435.0,1000.0,1528.0,1636.0,1021.47,138.0,293.25,1637229812.4149978,1637229813.4283037,0e7a8702-3c9c-4ec4-9773-28db81d90527
0.4737815335342529,1.0651030062541775,-0.0243348884797302,-0.3540521750544208,-0.3726110152484937,-0.8080521453975664,-0.6271205331771877,-0.653335755831299,-15.08570739316543,20.302050412917293,-15.52256873909034,-0.8938412179319547,4.281525922355999,1.518564681988605,-1.0,12.028555555555556,0.03,179.74751112917872,13.40274436344253,51.108040972040605,1830.0,1435.0,1000.0,1528.0,1717.0,1021.47,138.0,293.25,1637229815.1900969,1637229816.1974556,fe5b2b11-747b-42af-858a-2a5df43bb56b
0.4808900467966389,1.079895288753451,-0.0207874797489581,-0.3644341682963203,-0.373460202126689,-0.8160098498132048,-0.6267644225946721,-0.6571434004060741,-15.043932129545672,20.298010979249693,-15.937350695442571,-0.8881992397939594,4.341889566203885,1.515523467385022,-1.0,12.011444444444445,0.03,179.8430169054331,13.497560480318214,51.07885139971265,1830.0,1435.0,1000.0,1528.0,1717.0,1021.47,138.0,293.25,1637229816.3053696,1637229817.2507484,fe5b2b11-747b-42af-858a-2a5df43bb56b
0.4808489571329568,1.0827441728020917,-0.0114738197312576,-0.3683102951608852,-0.3654888035906967,-0.8142977792036677,-0.6172042215687011,-0.6428167950393197,-15.045729004152646,20.310696933050394,-15.732149239686132,-0.8750287353782134,4.351836521713203,1.478952585776036,-1.0,12.009333333333334,0.03,179.91738248729644,13.521065248254477,51.05153291976232,1830.0,1435.0,1000.0,1528.0,1717.0,1021.47,138.0,293.25,1637229817.3621166,1637229818.3364646,fe5b2b11-747b-42af-858a-2a5df43bb56b
0.5243903128985833,1.1465975267951525,0.0294378013913804,-0.4084138272785806,-0.3481900470995884,-0.8363218562022681,-0.5942898715774538,-0.6150949509714161,-15.061431720939249,20.94716784655838,-14.9809510232803,-0.8276878248885368,4.592320686763003,1.3751607880950465,-1.0,11.990111111111112,0.1055555555555555,-179.92242620254353,13.567476573392188,51.00801019546108,1932.0,1435.0,1000.0,1528.0,1798.0,1021.47,138.0,293.25,1637229820.2773402,1637229821.408677,183910a2-77a5-4bcb-a4ba-d3647bdc4e0f
0.4908189551362285,1.083115075828318,0.0416332170561074,-0.363307215697789,-0.3185621947293961,-0.8284293477545536,-0.5692421456320527,-0.5953160183477767,-14.872280130440346,20.791304080918167,-16.65150142357667,-0.9122988398803912,4.362907067851911,1.273074462808051,-1.0,11.964777777777776,0.1911111111111111,-179.91733998834155,13.579826598912694,50.95843706192008,1932.0,1435.0,1000.0,1528.0,1798.0,1021.47,138.0,293.25,1637229821.5179946,1637229822.638274,183910a2-77a5-4bcb-a4ba-d3647bdc4e0f
0.5216646979913384,1.144803277482654,0.0445588020851925,-0.417987723259164,-0.3350413486313934,-0.8261590053548803,-0.5746626972635384,-0.6052608186664531,-14.888174568454744,20.9292601180092,-14.906381168805424,-0.7825208658635526,4.585841017298906,1.3086279204178493,-1.0,11.969333333333331,0.17,-179.87992117642864,13.582300170893362,50.96803158042919,1932.0,1435.0,1000.0,1528.0,1798.0,1021.47,138.0,293.25,1637229822.746684,1637229823.9792128,183910a2-77a5-4bcb-a4ba-d3647bdc4e0f
-0.3241525825461217,-0.4211790215113531,0.0115227026908043,0.5162408613327282,0.0284927389743203,-0.2204148340252532,-0.27350270150346,-0.2951021775966481,-13.839411286629227,21.924130153758103,-23.60569610175097,-1.5246322960613554,-1.334966768267894,0.2364884053263067,-1.0,11.971,0.17,-179.465187536566,13.530025033489457,50.954754831047545,1423.0,1435.0,1000.0,1528.0,1394.0,1021.47,138.0,293.25,1637229824.684992,1637229825.7134488,e175021b-5ec0-4cc6-b545-65fa80f9ae36
-0.3300147105875681,-0.4265343770973014,0.0006613315455212,0.5133234946191765,0.0189873272091589,-0.2128269397983258,-0.2805290370100068,-0.3040871213892469,-13.738374690798675,21.817695675350205,-23.722918982593427,-1.5022146375769845,-1.3550599442836084,0.2735197980212689,-1.0,12.049,0.04,-179.39807106214184,13.527257099328306,51.21006350767308,1423.0,1435.0,1000.0,1528.0,1394.0,1021.47,138.0,293.25,1637229825.8207042,1637229827.0521605,e175021b-5ec0-4cc6-b545-65fa80f9ae36
-0.32878202010079,-0.4233430782628662,0.0054551271413454,0.5160354129700521,0.022973025804151,-0.2184288328274676,-0.2784471598173321,-0.3031557552888796,-13.792142051536349,21.895121430332107,-23.693943514661694,-1.5201907451286585,-1.342995571066684,0.2589739272442086,-1.0,12.047888888888888,0.04,-179.3850952205386,13.518046873823762,51.42571952107211,1423.0,1435.0,1000.0,1528.0,1394.0,1021.47,138.0,293.25,1637229827.1603806,1637229828.2800665,e175021b-5ec0-4cc6-b545-65fa80f9ae36
-0.5185802038677112,-0.7803708397655518,0.0052770718718395,0.683762905513878,0.0939913255743231,-0.0121186535896781,-0.1986592181336234,-0.2258638735982868,-13.373322676298995,23.5757744531288,-21.85643597765737,-1.4233002367953114,-2.721950460628081,0.009351132180482,-1.0,12.043333333333331,0.0366666666666666,-179.2878120772802,13.50008262253298,51.8198654529565,1321.0,1435.0,1000.0,1528.0,1314.0,1021.47,138.0,293.25,1637229830.2151222,1637229831.3525064,ac98df06-e3e2-4321-bb8e-ad8d4a424591
-0.530006424122128,-0.7870109344140481,-0.0096204012711055,0.6884569896195161,0.0821180529790289,-0.0116715979516389,-0.2130175958941878,-0.2358305864366882,-13.449183941404437,23.526976457789385,-22.214733795764914,-1.43404493065289,-2.744665530962219,0.0649724595400885,-1.0,12.033333333333337,0.03,-179.31523908134736,13.486237734221628,51.95323590069466,1321.0,1435.0,1000.0,1528.0,1314.0,1021.47,138.0,293.25,1637229831.4612665,1637229832.5808249,ac98df06-e3e2-4321-bb8e-ad8d4a424591
-0.5094533626894742,-0.7690032389072892,0.0135908830853064,0.6792298929248295,0.0978932011511145,-0.0196232721757606,-0.1921862238834553,-0.2172646253982397,-13.129713769179924,23.597821190448656,-21.877899579441664,-1.429259423109009,-2.679763482492237,-0.0150453921890213,-1.0,12.035555555555554,0.03,-179.36196820000893,13.478982745230734,52.03623484166884,1321.0,1435.0,1000.0,1528.0,1314.0,1021.47,138.0,293.25,1637229832.68886,1637229833.8094797,ac98df06-e3e2-4321-bb8e-ad8d4a424591
-0.6769075413688951,-1.09773453117774,0.0263697723039112,0.7008567568392392,0.154405200591232,0.307053338701625,-0.0771488203816649,-0.1022409171007815,-12.845351802868867,25.82518669504752,-17.93473966171294,-0.7277848848034628,-3.9514813081709,-0.3079652677822409,-1.0,12.034555555555556,0.03,-179.34237162837027,13.466898148450476,52.04646798286532,1220.0,1435.0,1000.0,1528.0,1233.0,1021.47,138.0,293.25,1637229834.7208705,1637229835.7455242,2aeffb41-7574-47ae-9e54-6087bd92bc8b
-0.6852350521615266,-1.1052676438903648,0.021767728495304,0.6849139641893665,0.1498716397724953,0.3272009750424772,-0.0738890393776121,-0.0898592275476202,-12.735829569756788,25.705799848853207,-18.21101760734623,-0.6475569120618987,-3.976392458664304,-0.3014739062292175,-1.0,12.016666666666666,0.03,-179.37024183582355,13.482206879110196,52.10514310238528,1220.0,1435.0,1000.0,1528.0,1233.0,1021.47,138.0,293.25,1637229835.8531811,1637229837.086399,2aeffb41-7574-47ae-9e54-6087bd92bc8b
-0.6820711459181658,-1.1038979869818522,0.0276846419653924,0.7058833933565598,0.1575964986582671,0.3076559872245935,-0.0745875637531368,-0.0990359223380997,-12.831023796176458,25.8010524891644,-18.0343675826824,-0.7378726993046453,-3.9743523652655695,-0.3185732230306131,-1.0,12.014,0.03,-179.42304526938702,13.461070004949946,52.13703325562008,1220.0,1435.0,1000.0,1528.0,1233.0,1021.47,138.0,293.25,1637229837.194926,1637229838.2028215,2aeffb41-7574-47ae-9e54-6087bd92bc8b
-0.7236078937989255,-1.1884540301775477,0.0525203377661393,0.7435500216123618,0.1979449151623576,0.3413840343401553,-0.035549631088411,-0.0597958278642266,-12.947026701695814,26.346856265712628,-19.845660716811214,-0.7425402314507771,-4.277668312493319,-0.4757255366627848,-1.0,12.003444444444446,0.0677777777777777,-179.48143731551136,13.444365923561032,52.18216752511048,1118.0,1435.0,1000.0,1528.0,1152.0,1021.47,138.0,293.25,1637229840.2484913,1637229841.2818637,299af924-86c1-4890-bb28-0f9c9d9fd9fb
-0.7161394312067988,-1.1961460237216193,0.054703021368405,0.7319923186894702,0.1993912717326386,0.3581354722068489,-0.0281469148560786,-0.0486062868765365,-12.898310164877437,26.397772191095527,-20.012554613424527,-0.6783820380311414,-4.303821357640489,-0.4924649435602433,-1.0,11.964,0.1933333333333333,-179.5297009500065,13.44643148660253,52.15679185452406,1118.0,1435.0,1000.0,1528.0,1152.0,1021.47,138.0,293.25,1637229841.394571,1637229842.4453852,299af924-86c1-4890-bb28-0f9c9d9fd9fb
-0.7257774295515597,-1.1892823986827024,0.0505611819583013,0.7333071881816962,0.1952888785829881,0.3504566342168012,-0.0353129545874619,-0.0630172587101301,-13.009249558038537,26.34306349581412,-20.018287785396424,-0.6992291001868076,-4.277667962918711,-0.4702498260784436,-1.0,11.966666666666669,0.19,-179.5716322402311,13.456913550248778,52.14222002538479,1118.0,1435.0,1000.0,1528.0,1152.0,1021.47,138.0,293.25,1637229842.5534914,1637229843.639439,299af924-86c1-4890-bb28-0f9c9d9fd9fb
-0.0865741601619539,0.0078815252305133,-0.0044074487872369,0.2960276097713339,-0.0823261196420021,-0.4321320565546255,-0.3837347299845215,-0.4175167720056935,-14.14382589971144,20.657444491226475,-23.23520751890076,-1.5129264250844696,0.2992236853619591,0.6169042164662327,-1.0,11.998,0.1266666666666666,-179.96536228948602,13.3989369124352,52.130607185975954,1525.0,1435.0,1000.0,1528.0,1475.0,1021.47,138.0,293.25,1637229844.7564094,1637229845.8939507,63cc8a66-fbf8-45ed-83da-a47f34cf72ba
-0.0939197302731698,0.0149995214683847,0.0019519688204165,0.2936507302384411,-0.0762069184293533,-0.4368858169094488,-0.3783361777371039,-0.4079839650210409,-14.214612233946848,20.52399469006057,-23.18344924942605,-1.5188424812326102,0.3266563096848633,0.5931333746033143,-1.0,12.049,0.04,-179.96669493528407,13.38191475293119,52.23329756232728,1525.0,1435.0,1000.0,1528.0,1475.0,1021.47,138.0,293.25,1637229846.0017245,1637229847.1224077,63cc8a66-fbf8-45ed-83da-a47f34cf72ba
-0.1013369439785025,0.0133580415771254,-0.0024751804122427,0.2965617755425417,-0.0796689871562242,-0.4354645352724928,-0.3834586916082914,-0.4090027788822248,-14.315754773605365,20.567254691472822,-22.86591417782788,-1.522149238968451,0.3177629828071038,0.6113631715659794,-1.0,12.051666666666668,0.04,-179.98962767487734,13.382619875099255,52.31792398559869,1525.0,1435.0,1000.0,1528.0,1475.0,1021.47,138.0,293.25,1637229847.2298424,1637229848.3505504,63cc8a66-fbf8-45ed-83da-a47f34cf72ba
-0.0983478068505236,-0.0084501672488965,-0.0337351107898672,-0.0667646370027065,-0.145288655493237,-0.0617944296396522,-0.3082930610065317,-0.3316057031564217,-14.097310554320424,19.917520435928708,-20.170510865886826,0.1317886722799236,0.25327408043896,0.6347269955132123,-1.0,12.049555555555555,0.04,179.9734553047426,13.486642138338734,52.39674360971073,1525.0,1535.0,1000.0,1528.0,1475.0,1021.47,138.0,293.25,1637229850.285671,1637229851.4248154,4f28070f-8bee-4c65-a973-bf90e9a7f4a4
-0.0792033041375392,0.0065656441395131,-0.0172071991451576,-0.0859222883307053,-0.1343489393931062,-0.0587965267573001,-0.2908973333064548,-0.3126058340930251,-13.988265542331208,19.850926031138524,-20.02986733834032,0.182199155261367,0.3109795578539386,0.5744804274303248,-1.0,12.04911111111111,0.04,179.94937661118854,13.486589868418836,52.39655350277883,1525.0,1535.0,1000.0,1528.0,1475.0,1021.47,138.0,293.25,1637229851.533344,1637229852.6536033,4f28070f-8bee-4c65-a973-bf90e9a7f4a4
-0.091168618330724,-0.0047027887375774,-0.0276209668615616,-0.0762711448352068,-0.1426457673513282,-0.0540892933005245,-0.3009297900122538,-0.3247026368754223,-13.990437986835907,20.02090444621828,-19.74782022706859,0.1716584599067666,0.2643861260542622,0.6133078610944962,-1.0,12.049333333333331,0.04,179.92289217322687,13.480320323943197,52.39765733723969,1525.0,1535.0,1000.0,1528.0,1475.0,1021.47,138.0,293.25,1637229852.7626526,1637229853.881451,4f28070f-8bee-4c65-a973-bf90e9a7f4a4
-0.077572865722083,-0.0154189764022385,-0.060058801562734,-0.4577148736787688,-0.2153449153239444,0.3271177000412767,-0.2309129733911597,-0.2542650608938813,-14.028312112098408,19.706274706085992,-16.83477900637696,1.885469456143816,0.2435459255899765,0.6564240772967308,-1.0,12.052555555555555,0.04,179.89536802869156,13.581453512027498,52.366013829724935,1525.0,1636.0,1000.0,1528.0,1475.0,1021.47,138.0,293.25,1637229855.7040474,1637229856.748414,ab52b1f0-2372-40ea-99de-b49731cf28f2
-0.0747108327269957,-0.0164867601324807,-0.0566724642931819,-0.4595978769877658,-0.2114983734207686,0.3291732794195263,-0.2266604654174242,-0.2534098478682401,-14.08027637713174,19.671339705648847,-16.907635485621082,1.8942354690164696,0.241000524087506,0.6402438606344005,-1.0,12.045666666666667,0.04,179.87327008999682,13.562254988635452,52.30410878963748,1525.0,1636.0,1000.0,1528.0,1475.0,1021.47,138.0,293.25,1637229856.8563488,1637229858.068468,ab52b1f0-2372-40ea-99de-b49731cf28f2
-0.0629043987054508,-7.828260325867924e-05,-0.0430854776907228,-0.4593239457334681,-0.2019792642472015,0.3125730515177582,-0.2187027640047141,-0.2392749975067386,-14.00716288647375,19.698851078558864,-16.86389254401014,1.8572173124109128,0.3024652014658678,0.5995172239578763,-1.0,12.049,0.04,179.85816930065187,13.567922338099272,52.26419771758737,1525.0,1636.0,1000.0,1528.0,1475.0,1021.47,138.0,293.25,1637229858.1763582,1637229859.2058136,ab52b1f0-2372-40ea-99de-b49731cf28f2
-0.0559781540862911,-0.0018029954347158,-0.0638168002568959,-0.8436358219748283,-0.2690249798272725,0.6841796180010989,-0.140344745327747,-0.1679190806780549,-13.73037791802568,19.6064458275536,-14.365578546423365,3.5580730460486545,0.3178961651614435,0.6077066303976176,-1.0,12.047222222222224,0.0388888888888888,179.83533521934658,13.667688444848446,52.1836667516333,1525.0,1737.0,1000.0,1528.0,1475.0,1021.47,138.0,293.25,1637229860.2079794,1637229861.2497318,82fb90b8-38b2-496f-8270-a8bbe5199e01
-0.0548150001714997,-0.0191365174998915,-0.085360434325506,-0.8342294423783366,-0.2839689808371735,0.6947238599291377,-0.1593597844541096,-0.1801827695888549,-14.006031945545695,19.59277898531857,-14.204293089409251,3.559272502081023,0.2508823512659263,0.6825260434389026,-1.0,12.038333333333334,0.03,179.83482826752817,13.672609311554226,52.08605500038482,1525.0,1737.0,1000.0,1528.0,1475.0,1021.47,138.0,293.25,1637229861.3574193,1637229862.4828522,82fb90b8-38b2-496f-8270-a8bbe5199e01
-0.0635133687726095,-0.0048752389349047,-0.0603779103419489,-0.8438507530040924,-0.264448221513599,0.6861898511769058,-0.1361219906882463,-0.1501809824452459,-13.821707089724644,19.583191988035683,-14.50552595441841,3.5630239401911443,0.3085042154228276,0.5901476970980197,-1.0,12.041333333333332,0.03,179.81799716359347,13.66729390656014,51.98586409381476,1525.0,1737.0,1000.0,1528.0,1475.0,1021.47,138.0,293.25,1637229862.5902653,1637229863.9166238,82fb90b8-38b2-496f-8270-a8bbe5199e01
-0.0584941066793693,-0.0235541845625008,-0.0718893415189515,-1.0054607538204696,-0.2980880275871373,0.8625857056608659,-0.1072812507412672,-0.1315515542772715,-13.869841256394212,20.332244960829705,-13.129638570187666,4.328549010272888,0.2457736295294557,0.6085169237108999,-1.0,12.041,0.03,179.80707948566015,13.739228605125067,51.78941077781227,1525.0,1837.0,1000.0,1528.0,1475.0,1021.47,138.0,293.25,1637229865.6713722,1637229866.6072457,fc9e09dc-9667-4c8f-81ab-27256e061344
-0.0469495509259698,-0.0192846931959486,-0.0650816037813585,-1.0076330298477487,-0.2921070135568377,0.8603235822808909,-0.1023976055816501,-0.1278140370164272,-14.00834089366117,20.36614939849945,-13.09555719451096,4.328865291582618,0.2631646249381733,0.5845724601527222,-1.0,12.020777777777775,0.03,179.78349863700566,13.735747485378084,51.65286315374519,1525.0,1837.0,1000.0,1528.0,1475.0,1021.47,138.0,293.25,1637229866.715099,1637229867.807398,fc9e09dc-9667-4c8f-81ab-27256e061344
-0.0484408322881816,-0.0173496433733962,-0.0727933144481734,-1.008378122758022,-0.2998274908059995,0.8577097312436881,-0.1092535553492663,-0.1288807252296609,-13.860109129724965,20.24835326578958,-13.350447256657594,4.323541474994765,0.2712330322830029,0.615381467419951,-1.0,12.026666666666667,0.03,179.7717583007323,13.719292136711449,51.56008148460479,1525.0,1837.0,1000.0,1528.0,1475.0,1021.47,138.0,293.25,1637229867.9154022,1637229869.0354178,fc9e09dc-9667-4c8f-81ab-27256e061344
-0.1275116169213604,0.0034099569986077,0.0268803800852152,0.7722799201311388,-0.0034142164810293,-0.8875196183915715,-0.4843672873791013,-0.500290362721393,-14.47812602711938,21.98233219227011,-26.5304515350913,-3.6009044040541216,0.2573934421510291,0.6082634872147602,-1.0,12.027222222222225,0.0311111111111111,179.7755923135864,13.178184534414218,51.42442254403972,1525.0,1334.0,1000.0,1528.0,1475.0,1021.47,138.0,293.25,1637229870.6711798,1637229871.699701,a9fca4a8-8918-418f-b567-349cc014e562
-0.1223885558036465,0.0060714723005654,0.0310676919943455,0.7624364783431704,-0.0006261449773083,-0.8809178736563955,-0.4775677661623115,-0.5078782582616818,-14.42351187167672,21.904235464221955,-26.46688199507097,-3.564136596879264,0.267901849075484,0.5894728365372615,-1.0,12.042555555555555,0.03,179.84892577797507,13.156819418099202,51.67231742977616,1525.0,1334.0,1000.0,1528.0,1475.0,1021.47,138.0,293.25,1637229871.807749,1637229872.9262874,a9fca4a8-8918-418f-b567-349cc014e562
-0.12127913447211,0.0044224066291633,0.0247765886767152,0.7660737360865908,-0.0058861714154422,-0.8835750073911117,-0.4849195327212872,-0.515582301000602,-14.4717972546096,21.918395405114097,-26.65050686493084,-3.578585256986713,0.2628396583028073,0.6152137875237785,-1.0,12.042333333333334,0.0366666666666666,179.86774522586822,13.145599788886337,51.80313604294942,1525.0,1334.0,1000.0,1528.0,1475.0,1021.47,138.0,293.25,1637229873.035067,1637229874.044726,a9fca4a8-8918-418f-b567-349cc014e562
-0.1317706990311608,0.0110022334706809,0.0514344746954691,1.032861309241628,0.0399430620116582,-1.1438919680065822,-0.5405445592328224,-0.5589390429808834,-14.667069104080298,23.292522575243684,-27.94259316362644,-4.755227248412321,0.2692178354290881,0.5962657460240063,-1.0,12.041666666666666,0.03,179.9049014549531,13.054539896599202,52.12696100332403,1525.0,1234.0,1000.0,1528.0,1475.0,1021.47,138.0,293.25,1637229875.271148,1637229876.2977784,04f86d5c-43b7-4ea2-860c-ad335c1a7644
-0.1294285873597425,0.0088792668575957,0.0521740888827797,1.030039818303316,0.0406415865242886,-1.1373450079084566,-0.538312019464107,-0.558418573613707,-14.691135549311063,23.3191309161008,-27.66586110863633,-4.733905546610543,0.2593678118199402,0.5912084309852853,-1.0,12.03788888888889,0.03,179.93855303808382,13.050086328669138,52.33584829925557,1525.0,1234.0,1000.0,1528.0,1475.0,1021.47,138.0,293.25,1637229876.409943,1637229877.6435192,04f86d5c-43b7-4ea2-860c-ad335c1a7644
-0.1296614288788279,0.0225758256212005,0.0637476808649218,1.0207672487489652,0.0473529002429617,-1.1416868204663364,-0.5277930595960383,-0.5474065372020853,-14.493456759782974,23.297014694130525,-27.504942305584347,-4.722190699673546,0.309787874175371,0.5532648041671977,-1.0,12.03188888888889,0.03,179.9435345227185,13.059102273237292,52.526920185102,1525.0,1234.0,1000.0,1528.0,1475.0,1021.47,138.0,293.25,1637229877.7767627,1637229878.8672962,04f86d5c-43b7-4ea2-860c-ad335c1a7644
-0.1402395557517107,0.015112296826044,0.0621057374098295,1.22601510191153,0.0623424139489032,-1.3319853249785607,-0.5937776198976147,-0.6200092780616073,-14.952100576346028,24.65111235362401,-29.00236452443546,-5.604380567322087,0.2729613572467924,0.626942723752126,-1.0,12.02988888888889,0.03,179.9479862882375,12.97849143201542,52.76067354361689,1525.0,1133.0,1000.0,1528.0,1475.0,1021.47,138.0,293.25,1637229879.777291,1637229881.0087864,b9c120de-a186-4078-ad2c-69d713e31c08
-0.1391531446560227,0.0246987921999737,0.0689249799470125,1.2328995398920737,0.0681853657913243,-1.3483543714117083,-0.5921669041037271,-0.617834263460357,-14.977208636829609,24.6444059062721,-29.060139664437912,-5.6564203592233495,0.3091908799350875,0.6085197551687861,-1.0,12.0278,0.03,179.95240405459268,12.988492631371347,52.89268167217959,1525.0,1133.0,1000.0,1528.0,1475.0,1021.47,138.0,293.25,1637229881.118089,1637229882.1433592,b9c120de-a186-4078-ad2c-69d713e31c08
-0.1382015077012351,0.017268683028899,0.0681804350462516,1.2367838839466845,0.0677596767614378,-1.3451866286135934,-0.5911084336869734,-0.6160383700888691,-14.813250573228174,24.724312347443064,-29.13686264388249,-5.657501208395408,0.2803189011286116,0.6077160873782224,-1.0,12.026666666666666,0.03,179.94787700521078,12.97657850472912,53.0479687550355,1525.0,1133.0,1000.0,1528.0,1475.0,1021.47,138.0,293.25,1637229882.2518456,1637229883.372619,b9c120de-a186-4078-ad2c-69d713e31c08
-0.1377013093290799,0.0229456326987053,0.0810327376926506,1.2863709045203429,0.0789508608069411,-1.3985797019823252,-0.6005902902273861,-0.6215049424582567,-14.947006659009844,25.50322453981399,-29.44069067808387,-5.883651042394559,0.299973180546814,0.5887342838802575,-1.0,12.026000000000002,0.03,179.907041580893,12.955706110671734,53.29938839783863,1525.0,1033.0,1000.0,1528.0,1475.0,1021.47,138.0,293.25,1637229885.3184402,1637229886.4436147,e1b9f0e0-c625-47f6-91a8-0bb290ded178
-0.1410416263103766,0.0144285646109939,0.0705340516331534,1.2869461599893202,0.0708101742679853,-1.3909835827795607,-0.6098453319193596,-0.6328029636630876,-15.112001203518282,25.555211288247616,-29.54761483094201,-5.868157420112301,0.2694089484651933,0.6259972150795092,-1.0,12.023,0.03,179.91133093969177,12.954849775704542,53.3856312992136,1525.0,1033.0,1000.0,1528.0,1475.0,1021.47,138.0,293.25,1637229886.5524893,1637229887.6725557,e1b9f0e0-c625-47f6-91a8-0bb290ded178
-0.1461383900632217,0.0168780571855138,0.0695002354259676,1.2876994706952278,0.069719380357339,-1.3952651312131197,-0.6121501895291888,-0.6448986726336411,-15.133255783430714,25.53317586401073,-29.7288353719227,-5.8797150547655646,0.2801939618598762,0.6322153255084811,-1.0,12.026555555555554,0.03,179.8931277266438,12.949376612313378,53.46327423351363,1525.0,1033.0,1000.0,1528.0,1475.0,1021.47,138.0,293.25,1637229887.7805347,1637229888.9023514,e1b9f0e0-c625-47f6-91a8-0bb290ded178
-0.1009249515008808,0.0047248266348903,0.0055005997076481,0.2846868599852031,-0.0742856915225233,-0.4174535568233042,-0.3714068135238957,-0.3954952299983131,-14.248549896518204,20.814096567683382,-22.98866122012173,-1.4528415175439409,0.28796728664464,0.574623580938384,-1.0,12.024333333333336,0.0311111111111111,179.88155586837,13.24426376872194,53.52766508300402,1525.0,1435.0,1000.0,1528.0,1475.0,1021.47,138.0,293.25,1637229889.6995077,1637229890.736518,d0f78496-81e8-4637-aa51-191bb73b4d90
-0.0984529964160863,0.00749920160092,0.0078805137805971,0.2840425738729192,-0.0711563016658802,-0.4208985160806749,-0.3691452373615401,-0.393904237317757,-14.301776609880685,20.68458305671327,-23.15647252549188,-1.4599230492998194,0.3004649153392897,0.5640064508676129,-1.0,12.0475,0.04,179.84568029975446,13.235935657405513,53.47098286090191,1525.0,1435.0,1000.0,1528.0,1475.0,1021.47,138.0,293.25,1637229890.8660448,1637229891.8302052,d0f78496-81e8-4637-aa51-191bb73b4d90
-0.1001886244223698,0.0019767490773981,0.0007670689745413,0.2929968354683983,-0.0767182004517668,-0.4222528321669193,-0.3770739026693717,-0.3998737464452167,-14.293500315465607,20.76862864964608,-23.005126704941706,-1.4829337609252184,0.2768004186165083,0.5921621447457022,-1.0,12.049333333333331,0.04,179.81239337283444,13.24566661368647,53.41530088205823,1525.0,1435.0,1000.0,1528.0,1475.0,1021.47,138.0,293.25,1637229891.9394596,1637229892.9983962,d0f78496-81e8-4637-aa51-191bb73b4d90
-0.0537824903491851,0.0233154397873204,0.1449956651621639,0.2733871998149018,0.052954792722317,-0.4333141750977288,-0.2272220243653959,-0.2576831743813716,-13.35593313457431,20.69455138918812,-23.04416147473437,-1.4563992626341105,0.3621000102407901,0.0086272975977406,-1.0,12.047,0.04,179.7329415767692,13.234111830885576,53.22654329197558,1525.0,1435.0,1000.0,1439.0,1475.0,1021.47,138.0,293.25,1637229894.696151,1637229895.6657562,37ae5026-92c0-4640-b33d-79dd0febdd02
-0.0503309574496385,0.0286434011194521,0.1528163998897985,0.2731817514351974,0.0588990991406814,-0.4375190196119047,-0.221017482674465,-0.2458493467363033,-13.30316603311418,20.736352002880825,-22.873564898628405,-1.4646643910975985,0.3807194357701271,-0.0180602908350969,-1.0,12.049444444444443,0.04,179.7231486033192,13.23207159646225,53.141012627549046,1525.0,1435.0,1000.0,1439.0,1475.0,1021.47,138.0,293.25,1637229895.7784526,1637229896.7764962,37ae5026-92c0-4640-b33d-79dd0febdd02
-0.051358199384322,0.0276846420196278,0.1489402739214324,0.2769756979503064,0.0551325455400359,-0.4392447862812424,-0.2254551681183336,-0.2449042838020191,-13.243998741496526,20.77399810131776,-22.78862548479026,-1.4770007545665642,0.3752397155124685,-0.0012652220448477,-1.0,12.049,0.04,179.7120836968638,13.247809775266036,53.05006182856116,1525.0,1435.0,1000.0,1439.0,1475.0,1021.47,138.0,293.25,1637229896.8845856,1637229897.9245827,37ae5026-92c0-4640-b33d-79dd0febdd02
0.0069069623540232,0.0630491563663742,0.3329672258850712,0.2552803503376464,0.2171080434947034,-0.4598718082626936,-0.0382231992487944,-0.0641507860452555,-11.911438695079832,20.869016231975564,-22.21423899162648,-1.4638575007188273,0.5076949408949779,-0.7335172294319294,-1.0,12.047888888888888,0.04,179.6707686414843,13.222981942769302,52.82328399046363,1525.0,1435.0,1000.0,1351.0,1475.0,1021.47,138.0,293.25,1637229899.671342,1637229900.781463,adb72fd3-606b-453c-a9ae-918e147d3187
0.0065261980576479,0.0631444844381693,0.3327847877397309,0.2503030212116786,0.217786297044984,-0.4550982825503286,-0.036864500585452,-0.0597432329854229,-12.025611989165723,20.77104541739828,-22.16763306489565,-1.442611703258297,0.5090470911022981,-0.7361328579262887,-1.0,12.04988888888889,0.04,179.6774910654474,13.22578260492022,52.80408470816167,1525.0,1435.0,1000.0,1351.0,1475.0,1021.47,138.0,293.25,1637229900.8941402,1637229902.0100234,adb72fd3-606b-453c-a9ae-918e147d3187
0.0140702626159796,0.067377268882118,0.335720233971428,0.2464049808754279,0.2183818233819113,-0.4571598890003965,-0.0352510459327467,-0.051796489481583,-11.97711587706327,20.85016208182006,-22.364972762256333,-1.4377877900778415,0.526995745081637,-0.7430414360273776,-1.0,12.0459,0.031,179.67692340083642,13.233392223024646,52.78076970564784,1525.0,1435.0,1000.0,1351.0,1475.0,1021.47,138.0,293.25,1637229902.1194632,1637229903.2439773,adb72fd3-606b-453c-a9ae-918e147d3187
0.0638150679167712,0.0924266307548449,0.511738529012356,0.2532614777049022,0.3771616343447998,-0.4950966262951675,0.138236687589162,0.1159364991414241,-10.758909989547142,21.103340484784194,-22.035419844527453,-1.5273946485417689,0.6197218345308546,-1.4419432466106956,-1.0,12.04622222222222,0.04,179.65462207428638,13.24213730316034,52.64214433803525,1525.0,1435.0,1000.0,1262.0,1475.0,1021.47,138.0,293.25,1637229905.264582,1637229906.3104866,52fef547-0cbd-47e5-ba4f-ba549ddb467c
0.070732925704234,0.0918530188779043,0.5102006795540904,0.2601700215113264,0.3770701413380259,-0.4996877138264516,0.1350382673061498,0.1154795819260118,-10.83648013921403,21.100038756786898,-21.88149034506972,-1.5534083892361634,0.6158070533562577,-1.4350131226806508,-1.0,12.049,0.0366666666666666,179.6743233754923,13.250136687907023,52.6420938705264,1525.0,1435.0,1000.0,1262.0,1475.0,1021.47,138.0,293.25,1637229906.4192169,1637229907.538825,52fef547-0cbd-47e5-ba4f-ba549ddb467c
0.0732941821504724,0.1007557818499728,0.5185281864131756,0.2500893549442785,0.3810421430289447,-0.5018928603395713,0.1434205609572313,0.1145482159253554,-10.614091262395196,21.101076744132204,-22.211177765210973,-1.535143207885327,0.6523149077763075,-1.4630300933552691,-1.0,12.047111111111112,0.04,179.6853715859298,13.24813430411535,52.64638133205038,1525.0,1435.0,1000.0,1262.0,1475.0,1021.47,138.0,293.25,1637229907.6473153,1637229908.6554296,52fef547-0cbd-47e5-ba4f-ba549ddb467c
0.1139729606552635,0.1227798476720996,0.6702860410366357,0.2647994580658849,0.5187884210000784,-0.5480639719882263,0.2882616615484533,0.2708533364467899,-9.687667309256822,21.399136176735865,-22.647743254462643,-1.6621491021390156,0.7400453781489252,-2.061027331923962,-1.0,12.043666666666669,0.0366666666666666,179.6933295152228,13.265095655963002,52.5874193445853,1525.0,1435.0,1000.0,1173.0,1475.0,1021.47,138.0,293.25,1637229910.7022336,1637229911.8399217,497fd82c-483a-4b87-b1e0-d68c44f78310
0.1225743992718831,0.1207664535836791,0.6696833925173906,0.2661965069614962,0.5180762000197084,-0.5494062351523116,0.2871248472653592,0.2561295368223547,-9.67135697824399,21.46179700484857,-22.943481721970283,-1.6679703006094575,0.7347904596093374,-2.058279999047631,-1.0,12.039444444444444,0.03,179.69463635808395,13.261733305616584,52.5438503267797,1525.0,1435.0,1000.0,1173.0,1475.0,1021.47,138.0,293.25,1637229911.948314,1637229912.9562523,497fd82c-483a-4b87-b1e0-d68c44f78310
0.1238914603432496,0.1231156872767248,0.6801075683128224,0.2707360940757926,0.5284505203985137,-0.5551730358498712,0.2957975076246192,0.2706703505718814,-9.704502921921184,21.47001672072345,-22.76830235961675,-1.6905844844680928,0.7423855590748301,-2.098422935148059,-1.0,12.041,0.03,179.66831736248218,13.251629938014322,52.447123843938655,1525.0,1435.0,1000.0,1173.0,1475.0,1021.47,138.0,293.25,1637229913.064277,1637229914.2965825,497fd82c-483a-4b87-b1e0-d68c44f78310
-0.1784211812543813,-0.0456193411026427,-0.2104437383150906,0.3286117205406687,-0.2650519237446816,-0.3977852947376761,-0.5971250598082513,-0.621052956246004,-15.864536441090172,21.25796612585859,-23.152191113511027,-1.5163776657329144,0.0929426831530948,1.4429352498050116,-1.0,12.045,0.03,179.79567306974624,13.275759288804682,52.63963955588463,1525.0,1435.0,1000.0,1617.0,1475.0,1021.47,138.0,293.25,1637229916.1704795,1637229917.1645343,b627a6a3-aabc-4a9e-8ad9-e57b6d9ffd5c
-0.1637384691895606,-0.0284301595297247,-0.1985414277059357,0.3146823214005694,-0.2597924445635179,-0.3942789749823465,-0.5843461665978605,-0.6135883288573688,-15.543836985868856,21.23640060352795,-21.99001319868864,-1.476280800362993,0.147311564008838,1.4051831000826325,-1.0,12.049,0.04,179.8096612971664,13.265758753494923,52.61573503215445,1525.0,1435.0,1000.0,1617.0,1475.0,1021.47,138.0,293.25,1637229917.272151,1637229918.3935592,b627a6a3-aabc-4a9e-8ad9-e57b6d9ffd5c
-0.1732712747759737,-0.0364837362269954,-0.1985825173567771,0.3033826612986712,-0.2588336853265062,-0.3710633037599327,-0.5787853620525069,-0.6046444730813488,-15.72049085833586,21.25447673793055,-21.26914131704437,-1.398479051586742,0.1133559299540567,1.3958280533057412,-1.0,12.051666666666668,0.04,179.8118135656649,13.264925849871137,52.60188416742757,1525.0,1435.0,1000.0,1617.0,1475.0,1021.47,138.0,293.25,1637229918.5014164,1637229919.6214447,b627a6a3-aabc-4a9e-8ad9-e57b6d9ffd5c
-0.2363696829897108,-0.0736677027572996,-0.4019117947067882,0.3451577100229274,-0.4407530516348654,-0.3625971854993738,-0.7955575909176066,-0.8203823413659664,-17.24051826799316,21.71766245636522,-21.39123859661057,-1.4815273609579398,-0.0322915660343049,2.2238481838228488,-1.0,12.049,0.04,179.8181170713589,13.250727499270234,52.528631906399,1525.0,1435.0,1000.0,1706.0,1475.0,1021.47,138.0,293.25,1637229920.173277,1637229921.1450007,5296d306-a1b8-4344-ba75-a6d7989cfccc
-0.2282306390903468,-0.0603612215898185,-0.3823202334347265,0.3573596992785582,-0.4247247873835083,-0.3864357761617278,-0.782698160062412,-0.8094163234932686,-17.004372958904018,21.805189667935537,-21.206810591944222,-1.5609165295751226,0.0140510282895804,2.1591089768592315,-1.0,12.047333333333334,0.04,179.82787513495313,13.253458721164591,52.53060469270427,1525.0,1435.0,1000.0,1706.0,1475.0,1021.47,138.0,293.25,1637229921.2532818,1637229922.4894402,5296d306-a1b8-4344-ba75-a6d7989cfccc
-0.2381710545891262,-0.0717216956277377,-0.392615664578722,0.3541908637039104,-0.4312333934155177,-0.3727874268794701,-0.7893908495210951,-0.8110336140033699,-17.26155913042486,21.760027019591952,-21.327222100787026,-1.5240594373408844,-0.0259334416797922,2.1898031493850665,-1.0,12.047333333333333,0.0388888888888888,179.83955475843385,13.24853851850498,52.50405119394098,1525.0,1435.0,1000.0,1706.0,1475.0,1021.47,138.0,293.25,1637229922.5987484,1637229923.7242172,5296d306-a1b8-4344-ba75-a6d7989cfccc
-0.301566954001889,-0.0959404995687811,-0.5737039373559185,0.4162285992262982,-0.5950568788521107,-0.3981687984943775,-0.9954074731307048,-1.024320927184162,-18.617708433542216,22.52271359811627,-21.67990817557844,-1.7257366170772592,-0.123149611498233,2.948958317529914,-1.0,12.044222222222222,0.0388888888888888,179.8748546938843,13.225601225452264,52.58007423504286,1525.0,1435.0,1000.0,1795.0,1475.0,1021.47,138.0,293.25,1637229924.7213242,1637229925.7663434,69e913b4-116f-490d-bab9-c2e7d934e7fc
-0.3001408680936246,-0.1011747766851877,-0.5777230567271947,0.4202499085116642,-0.5979326092177724,-0.3976121702045949,-0.998639315173518,-1.0173104759879643,-18.564115966870347,22.53933462026241,-21.831764341894463,-1.7336440597257166,-0.142564368132418,2.962173511149422,-1.0,12.040625,0.03,179.87322816022444,13.230058279624714,52.54484933680954,1525.0,1435.0,1000.0,1795.0,1475.0,1021.47,138.0,293.25,1637229925.8751938,1637229926.9990566,69e913b4-116f-490d-bab9-c2e7d934e7fc
-0.3034296862621198,-0.1043501870200583,-0.5804015565439672,0.4250491822371695,-0.6006039868511056,-0.3971552529233217,-1.001913342571194,-1.0331963031726434,-18.52023089569804,22.65646801511041,-21.605563307282257,-1.7427420228841275,-0.1575482187488434,2.974084139841515,-1.0,12.038000000000002,0.03,179.88229352880035,13.258995443260533,52.57676424948008,1525.0,1435.0,1000.0,1795.0,1475.0,1021.47,138.0,293.25,1637229927.111976,1637229928.225579,69e913b4-116f-490d-bab9-c2e7d934e7fc
-0.348620118840842,-0.12845832307624194,-0.718493049174059,0.5015351416412984,-0.7241206934124684,-0.4405952673082961,-1.1656015784526992,-1.1856402074923513,-19.340457243821852,23.467154135629244,-22.293397410637784,-2.0149155446075686,-0.2542243441026842,3.559486530011039,-1.0,12.032222222222222,0.030000000000000002,179.8923672989162,13.237208657628008,52.5962526764569,1525.0,1435.0,1000.0,1883.0,1475.0,1021.4699999999999,138.0,293.25,1637229929.339055,1637229930.476445,8d83e08e-437b-4e6a-909c-5c45d387805d
-0.34873845712698714,-0.12059540220731643,-0.7154819963015548,0.5011669781898697,-0.7220957931841623,-0.450483089060056,-1.165930295841659,-1.1919910327859982,-19.414240500006553,23.43564238402381,-22.640687857479232,-2.036455779376951,-0.22089768493241643,3.5535118678994264,-1.0,12.029666666666666,0.030000000000000002,179.88559478689916,13.235515814214969,52.58002945935831,1525.0,1435.0,1000.0,1883.0,1475.0,1021.4699999999999,138.0,293.25,1637229930.5842693,1637229931.7063513,8d83e08e-437b-4e6a-909c-5c45d387805d
-0.34673985502501387,-0.11904385597003884,-0.7105512333757669,0.5001676773626175,-0.7169020561453082,-0.4524290966269572,-1.1608943413716473,-1.1890720198911162,-19.444174166991903,23.360624608071554,-22.79249936901775,-2.0388655906828905,-0.2130867313320739,3.532521225417873,-1.0,12.033666666666667,0.030000000000000002,179.89180874122405,13.233879509590057,52.5680887708693,1525.0,1435.0,1000.0,1883.0,1475.0,1021.4699999999999,138.0,293.25,1637229931.8146222,1637229932.941642,8d83e08e-437b-4e6a-909c-5c45d387805d
