raw_voltage_G-,raw_voltage_G0,raw_voltage_G1,raw_voltage_G2,raw_voltage_G3,raw_voltage_G4,raw_voltage_G5,raw_voltage_G6,load_x,load_y,load_z,load_l,load_m,load_n,rpm,voltage,current,roll,pitch,yaw,aileron1_pwm,elevator_pwm,throttle_pwm,rudder_pwm,aileron2_pwm,pbaro,pdiff,Tt,sample_start_time,sample_end_time,uid
-0.0990496185511522,0.0337385209530534,-0.0159525943397982,0.3822063504027451,-0.0735329286168971,-0.5913861999620595,-0.4241237822570942,-0.4395598077347495,-14.43031849991611,19.111486906218747,-31.166646927315195,-2.0774216154030256,0.4571584451761439,0.6713021462093011,-1.0,12.04988888888889,0.04,177.83741533574877,15.33592923190681,47.24815422299925,1525.0,1435.0,1000.0,1528.0,1475.0,1021.47,138.0,293.25,1637230170.2790997,1637230171.2261417,f994b93c-22f4-4e05-9fd9-0bbfde1f4aaf
-0.0827008575041509,0.0450518784070894,-0.0040848000019521,0.3796598864232799,-0.0650158602538081,-0.5985900442171586,-0.4124701999105747,-0.4354409774386735,-14.129755230834968,19.002884383636616,-30.85816164379132,-2.087793948552148,0.4957930411468579,0.6289687076381789,-1.0,12.049666666666669,0.04,178.0850385317382,15.419590890957958,46.55875173530868,1525.0,1435.0,1000.0,1528.0,1475.0,1021.47,138.0,293.25,1637230171.3349254,1637230172.3488443,f994b93c-22f4-4e05-9fd9-0bbfde1f4aaf
-0.0973879519653525,0.0302070002686972,-0.0213884846812288,0.3859318140424925,-0.0777700962060859,-0.588702221478245,-0.429287386023896,-0.4599895988004344,-14.46480148395036,19.1438352109786,-30.830539771382355,-2.0798141012654576,0.4403755061349315,0.6918769193147054,-1.0,12.050333333333334,0.04,178.336189140979,15.485255760456027,45.93689260886542,1525.0,1435.0,1000.0,1528.0,1475.0,1021.47,138.0,293.25,1637230172.4577303,1637230173.578085,f994b93c-22f4-4e05-9fd9-0bbfde1f4aaf
0.0701921856022903,0.3433826361777417,-0.0175753626573424,0.2264907335439192,-0.1456962650911268,-0.732562159556601,-0.4940578789456858,-0.5200923044908933,-14.665401302226371,18.47810981412596,-28.757606324948693,-2.0474204216290928,1.617883040366929,0.9109694145720062,-1.0,12.035,0.03,178.62436392898076,15.612509584064968,45.2846186500481,1627.0,1435.0,1000.0,1528.0,1556.0,1021.47,138.0,293.25,1637230174.1972787,1637230175.2157936,4168734a-3f2b-4c79-8ad9-0ae151581c56
0.0835244577786958,0.3401895260919214,-0.0233213430634491,0.2315357869043486,-0.1492327589291551,-0.7339705877794498,-0.499278924154689,-0.5323023896521704,-14.68011138934308,18.392878133764217,-28.78327662104696,-2.062828371484545,1.60525170167312,0.9306986634394784,-1.0,12.034,0.03,178.88610740271437,15.671912687913952,44.935675669000766,1627.0,1435.0,1000.0,1528.0,1556.0,1021.47,138.0,293.25,1637230175.3246052,1637230176.4409285,4168734a-3f2b-4c79-8ad9-0ae151581c56
0.0855473340965312,0.3432111974202919,-0.0153562672305309,0.2273636046406953,-0.1436698485339843,-0.7335786553401336,-0.4913897043328322,-0.5237051625948628,-14.584689554934108,18.46063872854777,-28.793108699646645,-2.0516439595652005,1.617016352941818,0.9013860289554364,-1.0,12.036555555555555,0.03,179.13439995724244,15.741411001083698,44.67008717821941,1627.0,1435.0,1000.0,1528.0,1556.0,1021.47,138.0,293.25,1637230176.550095,1637230177.878085,4168734a-3f2b-4c79-8ad9-0ae151581c56
0.2614848910581749,0.7067051867815968,-0.0540153319707478,-0.0935709948997054,-0.2870212068436837,-0.7669350578114523,-0.5865787065882518,-0.6127665352830174,-15.161322135389677,18.575816300983767,-25.43146059888909,-1.4035662558845523,2.9916919701391413,1.330320788872516,-1.0,12.02811111111111,0.03,179.38088327055044,15.846149675276118,44.46760394354465,1729.0,1435.0,1000.0,1528.0,1636.0,1021.47,138.0,293.25,1637230178.7885053,1637230179.9265468,46848045-cefe-4190-81f2-099d32bb180d
0.2721134199119061,0.702979723207901,-0.0507281577321611,-0.0848051971597683,-0.2809947201862705,-0.7731259052700029,-0.5848666360597553,-0.6202448585594705,-15.31704053331758,18.54693727849316,-25.662407310366003,-1.4373943709230286,2.979996870316811,1.314397394965692,-1.0,12.025,0.03,179.54632107698686,15.902952564053574,44.40298352380716,1729.0,1435.0,1000.0,1528.0,1636.0,1021.47,138.0,293.25,1637230180.0350275,1637230181.0456135,46848045-cefe-4190-81f2-099d32bb180d
0.2642515957405407,0.7044452548349153,-0.0509336062531547,-0.0908316830905064,-0.28174803117232,-0.7677705483728644,-0.5846337947395518,-0.6095615396321251,-15.425784694603186,18.561754644025385,-25.485461848187857,-1.411704429923493,2.985424122588767,1.3156638902146514,-1.0,12.024666666666668,0.03,179.7499654438205,15.935090311645776,44.36326255868895,1729.0,1435.0,1000.0,1528.0,1636.0,1021.47,138.0,293.25,1637230181.1586049,1637230182.206456,46848045-cefe-4190-81f2-099d32bb180d
0.4412796028169449,1.0198084896751871,-0.0498104882891657,-0.2996083458812897,-0.3692142681376614,-0.8673582736711537,-0.6485008685813406,-0.675400919812192,-15.309559052720624,18.886065386957256,-23.29299370366865,-1.1619285291496482,4.173755161734689,1.5635671082691125,-1.0,12.010666666666667,0.03,-179.9385150925884,16.04895373911438,44.596880451785296,1830.0,1435.0,1000.0,1528.0,1717.0,1021.47,138.0,293.25,1637230184.2057807,1637230185.4549017,19aa1ef6-6192-4d43-aec1-a689b4773af0
0.4407591336277739,1.0259993337671809,-0.0487147634966363,-0.2857885164403327,-0.3675569841850237,-0.8844652844529525,-0.6546643220751669,-0.6853857146074042,-15.494757536438854,18.988783157396053,-23.07337764213368,-1.2308671437228356,4.194708617141289,1.5696000230062317,-1.0,12.009222222222222,0.0311111111111111,-179.83125380186254,16.076458151992117,44.68013135084886,1830.0,1435.0,1000.0,1528.0,1717.0,1021.47,138.0,293.25,1637230185.5633328,1637230186.6847885,19aa1ef6-6192-4d43-aec1-a689b4773af0
0.4505521721829884,1.0344227167834912,-0.0370863849214121,-0.3214954498500448,-0.3652422654199285,-0.8630712486046369,-0.6354480436918339,-0.6536096869798891,-14.99407735999634,19.031534226427947,-23.41718688194742,-1.1011861529805602,4.230939096235423,1.5237904741280317,-1.0,12.014111111111111,0.03,-179.76142346560812,16.07979450967419,44.79281011995143,1830.0,1435.0,1000.0,1528.0,1717.0,1021.47,138.0,293.25,1637230186.7923934,1637230187.8009465,19aa1ef6-6192-4d43-aec1-a689b4773af0
0.5280955055856109,1.1714480138323602,-0.0185878124669223,-0.4074473972025208,-0.3868170886155614,-0.9137118361266096,-0.6537488439154917,-0.6805458966479485,-15.453023172877591,19.65696493190294,-22.786115406580635,-1.0161590439747608,4.754288248107316,1.5701558837116694,-1.0,11.969777777777775,0.1766666666666666,-179.72359787798462,16.101925271222417,45.03770124027288,1932.0,1435.0,1000.0,1528.0,1798.0,1021.47,138.0,293.25,1637230189.7354147,1637230190.7808907,a1ab3ab6-da37-4b3b-a612-4dc9604d08d7
0.4712887600709988,1.069061311725192,-0.0116518750594599,-0.3324663952505257,-0.3516415805311363,-0.8987234096500726,-0.6276410028614293,-0.6457615561989767,-15.22975503216602,19.51461917454588,-24.972397762675243,-1.152451200751094,4.37927811408576,1.4610187596401865,-1.0,11.974666666666668,0.1444444444444445,-179.66370622588252,16.110601319015625,45.11161527074103,1932.0,1435.0,1000.0,1528.0,1798.0,1021.47,138.0,293.25,1637230190.8892992,1637230192.0095725,a1ab3ab6-da37-4b3b-a612-4dc9604d08d7
0.4991064680378422,1.1172868925376018,-0.0107752952391746,-0.3735423820091434,-0.3667625837772678,-0.8972852704320178,-0.6349549675043011,-0.6609784381953112,-15.26943707221704,19.760117824556293,-23.45610088223239,-1.054669327853058,4.5521123889102695,1.49831800257669,-1.0,11.97577777777778,0.14,-179.6621944773462,16.10854429371059,45.17786127550099,1932.0,1435.0,1000.0,1528.0,1798.0,1021.47,138.0,293.25,1637230192.1177871,1637230193.12627,a1ab3ab6-da37-4b3b-a612-4dc9604d08d7
-0.3077167097033843,-0.3732547535219017,-0.0057760511455872,0.5646171017421693,0.019576279215768,-0.3515457043324257,-0.317290605706562,-0.3419444155620536,-13.920799619189744,20.65426334325069,-29.45488054136892,-1.938678642238044,-1.1098787403686148,0.3329952070128861,-1.0,12.04575,0.04,-179.30651541195743,16.052970981279344,45.30404541559491,1423.0,1435.0,1000.0,1528.0,1394.0,1021.47,138.0,293.25,1637230194.704875,1637230195.896783,b2fb255f-f937-4cd4-9410-ecab46d9b84d
-0.3038131899059433,-0.3682692052687853,-0.0074196381683295,0.5665757094335699,0.0180833543341606,-0.3589281506887296,-0.320125793703841,-0.3485050683200612,-13.88054503478707,20.53793074014981,-29.56951530009804,-1.9605371568640464,-1.0907961244162734,0.3418403572574358,-1.0,12.046777777777775,0.04,-179.2884070626479,16.02232605690761,45.4957306903743,1423.0,1435.0,1000.0,1528.0,1394.0,1021.47,138.0,293.25,1637230196.0050538,1637230197.1302102,b2fb255f-f937-4cd4-9410-ecab46d9b84d
-0.3058402809206721,-0.3741587265731206,-0.0119395025954865,0.5681645100723887,0.0127416964359853,-0.3555724932490822,-0.3242210653807664,-0.346395797557307,-13.75805495048023,20.7160260259644,-29.74071510708698,-1.9555905672814309,-1.112714155530555,0.3601801579283437,-1.0,12.047999999999998,0.0366666666666666,-179.31550166417543,16.008431744588513,45.591290728687085,1423.0,1435.0,1000.0,1528.0,1394.0,1021.47,138.0,293.25,1637230197.2382329,1637230198.2828777,b2fb255f-f937-4cd4-9410-ecab46d9b84d
-0.4875083093755744,-0.7095317029771556,0.033357124411693,0.6035427175063526,0.1063829601217816,-0.0463947772423112,-0.1716993312654645,-0.1846963129820542,-13.088944009920557,22.41558140550421,-27.135543844307712,-1.3263574052610578,-2.3998475186404304,-0.0830905729303238,-1.0,12.032666666666666,0.03,-179.24979524435992,16.00145925981079,45.81070941740888,1321.0,1435.0,1000.0,1528.0,1314.0,1021.47,138.0,293.25,1637230199.268752,1637230200.406618,dd413104-ddf7-4ca0-a4b7-02179a78a607
-0.4624625655126974,-0.6979128023389575,0.0396659700557521,0.5880930009091455,0.1079254033103845,-0.0408697960596805,-0.1649479808508002,-0.1902592235175932,-13.013185324901457,22.43344068649976,-26.70476570947684,-1.2785519261514453,-2.358321313251396,-0.1014799235595755,-1.0,12.033,0.03,-179.29254463946512,16.020313238104702,45.941177414204745,1321.0,1435.0,1000.0,1528.0,1314.0,1021.47,138.0,293.25,1637230200.514726,1637230201.6381748,dd413104-ddf7-4ca0-a4b7-02179a78a607
-0.476888205933163,-0.6998724645526959,0.0311572463804561,0.5873217793637816,0.1007694783631694,-0.0393526388395054,-0.1731279878732305,-0.1929268918114194,-13.105233021511223,22.389927687227768,-26.92611243639301,-1.2741967334239008,-2.3635031483749303,-0.069090965183227,-1.0,12.030333333333331,0.03,-179.337057741196,16.008963360978914,46.05696316046976,1321.0,1435.0,1000.0,1528.0,1314.0,1021.47,138.0,293.25,1637230201.7470691,1637230202.956857,dd413104-ddf7-4ca0-a4b7-02179a78a607
-0.6469394602240154,-1.0424688789907588,0.028259897361947,0.6881737448213778,0.1560350909880981,0.2156562081919096,-0.0866405360152194,-0.1122941917221108,-12.621393855563392,24.28286179263641,-24.8975812265117,-0.9156839978409884,-3.682419924136628,-0.3017024177004766,-1.0,12.014333333333331,0.03,-179.32227114055286,16.015844207385268,46.15036485900482,1220.0,1435.0,1000.0,1528.0,1233.0,1021.47,138.0,293.25,1637230203.774358,1637230204.911626,ce6df4d8-6080-4673-8dfb-09c9df3238e7
-0.6460437050025952,-1.0407414677648492,0.0351772074274362,0.6989102021262344,0.1631271688304786,0.2046113038582106,-0.082766601054352,-0.1057505234049188,-12.571212178635635,24.32436958876604,-24.780927537137096,-0.9640587383456104,-3.678212817240405,-0.3258210544917279,-1.0,12.0131,0.03,-179.3582349703906,16.008135997397453,46.25161121952912,1220.0,1435.0,1000.0,1528.0,1233.0,1021.47,138.0,293.25,1637230205.0201623,1637230206.1409342,ce6df4d8-6080-4673-8dfb-09c9df3238e7
-0.6320786889534732,-1.0220199034974595,0.0405868002349092,0.6818870250432064,0.1627874942030929,0.2038360786116145,-0.0813125743375665,-0.1018163238012906,-12.726078778134678,24.416736967525484,-24.48585821431718,-0.9265499002128922,-3.6070742295744105,-0.3324164916252557,-1.0,12.017,0.03,-179.405484094121,15.99788858869469,46.306142121770165,1220.0,1435.0,1000.0,1528.0,1233.0,1021.47,138.0,293.25,1637230206.2498417,1637230207.3724167,ce6df4d8-6080-4673-8dfb-09c9df3238e7
-0.8124010788530026,-1.3470537448785915,0.0187544855477499,0.797499117195844,0.1981552942925509,0.4322546671717329,-0.0251753095490163,-0.0473966069143641,-12.386242208531996,26.39206116157381,-22.049103893899613,-0.6614883305152194,-4.865735800664854,-0.4662080269265325,-1.0,11.983,0.11,-179.41971213707205,15.966161411362595,46.35122782102647,1118.0,1435.0,1000.0,1528.0,1152.0,1021.47,138.0,293.25,1637230209.1917632,1637230210.233907,f902697a-5ad5-4f2f-88c4-6e1f417cb039
-0.8176737084577576,-1.353614950765449,0.0114043642385192,0.819654668346406,0.1938556707679324,0.4198291502479228,-0.0381662217472798,-0.0589806085878844,-12.52959870388758,26.60039645589796,-21.909273565777013,-0.7384224007585419,-4.89375923038827,-0.4324246524827274,-1.0,11.982555555555557,0.1155555555555555,-179.4553839383773,15.98511727331163,46.39317315108437,1118.0,1435.0,1000.0,1528.0,1152.0,1021.47,138.0,293.25,1637230210.34564,1637230211.466439,f902697a-5ad5-4f2f-88c4-6e1f417cb039
-0.8093111337066051,-1.3476980316167912,0.0212001431289695,0.8106215149138544,0.2005352082454188,0.4189481876001327,-0.0273711418301367,-0.0456346816591213,-12.34857709047856,26.559470112846647,-22.3137777510043,-0.719782360367183,-4.867530821619297,-0.4700354260738963,-1.0,11.980555555555556,0.1188888888888888,-179.48498597824013,15.977132023261976,46.41852833110328,1118.0,1435.0,1000.0,1528.0,1152.0,1021.47,138.0,293.25,1637230211.575605,1637230212.694702,f902697a-5ad5-4f2f-88c4-6e1f417cb039
-0.0898318341316338,0.0390253925994087,0.0002504347907156,0.3690987448377267,-0.0638220681605703,-0.5785662170689188,-0.4053594930944195,-0.428123178716778,-14.121338206625126,19.32896721225505,-30.19385104813235,-2.0164867473185706,0.4688233771177161,0.6112963868388334,-1.0,12.049,0.04,-179.917048566937,15.917741441426468,46.4862640760122,1525.0,1435.0,1000.0,1528.0,1475.0,1021.47,138.0,293.25,1637230213.7103488,1637230214.841035,2539fac5-1d14-439a-a7ee-95aa797e5e19
-0.1064109924228717,0.0203348578898786,-0.012195522875496,0.3768415141643895,-0.0700624312339326,-0.5676268778266407,-0.4136480198889346,-0.4370122470994134,-14.295613505933794,19.27531091831,-30.306761379568385,-2.010451525969987,0.3992134893968709,0.6461095226057808,-1.0,12.049666666666669,0.04,-179.939835595828,15.878892653519776,46.51001378212119,1525.0,1435.0,1000.0,1528.0,1475.0,1021.47,138.0,293.25,1637230214.9498477,1637230216.0599232,2539fac5-1d14-439a-a7ee-95aa797e5e19
-0.0890100405740603,0.0393678065783161,0.0041676506087194,0.3667840266090454,-0.0604938042955287,-0.5741970135676117,-0.4002506757228437,-0.4295613175134936,-14.09416391993093,19.33331259747024,-29.793734587494672,-2.0011458094504646,0.4669024783556776,0.5947523930498261,-1.0,12.049,0.04,-179.95324705171822,15.881570467129372,46.53427233732336,1525.0,1435.0,1000.0,1528.0,1475.0,1021.47,138.0,293.25,1637230216.168191,1637230217.1958282,2539fac5-1d14-439a-a7ee-95aa797e5e19
-0.0809153740482049,0.0200419622507104,-0.0273344348399486,-0.0112272815821067,-0.1257168197476222,-0.1872280692942111,-0.321961132831403,-0.3489433580494793,-14.12722438564824,18.51179102698568,-26.77004314428445,-0.2854232319275657,0.4123841912582022,0.6139875106834135,-1.0,12.047444444444444,0.04,179.98699273967753,15.980931885170229,46.55877032860142,1525.0,1535.0,1000.0,1528.0,1475.0,1021.47,138.0,293.25,1637230219.3397238,1637230220.3528378,fd6491b0-77ec-45c7-9a7f-0cc6092ce40d
-0.0785064232144341,0.0236326520945402,-0.0242154544359314,-0.0104487691073421,-0.1237642382302997,-0.1920059771547172,-0.3199165102570984,-0.3478574946428059,-14.038532239293406,18.51446088662742,-26.827792942861628,-0.2977075193143799,0.4258374755490369,0.6045861812618847,-1.0,12.051,0.04,179.96258164358397,15.97064030791083,46.534405905467125,1525.0,1535.0,1000.0,1528.0,1475.0,1021.47,138.0,293.25,1637230220.4665806,1637230221.4121742,fd6491b0-77ec-45c7-9a7f-0cc6092ce40d
-0.0763681164013351,0.0250549027328173,-0.024006171029526,-0.0085016663363869,-0.1247169709125319,-0.1947337840670228,-0.3221939743978175,-0.3489159648258715,-14.07309129714703,18.661370156338126,-26.772161825495207,-0.3072536804902787,0.4306993524001008,0.6090243503361169,-1.0,12.04977777777778,0.04,179.96090597050755,15.969419980779126,46.53106556350804,1525.0,1535.0,1000.0,1528.0,1475.0,1021.47,138.0,293.25,1637230221.52479,1637230222.7338192,fd6491b0-77ec-45c7-9a7f-0cc6092ce40d
-0.0721358795845154,0.0107693919667588,-0.0529606967764986,-0.397730508465879,-0.195391218912473,0.1978232898087753,-0.2441372761795242,-0.2704483686410244,-13.904927697742616,18.34963649877822,-23.718750406042663,1.449942504379696,0.3949490246870283,0.6330280969777135,-1.0,12.046333333333331,0.04,179.8906005566509,16.073960389758142,46.47861046959225,1525.0,1636.0,1000.0,1528.0,1475.0,1021.47,138.0,293.25,1637230224.7567618,1637230225.8008213,917a57a1-8948-44dd-8089-e9b945e04554
-0.0599870316156576,0.0212061697455399,-0.0417295183496158,-0.4097560893194882,-0.1864336687592432,0.1967138686148259,-0.2337141938891432,-0.2554095455123664,-14.033843410348547,18.258364945559205,-23.91165638516266,1.4744347952812231,0.4389064967296939,0.5915106476307176,-1.0,12.047444444444444,0.04,179.87503531444236,16.07505322002534,46.401565556299545,1525.0,1636.0,1000.0,1528.0,1475.0,1021.47,138.0,293.25,1637230225.909811,1637230227.0309184,917a57a1-8948-44dd-8089-e9b945e04554
-0.0656732951177998,0.014034103718431,-0.045476896897444,-0.3963761925508952,-0.1890343715404761,0.193500656066619,-0.2389731251320019,-0.2689784537810709,-13.953369040342986,18.431971474805387,-23.65329466804097,1.4380784659577273,0.4072654861205493,0.607247504048955,-1.0,12.044555555555556,0.04,179.8585123279302,16.06412188171369,46.318485411965234,1525.0,1636.0,1000.0,1528.0,1475.0,1021.47,138.0,293.25,1637230227.139095,1637230228.2595315,917a57a1-8948-44dd-8089-e9b945e04554
-0.0453585586317196,0.0108126730929976,-0.0681452501104997,-0.7778594377408072,-0.2564345958382131,0.5658059629162628,-0.1643542665356862,-0.1899416318129909,-13.940734238410268,18.39711952662693,-20.9151264559252,3.134314008149003,0.4163565298085847,0.6238575618226052,-1.0,12.038111111111114,0.03,179.80060143068735,16.16970958636544,46.155570601517226,1525.0,1737.0,1000.0,1528.0,1475.0,1021.47,138.0,293.25,1637230230.2860286,1637230231.331664,834be7ce-ecfe-4612-99a6-8e0ee9276c97
-0.0559301107934511,0.0073414172368437,-0.0694732684924074,-0.7649737097603065,-0.2561321758048414,0.5565492816332478,-0.1669445599073754,-0.1945436759838727,-13.809197114341002,18.38906412147027,-21.043358709751256,3.0843722088029977,0.4018719068257526,0.6285513097056497,-1.0,12.040666666666668,0.03,179.79996698200443,16.16883532215168,46.06164715242057,1525.0,1737.0,1000.0,1528.0,1475.0,1021.47,138.0,293.25,1637230231.440246,1637230232.560851,834be7ce-ecfe-4612-99a6-8e0ee9276c97
-0.050959903429568,0.0059345067160805,-0.0686843466656792,-0.7749009797955244,-0.254804157301404,0.5671208324108903,-0.1625397462914616,-0.1939256873353679,-13.895800524381366,18.27211926578539,-21.01417592157773,3.129746483358048,0.3982197378627651,0.619166909853218,-1.0,12.038222222222222,0.03,179.7884103019288,16.184414414466048,45.99421307419999,1525.0,1737.0,1000.0,1528.0,1475.0,1021.47,138.0,293.25,1637230232.6694765,1637230233.682598,834be7ce-ecfe-4612-99a6-8e0ee9276c97
-0.0417706080178028,0.0072630729136621,-0.0666024697081642,-0.9851487447146352,-0.2871033860764043,0.7703119988151306,-0.1154991863986323,-0.1424951054583972,-13.78307208525485,19.173276837755434,-19.289685853510765,4.067020795769641,0.4131539556559159,0.5938045731376936,-1.0,12.024555555555557,0.03,179.76796071555378,16.26244572091138,45.72252826012944,1525.0,1837.0,1000.0,1528.0,1475.0,1021.47,138.0,293.25,1637230235.7238667,1637230236.861055,a470e7a8-77d4-42e1-a85e-53ad13928bba
-0.049413287988266,-0.0001193722789222,-0.0782308484943134,-0.9856418215706206,-0.2953076258777745,0.7776807466693135,-0.1243608604153735,-0.1406871595469089,-13.924040860253024,19.056196074819223,-19.411660266374174,4.083246055001453,0.3868656416668571,0.6323267753909358,-1.0,12.024555555555557,0.03,179.76843579315604,16.25344239322044,45.61121818504555,1525.0,1837.0,1000.0,1528.0,1475.0,1021.47,138.0,293.25,1637230236.970197,1637230237.977721,a470e7a8-77d4-42e1-a85e-53ad13928bba
-0.0336485485519035,0.0132347725444898,-0.073395963093155,-0.9909697861476868,-0.2944173494311895,0.7697093503114316,-0.1229501148044476,-0.1472889016831696,-13.859657473796368,19.089714420044167,-19.358947675720675,4.077855599577227,0.4369919847449707,0.6241898560887904,-1.0,12.025,0.03,179.7695544263601,16.239693412148682,45.50136445807469,1525.0,1837.0,1000.0,1528.0,1475.0,1021.47,138.0,293.25,1637230238.086017,1637230239.205821,a470e7a8-77d4-42e1-a85e-53ad13928bba
-0.1065964227956252,0.0348205490746271,0.0282735939982124,0.8009785906040096,0.0082081354487615,-0.9863814353740652,-0.4965785943042336,-0.522095290054182,-14.553621070761748,20.52765148264989,-32.47262319437314,-3.898356376664864,0.4249321440731435,0.6041362597208125,-1.0,12.045333333333334,0.0366666666666666,179.79494451623475,15.663709820448243,45.36832717178605,1525.0,1334.0,1000.0,1528.0,1475.0,1021.47,138.0,293.25,1637230241.2532127,1637230242.3911622,b053ea27-b69f-4481-aba7-ac3c2d4e4d46
-0.1069733521051825,0.0304436768104333,0.0280900601571895,0.8025482160624405,0.0075254989867411,-0.983741832916553,-0.4963720500465509,-0.5171469958825794,-14.479170899140106,20.65430278168023,-32.50338038700932,-3.895102506522067,0.4080591305421157,0.6044630021446138,-1.0,12.042222222222222,0.03,179.8581875144896,15.668974188751031,45.561117609118654,1525.0,1334.0,1000.0,1528.0,1475.0,1021.47,138.0,293.25,1637230242.5002282,1637230243.6197994,b053ea27-b69f-4481-aba7-ac3c2d4e4d46
-0.1113628254430372,0.0319579683166663,0.022493646250869,0.8031015569855026,0.0028116912898408,-0.9844091296809582,-0.5028242265574147,-0.535189203539561,-14.592466009942845,20.616033953608564,-32.36029056231048,-3.8984167862658,0.4128487578836246,0.6280248043907637,-1.0,12.044,0.03,179.887703038623,15.677686664219816,45.70271501971209,1525.0,1334.0,1000.0,1528.0,1475.0,1021.47,138.0,293.25,1637230243.727905,1637230244.6649106,b053ea27-b69f-4481-aba7-ac3c2d4e4d46
-0.1228816319427086,0.0308074573964304,0.0495580461662858,1.0537622564468567,0.0496950117505763,-1.227098628435586,-0.5512415745418952,-0.5793058319449483,-14.817932986852492,21.870339151168128,-34.30302552744863,-4.999962230559423,0.3982231668432028,0.59485834139901,-1.0,12.03188888888889,0.03,-179.98798994729637,15.58281704419563,46.21954253273852,1525.0,1234.0,1000.0,1528.0,1475.0,1021.47,138.0,293.25,1637230246.7033446,1637230247.9201076,e60bb6bc-9e20-444e-b080-03f39826eb81
-0.1280041451980397,0.0231784741899501,0.0371352674895811,1.0618843152767092,0.0394225927968372,-1.227632795038071,-0.5633219428269567,-0.5883592601118632,-14.76006747360708,21.90337549428129,-34.473329778289155,-5.019881538030144,0.3689227088998335,0.6419180487080011,-1.0,12.027666666666669,0.03,-179.96314930819494,15.593345780801208,46.42193963113874,1525.0,1234.0,1000.0,1528.0,1475.0,1021.47,138.0,293.25,1637230248.0280592,1637230249.0369244,e60bb6bc-9e20-444e-b080-03f39826eb81
-0.1136501508483519,0.0442026917680809,0.0579814297044133,1.0429282792601142,0.0541737864227017,-1.2315637104714192,-0.543722161726341,-0.5670884979275178,-14.704256232936292,21.78588472907846,-34.428303414632886,-4.985660246228784,0.450635658395332,0.5680333442880973,-1.0,12.028888888888888,0.03,-179.96565219307078,15.55819497114764,46.59048479419256,1525.0,1234.0,1000.0,1528.0,1475.0,1021.47,138.0,293.25,1637230249.144824,1637230250.2656395,e60bb6bc-9e20-444e-b080-03f39826eb81
-0.1334285306347003,0.0400553738096281,0.0559127014683654,1.252917334086348,0.0666157401887923,-1.4286151903316389,-0.6121200571789834,-0.6414153625658163,-14.939401151181317,23.242679811165143,-35.81658378577326,-5.89293049642435,0.4230886990378367,0.6499098796129336,-1.0,12.0285,0.03,-179.96097730803888,15.512917742003369,46.9950568201175,1525.0,1133.0,1000.0,1528.0,1475.0,1021.47,138.0,293.25,1637230252.3137462,1637230253.4516194,af6d4a54-c02f-472e-8db3-80a186d287b6
-0.1283925796212951,0.0364526310251821,0.0618953582775646,1.2414779684505337,0.0721907873956931,-1.41346787643114,-0.602021855040042,-0.6300548849684053,-15.019362345872,23.240700566754185,-35.60033327167807,-5.832809056502982,0.4100132117064405,0.619497417940007,-1.0,12.028333333333332,0.03,-179.9752615103231,15.546769013303598,47.0973861450802,1525.0,1133.0,1000.0,1528.0,1475.0,1021.47,138.0,293.25,1637230253.5601835,1637230254.5712068,af6d4a54-c02f-472e-8db3-80a186d287b6
-0.1296680032352699,0.0410546747164562,0.0651299374929606,1.2404260729113188,0.0735188056464985,-1.4180304792054346,-0.5992080332792008,-0.6285559334874227,-14.838866592269314,23.22455138740268,-35.723031443769386,-5.840563711768807,0.4274179318490981,0.6097806615449612,-1.0,12.026,0.03,-179.97237765267354,15.534267869847705,47.22602137444878,1525.0,1133.0,1000.0,1528.0,1475.0,1021.47,138.0,293.25,1637230254.6784124,1637230255.7966225,af6d4a54-c02f-472e-8db3-80a186d287b6
-0.1319624508962209,0.0400115448304119,0.0685140831600737,1.2871516083818648,0.0739653134468831,-1.4577078077655166,-0.6173548836148849,-0.6390228470363731,-15.000500266878296,24.30185651561113,-35.4612778124062,-6.027854870564382,0.4168095417940192,0.6304942621174187,-1.0,12.018555555555556,0.03,179.98582705405923,15.516276202936504,47.42214039063688,1525.0,1033.0,1000.0,1528.0,1475.0,1021.47,138.0,293.25,1637230257.7308187,1637230258.8667133,62e470b1-a1d5-4100-8668-7764f953ddb5
-0.1656696841811296,-0.0233487362017121,0.0372448392448245,1.1096716057753382,0.0327112784836789,-1.2196339977100856,-0.5827299738265471,-0.6157386902691145,-15.07257359414397,24.502179349909984,-33.66582282303769,-5.092498937485543,0.1836396913296156,0.6731856270375892,-1.0,12.01611111111111,0.0355555555555555,179.97512035308026,15.54909260571374,47.48936804536255,1525.0,1033.0,1000.0,1528.0,1475.0,1021.47,138.0,293.25,1637230258.9757082,1637230260.0044353,62e470b1-a1d5-4100-8668-7764f953ddb5
-0.1671352160162085,-0.0282110146114491,0.0262054134807414,1.0996046357685954,0.0230278118599375,-1.2040609980468446,-0.5911670554727646,-0.6145881783324693,-15.348641550436232,24.513616315343075,-33.52081647693987,-5.035385433390909,0.1666117573114769,0.7127655771390856,-1.0,12.017222222222223,0.04,179.96613941323162,15.580434067085204,47.552374643181146,1525.0,1033.0,1000.0,1528.0,1475.0,1021.47,138.0,293.25,1637230260.112386,1637230261.2301729,62e470b1-a1d5-4100-8668-7764f953ddb5
-0.0914206350186746,0.0259314825045661,0.0023460082740145,0.3559089598719263,-0.0619593361310193,-0.5445850451913709,-0.3994425786372262,-0.4209324839786053,-14.561821027429042,19.72274329872395,-28.88594177268364,-1.907672098211739,0.4130023866551802,0.5971533794270975,-1.0,12.049,0.04,179.85902079756838,15.795287722984234,47.52189492400997,1525.0,1435.0,1000.0,1528.0,1475.0,1021.47,138.0,293.25,1637230263.37668,1637230264.3969314,ec3e7627-7fea-473a-a56c-8b6934377fa1
-0.0910097382686018,0.0248220612433751,-0.0037626569543396,0.3598946581541123,-0.0668900974201931,-0.5469408538823346,-0.4052636171580793,-0.4269589706741694,-14.502462828660114,19.65189728871029,-28.89901008975524,-1.92270269498128,0.4076579007567456,0.6204368185426992,-1.0,12.047999999999998,0.04,179.81401744003708,15.779965901128598,47.42381075134391,1525.0,1435.0,1000.0,1528.0,1475.0,1021.47,138.0,293.25,1637230264.5044987,1637230265.6260474,ec3e7627-7fea-473a-a56c-8b6934377fa1
-0.1024633490205402,0.0195039614142855,-0.0046764913602332,0.367273815503966,-0.0660283099196543,-0.5497294739928229,-0.4076183300182187,-0.4249614640292551,-14.610874114214935,19.731107312053545,-29.08307308404457,-1.9452189900128705,0.389145326031736,0.6229145810931056,-1.0,12.049,0.04,179.7796312321156,15.77216184081943,47.30689992114061,1525.0,1435.0,1000.0,1528.0,1475.0,1021.47,138.0,293.25,1637230265.7353718,1637230266.855503,ec3e7627-7fea-473a-a56c-8b6934377fa1
-0.0472355350716343,0.0564474151620792,0.1457215827297953,0.3452256449628315,0.0661993648405267,-0.5729643228990339,-0.2550397381541588,-0.286596613519931,-13.528886452453795,19.59538639519219,-28.964170349181007,-1.9405428185116416,0.531240600288846,0.0258240786286211,-1.0,12.050111111111114,0.04,179.73975658774103,15.771385475983774,47.1177518719104,1525.0,1435.0,1000.0,1439.0,1475.0,1021.47,138.0,293.25,1637230267.764908,1637230268.726448,8d1e837b-0df2-4656-a81b-e970b74cf842
-0.0436360793547711,0.0512054682626386,0.1451266042513321,0.3409501275376703,0.0651693836461335,-0.5643245311402327,-0.2517931054968409,-0.2768150778280575,-13.352407556003405,19.59431532521789,-29.01648057840898,-1.911439762801996,0.5112833334159277,0.0227937705795841,-1.0,12.048555555555556,0.04,179.7227448632483,15.76835590763192,47.066546702612726,1525.0,1435.0,1000.0,1439.0,1475.0,1021.47,138.0,293.25,1637230268.8345344,1637230270.0389435,8d1e837b-0df2-4656-a81b-e970b74cf842
-0.0452769271442991,0.0533930826032488,0.1411058426136686,0.3313510320842395,0.0624739009209285,-0.5562134267320404,-0.2547521103855917,-0.2857474267668458,-13.677828847975116,19.4742799555633,-28.8390752137746,-1.8726912860362488,0.5211440534271041,0.0364112889083719,-1.0,12.047111111111112,0.0311111111111111,179.7216930141161,15.764642561453153,47.01549938657586,1525.0,1435.0,1000.0,1439.0,1475.0,1021.47,138.0,293.25,1637230270.1472256,1637230271.2650816,8d1e837b-0df2-4656-a81b-e970b74cf842
0.0160151739543074,0.088333003358374,0.3259819814847691,0.3304470592753067,0.2270654411202712,-0.6039459482073948,-0.0735877148621538,-0.1064183676540251,-12.30929673833001,19.62552524256884,-29.475630847702444,-1.967117859683964,0.6599796670318345,-0.693497389004068,-1.0,12.043444444444445,0.04,179.65594105970612,15.75554152411159,46.80221079263416,1525.0,1435.0,1000.0,1351.0,1475.0,1021.47,138.0,293.25,1637230273.2027874,1637230274.3408988,709fbe90-4737-48f5-b9f2-77150d00b821
0.0116596682745264,0.0729654647578363,0.3180379780385763,0.3406783878008902,0.2223812183067993,-0.5980153364249018,-0.0786828349043396,-0.1028983518275724,-12.216125378321273,19.695408771614098,-29.485296379241863,-1.976757286234704,0.6000061574630898,-0.6707813131545554,-1.0,12.046111111111111,0.0344444444444444,179.60026742887143,15.734426563474926,46.71732785781391,1525.0,1435.0,1000.0,1351.0,1475.0,1021.47,138.0,293.25,1637230274.4483404,1637230275.4521258,709fbe90-4737-48f5-b9f2-77150d00b821
0.026630554858778,0.0903622854641623,0.3324692190376692,0.3210561514648246,0.2319342935163166,-0.5990239513837463,-0.0631881914625317,-0.0947319153158309,-12.090493906816777,19.48496692031922,-29.65693751783252,-1.9354014069302792,0.6692140867571125,-0.7236602785850127,-1.0,12.04588888888889,0.04,179.5538175890559,15.711178686542448,46.6372423719757,1525.0,1435.0,1000.0,1351.0,1475.0,1021.47,138.0,293.25,1637230275.5607278,1637230276.7949705,709fbe90-4737-48f5-b9f2-77150d00b821
0.0768717232397459,0.1150818340338591,0.5035863380878491,0.3247640835578779,0.3852217845275378,-0.6334603983536797,0.1055095833345425,0.0859574721406067,-10.894794400925774,19.796279980895616,-29.32578491405445,-2.0099099933390248,0.7609262256679722,-1.4016854847798703,-1.0,12.044888888888888,0.03,179.44710726692307,15.646483324451566,46.40467556910163,1525.0,1435.0,1000.0,1262.0,1475.0,1021.47,138.0,293.25,1637230278.7320602,1637230279.961774,15663040-d4ca-45b6-b7d3-100dff664390
0.0754719349315159,0.119026990689515,0.505105560222677,0.3248725602967114,0.3869316627608259,-0.6365437686750778,0.1057139359586366,0.0867031127790111,-10.991821343192395,19.74683581235392,-29.19272070242485,-2.017363189029585,0.7753124660898472,-1.405757791977342,-1.0,12.044111111111112,0.04,179.42902092600087,15.631358249989526,46.34255310132559,1525.0,1435.0,1000.0,1262.0,1475.0,1021.47,138.0,293.25,1637230280.070695,1637230281.1901996,15663040-d4ca-45b6-b7d3-100dff664390
0.0811970964078108,0.1175477623939023,0.5054342775956767,0.3192569716373967,0.3875480078456263,-0.6302433495616387,0.1089600202751323,0.0795124195392039,-10.963921791331964,19.651616830974216,-29.223436381276247,-1.991143616381935,0.7705498499720286,-1.4118800427166327,-1.0,12.044555555555554,0.04,179.43746911109426,15.632074660942472,46.31791774735422,1525.0,1435.0,1000.0,1262.0,1475.0,1021.47,138.0,293.25,1637230281.2982008,1637230282.424594,15663040-d4ca-45b6-b7d3-100dff664390
0.1302422804630888,0.1489923208467139,0.6625146144507508,0.3254346670423771,0.5254394692277851,-0.6745895348857622,0.2573638707167251,0.2300540299376464,-9.924633160124523,20.13645608209627,-29.17426157663895,-2.093164183078609,0.8899000695785184,-2.020650319595398,-1.0,12.039555555555555,0.03,179.41044888273768,15.613252177409732,46.27700301695107,1525.0,1435.0,1000.0,1173.0,1475.0,1021.47,138.0,293.25,1637230283.2375486,1637230284.579909,a56c1b4a-92a3-476d-850a-2597412a5e26
0.1297650923726981,0.1574869262427197,0.6685328817081247,0.3265024506478565,0.5290608389866706,-0.6844954377523197,0.2616355531639913,0.2335302162343198,-9.708153155720334,20.09286628921065,-29.22045885347173,-2.117720413749092,0.9208865773170613,-2.03872694938982,-1.0,12.042,0.03,179.40739047580934,15.6031641777331,46.271075551116354,1525.0,1435.0,1000.0,1173.0,1475.0,1021.47,138.0,293.25,1637230284.688445,1637230285.6967208,a56c1b4a-92a3-476d-850a-2597412a5e26
0.1183558593225794,0.1412345902735773,0.6564004712920601,0.3254609643866956,0.5224810128494403,-0.6678705487287485,0.2549445107380279,0.2345771812308691,-9.964331583997843,19.98801668314981,-29.327000391122365,-2.079457841261564,0.8620451999384392,-2.0059626118284304,-1.0,12.038,0.03,179.4097279183253,15.604908532156127,46.25193128978273,1525.0,1435.0,1000.0,1173.0,1475.0,1021.47,138.0,293.25,1637230285.804777,1637230286.89177,a56c1b4a-92a3-476d-850a-2597412a5e26
-0.1736273853482667,-0.0273755245028852,-0.2165934937913022,0.3954235284146416,-0.2550397381637819,-0.5222733450113113,-0.6243264341440934,-0.6501307598121072,-16.00134524069087,19.99040983678572,-29.670474299544008,-1.9566469248414504,0.2114704438092023,1.4704344530117386,-1.0,12.049,0.04,179.5158402194508,15.621934296482202,46.38911601871738,1525.0,1435.0,1000.0,1617.0,1475.0,1021.47,138.0,293.25,1637230288.7673893,1637230289.7931054,fa940d83-aedb-40b6-9b11-5a55002ce2fe
-0.1620948820746582,-0.0103780948760018,-0.1938435076527547,0.386342710772059,-0.2392476041802683,-0.5268069070741744,-0.6035076581628807,-0.6338455459649214,-15.738741888451054,20.07052286330519,-28.97115078957927,-1.944442803931384,0.2697260401561497,1.3913869275913946,-1.0,12.047333333333333,0.0344444444444444,179.5073905165376,15.613244398583175,46.33709502126884,1525.0,1435.0,1000.0,1617.0,1475.0,1021.47,138.0,293.25,1637230289.9004507,1637230291.1383584,fa940d83-aedb-40b6-9b11-5a55002ce2fe
-0.158279568375301,-0.0182459461605062,-0.2025117865083385,0.3854584610167555,-0.2440485224856688,-0.5159110178930016,-0.6098453318664524,-0.6381018898419647,-16.04430320635954,20.001916107121566,-28.68936641028092,-1.918958953909475,0.2394402381620391,1.418017406235265,-1.0,12.046666666666669,0.04,179.53988248532926,15.622480521888324,46.34451602180207,1525.0,1435.0,1000.0,1617.0,1475.0,1021.47,138.0,293.25,1637230291.2474265,1637230292.369726,fa940d83-aedb-40b6-9b11-5a55002ce2fe
-0.2325773793964611,-0.0477286112048462,-0.3956897209316312,0.4302401775178821,-0.4206037660699483,-0.5197394810396828,-0.8196668327085783,-0.8460464178570904,-17.194158698124923,20.627519789500948,-29.030888669688974,-2.0346836202530505,0.1222781876782172,2.2158386063612974,-1.0,12.04188888888889,0.03,179.5591754930048,15.61092915418202,46.36577915959822,1525.0,1435.0,1000.0,1706.0,1475.0,1021.47,138.0,293.25,1637230293.2730644,1637230294.2991402,38ee2eb1-41fe-422a-9ae0-ffa84d8b41a9
-0.2377502962488061,-0.0522616243873988,-0.4025955270184154,0.4272581630440533,-0.4266050513542112,-0.5126238428791731,-0.8241428700996742,-0.846048609119761,-17.19262707459482,20.60089197518741,-29.0845842878086,-2.012495307603801,0.1056706015851756,2.239160496329689,-1.0,12.043333333333331,0.03,179.56609068008453,15.608737991550782,46.3555001043523,1525.0,1435.0,1000.0,1706.0,1475.0,1021.47,138.0,293.25,1637230294.4069977,1637230295.4349794,38ee2eb1-41fe-422a-9ae0-ffa84d8b41a9
-0.2309787169065712,-0.0562851256064724,-0.4006100736091097,0.432596533243767,-0.4227656313396538,-0.5139913077819047,-0.8218944420506769,-0.8536617084410321,-17.232785132980506,20.56889450284276,-29.123671345075923,-2.027749937122081,0.0906787390820088,2.227513276737689,-1.0,12.04311111111111,0.03,179.5838901530616,15.610472100690057,46.33157660787443,1525.0,1435.0,1000.0,1706.0,1475.0,1021.47,138.0,293.25,1637230295.5433588,1637230296.6639297,38ee2eb1-41fe-422a-9ae0-ffa84d8b41a9
-0.3028407341493029,-0.0915028143479926,-0.5905096198795258,0.499955654660106,-0.592194297129348,-0.5321348698421594,-1.035784953836267,-1.0592745682334284,-18.776821323665587,21.41749244055025,-29.34723325069109,-2.2251097553593167,-0.0488168503123152,3.0162556349292555,-1.0,12.041999999999998,0.03,179.5958262880911,15.6112370818771,46.34409217061857,1525.0,1435.0,1000.0,1795.0,1475.0,1021.47,138.0,293.25,1637230298.203065,1637230299.3260467,b11b4117-7295-4654-b469-d01b53a99c12
-0.2990889722382367,-0.087210860532423,-0.5900959837679749,0.4993524582671126,-0.5927520212308544,-0.5380271310755976,-1.0353899449349675,-1.0650008295686095,-18.60388706239555,21.3198088927473,-29.662444294072877,-2.2375799453039367,-0.0310508606203853,3.01611952407114,-1.0,12.041111111111112,0.03,179.6011416930852,15.605554174760174,46.30942592494111,1525.0,1435.0,1000.0,1795.0,1475.0,1021.47,138.0,293.25,1637230299.4343965,1637230300.4428346,b11b4117-7295-4654-b469-d01b53a99c12
-0.3043336592326942,-0.0904755723933996,-0.5935639534130673,0.4981614056170951,-0.594303567815223,-0.5345728581623468,-1.0387981987723014,-1.063342449021256,-18.840782193807105,21.306430216520983,-29.807009139724528,-2.2275346719212337,-0.0404109885454795,3.0270430929304992,-1.0,12.040888888888889,0.03,179.6166234552039,15.606587430599612,46.28224594604896,1525.0,1435.0,1000.0,1795.0,1475.0,1021.47,138.0,293.25,1637230300.5516083,1637230301.6715708,b11b4117-7295-4654-b469-d01b53a99c12
-0.36222902186725864,-0.121703727801306,-0.7318033702872343,0.5828609160337977,-0.7152305275338599,-0.5742928895865018,-1.2032802937446532,-1.2289202727298432,-19.886971817454693,22.215045843920223,-29.886537315800293,-2.5092516097666455,-0.1686025836942913,3.61012031984591,-1.0,12.028,0.030000000000000002,179.6462012099497,15.595871243246815,46.38236323835796,1525.0,1435.0,1000.0,1883.0,1475.0,1021.4699999999999,138.0,293.25,1637230303.7187717,1637230304.8562915,dfc74935-e955-4cbf-964b-113ef7c20196
-0.3488042006855011,-0.11233802046166862,-0.715153278829047,0.5779290596946998,-0.7036876110999242,-0.5796033209809243,-1.1881647589851274,-1.2194455335254948,-19.635209724066186,22.322949335860443,-29.862867714586454,-2.508384926204723,-0.133802606089632,3.5514364122951565,-1.0,12.033333333333335,0.030000000000000002,179.63651144824715,15.591436173745755,46.354540462773926,1525.0,1435.0,1000.0,1883.0,1475.0,1021.4699999999999,138.0,293.25,1637230304.9652002,1637230306.0844223,dfc74935-e955-4cbf-964b-113ef7c20196
-0.36507790662701406,-0.11745779436473465,-0.7347344353858126,0.5825048055515581,-0.7201749875292557,-0.579319528126497,-1.2078686450813816,-1.2300159988018404,-19.753917751627885,22.27330885575353,-30.08655607908432,-2.5194684627815325,-0.15198769549068317,3.6276807149582813,-1.0,12.030999999999999,0.030000000000000002,179.6634815885498,15.590137299438592,46.36568391640479,1525.0,1435.0,1000.0,1883.0,1475.0,1021.4699999999999,138.0,293.25,1637230306.1928418,1637230307.3129523,dfc74935-e955-4cbf-964b-113ef7c20196
