raw_voltage_G-,raw_voltage_G0,raw_voltage_G1,raw_voltage_G2,raw_voltage_G3,raw_voltage_G4,raw_voltage_G5,raw_voltage_G6,load_x,load_y,load_z,load_l,load_m,load_n,rpm,voltage,current,roll,pitch,yaw,aileron1_pwm,elevator_pwm,throttle_pwm,rudder_pwm,aileron2_pwm,pbaro,pdiff,Tt,sample_start_time,sample_end_time,uid
0.0424495322297505,0.1624450802593811,-0.0292108635738576,-0.1335512522809042,-0.1133077371140717,0.3258587123824782,-0.1724905711163956,-0.2014177055168249,-12.877392970485602,12.442259614580784,50.57979525092788,1.1161142374726396,0.2669256066315669,0.5154478953107714,-1.0,12.049,0.04,177.89003663093433,-10.681617583540698,100.21830018208658,1525.0,1435.0,1000.0,1528.0,1475.0,1021.47,138.0,293.25,1637229631.6819751,1637229632.695275,79d94753-540f-4f6a-8771-4cde0cc69698
0.02269909425542,0.1059278121620972,-0.0178342915136531,-0.1488534718345844,-0.0988884213693171,0.3856915969400515,-0.1466788779413445,-0.1748095043604792,-13.139967360052797,13.199327616178802,49.34630562899118,1.2903411502870008,0.0703603975720126,0.4343435604144734,-1.0,12.046666666666669,0.04,178.04369311996237,-10.79209987764267,101.38805203972127,1525.0,1435.0,1000.0,1528.0,1475.0,1021.47,138.0,293.25,1637229632.8290827,1637229634.0195217,79d94753-540f-4f6a-8771-4cde0cc69698
0.0062369264661768,0.0842349924086336,-0.0110799078074212,-0.1332313043943968,-0.0846600149865681,0.3924404171558989,-0.1355454719381743,-0.1688116757704054,-13.301906112786918,13.11250125581917,49.399875662490295,1.2699546324475386,-0.011826196596384,0.3874154766266094,-1.0,12.045666666666667,0.04,178.23577625326092,-10.820478459870426,102.33565199460136,1525.0,1435.0,1000.0,1528.0,1475.0,1021.47,138.0,293.25,1637229634.1274583,1637229635.357361,79d94753-540f-4f6a-8771-4cde0cc69698
0.1707725875349672,0.3676743027472468,0.0292597448374619,-0.3410130519938343,-0.1266892773388926,0.2923843244079006,-0.1481928753373083,-0.1725453579304942,-12.841632430103909,13.062726655385449,47.56260479452842,1.5154374500973369,1.0924083834119838,0.4379060082881496,-1.0,12.043,0.0377777777777777,178.58832785091974,-10.893304118667086,103.89136569967496,1627.0,1435.0,1000.0,1528.0,1556.0,1021.47,138.0,293.25,1637229637.1763792,1637229638.315945,3d8ebbaf-e130-4bea-89f1-e4834ea3b3c0
0.1839897660521805,0.3952728660746138,0.0293282279609678,-0.3242758552509948,-0.1317980938510058,0.2516644581918091,-0.1607937099371002,-0.1858995035254832,-12.533031673083263,13.104839200869142,47.75861138293356,1.3866486239883538,1.189942722437611,0.4666731150882799,-1.0,12.036333333333332,0.03,178.73983510708896,-10.908755808980686,104.295595267504,1627.0,1435.0,1000.0,1528.0,1556.0,1021.47,138.0,293.25,1637229638.4241707,1637229639.549929,3d8ebbaf-e130-4bea-89f1-e4834ea3b3c0
0.1610480312957289,0.3627846317071104,0.0086327281777671,-0.3626262258001964,-0.1485626817822344,0.3144220857866132,-0.1632043040594083,-0.1822014324903166,-12.861045717800693,13.077822426476075,47.04811741946639,1.6126944668496532,1.0801200926707784,0.5156617782487575,-1.0,12.0366,0.03,178.87082447499148,-10.976181273573816,104.66991832081524,1627.0,1435.0,1000.0,1528.0,1556.0,1021.47,138.0,293.25,1637229639.663171,1637229640.7513669,3d8ebbaf-e130-4bea-89f1-e4834ea3b3c0
0.3991856987162925,0.7488226483941409,0.0951747067994177,-0.5466000952289244,-0.1662213831443347,0.0997635992602351,-0.1700345063180502,-0.2076792257572222,-11.966668507076236,13.240063069591884,46.52136483830523,1.5510791264215351,2.554475949763124,0.4763855520685293,-1.0,12.037,0.03,179.05682115082965,-11.093206680200437,105.4374716053161,1729.0,1435.0,1000.0,1528.0,1636.0,1021.47,138.0,293.25,1637229642.7077277,1637229643.753436,56b34ee4-1fe4-405b-961a-11b3ecab3f8b
0.3831651093819356,0.7406863454027056,0.0924008803879588,-0.5331210297315196,-0.1667791067016235,0.0939896789960978,-0.1733260622586159,-0.1920766520464241,-11.858260664267991,13.290542573789338,46.30731545102632,1.5079158530017305,2.5232551457997268,0.4844995856676105,-1.0,12.025777777777778,0.03,179.13754791553993,-11.150902616211871,105.63219574509372,1729.0,1435.0,1000.0,1528.0,1636.0,1021.47,138.0,293.25,1637229643.8614216,1637229644.982128,56b34ee4-1fe4-405b-961a-11b3ecab3f8b
0.3745362780843025,0.7288388233861415,0.0815258118987894,-0.5423799027479629,-0.1746683266220243,0.1134524900424144,-0.1789142597229469,-0.2088001524194633,-12.091018041446604,13.24919366264732,46.15028629354446,1.571579329003146,2.482308722804356,0.5161432940406181,-1.0,12.023666666666664,0.03,179.27049678882432,-11.050797087006442,105.78173059441264,1729.0,1435.0,1000.0,1528.0,1636.0,1021.47,138.0,293.25,1637229645.0910378,1637229646.2102234,56b34ee4-1fe4-405b-961a-11b3ecab3f8b
0.6159654949478601,1.1611295746356358,0.1568979738747574,-0.6444192951707665,-0.2064580399419429,-0.2107176714746415,-0.2302900549180714,-0.2537385657079045,-10.590551365604078,13.571699929864115,47.00323010888684,1.0800837860415171,4.102829212685724,0.5833821513737106,-1.0,12.008333333333333,0.0366666666666666,179.3245721553932,-11.211136252091183,105.9819029484182,1830.0,1435.0,1000.0,1528.0,1717.0,1021.47,138.0,293.25,1637229648.3498132,1637229649.579821,b4357efa-2074-4703-8925-97842eadf5cb
0.6294839969717846,1.1997949584045633,0.1381884754517743,-0.6254084637757723,-0.2232500224370225,-0.2564778779111165,-0.2614634254912198,-0.2872951386499611,-10.735582365237375,12.950558614142642,48.18784354260521,0.9294373146093712,4.234837948126734,0.6828102831347528,-1.0,12.004333333333337,0.0322222222222222,179.3821081511416,-11.250970769104343,105.90802230998598,1830.0,1435.0,1000.0,1528.0,1717.0,1021.47,138.0,293.25,1637229649.687142,1637229650.9263852,b4357efa-2074-4703-8925-97842eadf5cb
0.6243702503520477,1.2019529880944426,0.1429570693072326,-0.624913743336912,-0.2188950639486647,-0.2603266108149323,-0.2546858192904342,-0.279063505191378,-10.46790874237292,12.784161136960046,48.051178759969744,0.9189200598652902,4.242487170710176,0.6610568759518491,-1.0,12.003666666666668,0.0366666666666666,179.42811326975118,-11.291209121052182,105.83490817056062,1830.0,1435.0,1000.0,1528.0,1717.0,1021.47,138.0,293.25,1637229651.043786,1637229652.043187,b4357efa-2074-4703-8925-97842eadf5cb
0.6497275085967258,1.256115206664732,0.1171094723860513,-0.6481584563082428,-0.260997742038869,-0.297471683985641,-0.3014025956881413,-0.3307269321879893,-10.517645158242264,13.229417543484685,46.98828881832617,0.8893546521415798,4.45663168269946,0.8247832872081314,-1.0,11.998111111111111,0.0655555555555555,179.4582632425674,-11.399202380384116,105.62544903601358,1932.0,1435.0,1000.0,1528.0,1798.0,1021.47,138.0,293.25,1637229654.289663,1637229655.3145008,85d142bb-3d69-4a8c-b1e4-e0829513eb74
0.6543021587201046,1.2694556546301738,0.110165317251092,-0.666087256656109,-0.2719549904239597,-0.2953898057941326,-0.3063881437884299,-0.3297407801252237,-10.294772482354777,13.037074025199656,46.75080640313109,0.9329293827907008,4.508957770780469,0.8576283094190127,-1.0,11.971111111111112,0.17,179.5299149626005,-11.416762417285264,105.30826188114736,1932.0,1435.0,1000.0,1528.0,1798.0,1021.47,138.0,293.25,1637229655.4232864,1637229656.450395,85d142bb-3d69-4a8c-b1e4-e0829513eb74
0.6668892948384664,1.2869461600731802,0.109261344458015,-0.6740312645877312,-0.2776253664627322,-0.3074016897788783,-0.3120996095968459,-0.3325759677800124,-10.230267725896114,13.05122823217961,46.41378357490191,0.9238843760269764,4.578009286745462,0.8763263501028992,-1.0,11.968444444444446,0.1788888888888888,179.55763338807222,-11.398822925430226,104.99334690254504,1932.0,1435.0,1000.0,1528.0,1798.0,1021.47,138.0,293.25,1637229656.558513,1637229657.6797297,85d142bb-3d69-4a8c-b1e4-e0829513eb74
-0.2111285663295636,-0.2697498440429248,-0.0941873401912405,0.0874564228005439,-0.0762722406812321,0.5273213760667259,-0.1530414563076184,-0.1761749456463437,-13.527373639048648,13.76196188134448,47.76385573604093,1.0750255849860426,-1.3558176836491007,0.4705572786115106,-1.0,12.000222222222222,0.1022222222222222,179.93040993477337,-11.416327372180628,104.55349182691508,1423.0,1435.0,1000.0,1528.0,1394.0,1021.47,138.0,293.25,1637229659.7063358,1637229660.9572134,eb25e7b7-ef7c-4e6a-9f97-99decfc16b04
-0.2212914139119039,-0.2889524217501615,-0.1037338421022138,0.0879221064018673,-0.0812030020954141,0.5456610664222507,-0.1578626453927033,-0.1800647687729161,-13.76949369642829,13.829870529065118,47.702417199131446,1.1150300017007044,-1.4262422119208018,0.4945471571424489,-1.0,12.037,0.03,179.84655797906282,-11.401726135282434,104.8065822098802,1423.0,1435.0,1000.0,1528.0,1394.0,1021.47,138.0,293.25,1637229661.0656197,1637229662.185581,eb25e7b7-ef7c-4e6a-9f97-99decfc16b04
-0.2121558084029212,-0.2590939201466032,-0.102049165311415,0.0889356512160401,-0.0827370166961187,0.5168709028460133,-0.1649574632285439,-0.1890223188898723,-13.798011851608976,13.583584712475592,47.88351241376326,1.046514090772671,-1.3156800412983702,0.5083999737608994,-1.0,12.034888888888888,0.03,179.7746967998952,-11.363071059129702,104.97703033952776,1423.0,1435.0,1000.0,1528.0,1394.0,1021.47,138.0,293.25,1637229662.294327,1637229663.4145052,eb25e7b7-ef7c-4e6a-9f97-99decfc16b04
-0.4250003623300666,-0.6376531903482706,-0.1556164099846002,0.2685660110962047,-0.0464685283452889,0.7164434390331654,-0.1387696417560527,-0.1561231825635024,-14.55120286781362,14.611974195902445,46.92610359683156,1.0933964180439617,-2.7471858545813657,0.448203324207084,-1.0,12.03077777777778,0.03,179.7820005488477,-11.384429440119284,105.16479982891047,1321.0,1435.0,1000.0,1528.0,1314.0,1021.47,138.0,293.25,1637229664.212096,1637229665.2563124,26c8b698-a6be-4dfe-9350-b3d5654543f6
-0.4216447046378859,-0.6382147493686433,-0.1587118319750399,0.2755512557916087,-0.0464274382726405,0.7140602380596187,-0.1440565131606148,-0.1649711598685605,-14.867858303517831,14.569550944483169,47.39314201241282,1.0717637387423682,-2.7522471685489247,0.4603421189559624,-1.0,12.021333333333336,0.03,179.78927545922366,-11.39779251550294,105.13941732813493,1321.0,1435.0,1000.0,1528.0,1314.0,1021.47,138.0,293.25,1637229665.365518,1637229666.3735416,26c8b698-a6be-4dfe-9350-b3d5654543f6
-0.4192478064339655,-0.6307227292217396,-0.1528086146141999,0.2733324134975756,-0.0437840022485382,0.7082528977666754,-0.138920303204313,-0.1722440330030979,-14.606493868844153,14.57312995538703,47.36177200745539,1.0641632644396009,-2.725071899364216,0.4424062049765571,-1.0,12.021,0.03,179.78497699350595,-11.392563436510862,105.10925521276012,1321.0,1435.0,1000.0,1528.0,1314.0,1021.47,138.0,293.25,1637229666.4810357,1637229667.7149734,26c8b698-a6be-4dfe-9350-b3d5654543f6
-0.5730191091981788,-0.9167070006968894,-0.1704908732270681,0.3935471000169205,-7.828267259049673e-05,0.8485056446190821,-0.1054870015225293,-0.1305790987066028,-15.605744948851694,16.0078215767476,43.25294068013832,1.1156273500977911,-3.770095502947998,0.3187455605017954,-1.0,12.009000000000002,0.06,179.8147930459628,-11.373923850265896,105.00779047590989,1220.0,1435.0,1000.0,1528.0,1233.0,1021.47,138.0,293.25,1637229669.741716,1637229670.8794458,6b354185-138e-48d7-9e0c-26ac45f5f6eb
-0.5741148342168172,-0.91237888579295,-0.1717920464436665,0.3914378300814258,-0.0024614839428627,0.8450952018924386,-0.1084591549700253,-0.1352770185263999,-15.632234970886625,16.025548728037055,43.0784492778559,1.112733202469245,-3.751950928353374,0.3282302250088968,-1.0,11.981000000000002,0.1222222222222222,179.88792464031607,-11.357890645235464,104.59723084054002,1220.0,1435.0,1000.0,1528.0,1233.0,1021.47,138.0,293.25,1637229670.9877217,1637229672.0545824,6b354185-138e-48d7-9e0c-26ac45f5f6eb
-0.5812732057846128,-0.9204439718559672,-0.1714940092154378,0.3947545885171,-0.000337421541907,0.8515534025769915,-0.1068813112835782,-0.130996021773872,-15.732256347308375,16.09868541683702,43.31406172708953,1.1202507292840418,-3.783968434733788,0.3219699564492921,-1.0,11.983,0.13,179.90932741753528,-11.365248656246331,104.27174424692234,1220.0,1435.0,1000.0,1528.0,1233.0,1021.47,138.0,293.25,1637229672.1652422,1637229673.136224,6b354185-138e-48d7-9e0c-26ac45f5f6eb
-0.5955910448896541,-0.9594813780021668,-0.1347154594122939,0.4396908020740497,0.0436000431190299,0.8440542635140612,-0.0742040600677289,-0.0997892330878575,-15.996034036237006,16.781226870431325,42.95367047219414,1.0081998227353142,-3.9285108203931673,0.1601644671564114,-1.0,11.985,0.12,179.91776953134936,-11.346100790090636,103.62349099279643,1118.0,1435.0,1000.0,1528.0,1152.0,1021.47,138.0,293.25,1637229675.271273,1637229676.5212944,9904fe58-af97-4a1a-83d6-0ac71c93db34
-0.602652992720239,-0.9617834971029724,-0.1327053523081983,0.455935467090999,0.0455646775217335,0.8335002442546176,-0.0768365387467555,-0.1048038172806435,-15.94545901214132,17.024896376987794,43.2533956038509,0.9496281885619372,-3.942028083982109,0.1587186313624421,-1.0,11.975444444444443,0.14,179.91240555612117,-11.359511487071,103.3154433899496,1118.0,1435.0,1000.0,1528.0,1152.0,1021.47,138.0,293.25,1637229676.6288726,1637229677.756026,9904fe58-af97-4a1a-83d6-0ac71c93db34
-0.6027406507043015,-0.9703153623141284,-0.1386737651755821,0.4520177038050796,0.0439287604889011,0.8477386374236473,-0.0771899100832941,-0.0999946813807357,-16.123729637910245,16.794113260940176,43.555446403959344,0.988592608747631,-3.9753429977747374,0.1689148955878304,-1.0,11.979,0.14,179.89471991963032,-11.348818446470393,103.16041327398844,1118.0,1435.0,1000.0,1528.0,1152.0,1021.47,138.0,293.25,1637229677.8643863,1637229678.8654206,9904fe58-af97-4a1a-83d6-0ac71c93db34
0.0410415259991097,0.1789581986075496,-0.0489087068354153,-0.1093795640855883,-0.1261967472815518,0.2866460154853161,-0.1984882852535711,-0.225522007508117,-12.917796897162868,11.737808263750926,50.30262917283587,0.9677574309223144,0.3273655878998488,0.5989487020693783,-1.0,11.988555555555555,0.12,179.53670265281568,-11.323967277493994,102.82201306938,1525.0,1435.0,1000.0,1528.0,1475.0,1021.47,138.0,293.25,1637229680.7087777,1637229681.7336264,d7dac7d8-c55e-4c22-abba-566c7007b7ad
0.0231855963813578,0.135646394443948,-0.0460422911540497,-0.0999782462783153,-0.1182680831929434,0.3257239380561118,-0.1867990933303313,-0.2069297492887804,-13.0542237465009,12.301492189898315,51.105144128704254,1.038302380008789,0.1578066865573306,0.5632462387326457,-1.0,12.050666666666665,0.04,179.37477859925224,-11.324311063682217,103.3550820133428,1525.0,1435.0,1000.0,1528.0,1475.0,1021.47,138.0,293.25,1637229681.8421173,1637229683.0761635,d7dac7d8-c55e-4c22-abba-566c7007b7ad
0.0214105223247056,0.1348180265733719,-0.0502104278427624,-0.1056058880371504,-0.1207400380184415,0.3360062179676429,-0.1867990931462614,-0.2119131056145187,-13.093192418006208,12.09508981881565,51.701067887428735,1.0726021831317976,0.1501191019031341,0.5730431406956835,-1.0,12.048222222222222,0.04,179.2616964695337,-11.283349660319743,103.82674224429783,1525.0,1435.0,1000.0,1528.0,1475.0,1021.47,138.0,293.25,1637229683.184441,1637229684.3049772,d7dac7d8-c55e-4c22-abba-566c7007b7ad
0.0361765083644037,0.1333190752377316,-0.08732919905017,-0.5022363709584936,-0.1976862148261743,0.7240899530164288,-0.1161248454306122,-0.1420277788031335,-13.06935776503254,11.309538873886686,54.87723054282004,2.8328418653611056,0.1626454250599996,0.6289782201146523,-1.0,12.051333333333332,0.04,179.167016387259,-11.160963674586776,104.5396523458368,1525.0,1535.0,1000.0,1528.0,1475.0,1021.47,138.0,293.25,1637229686.2386646,1637229687.376981,3f045ed9-1917-4ab4-bfc9-7d6182a175a5
0.0179129691403685,0.1108742512448694,-0.0936537227003103,-0.5125449521331574,-0.201565081182666,0.7531091229171086,-0.113429362823315,-0.1363606903319297,-13.102618642057813,11.405914498065696,54.51201985094752,2.921554455572633,0.0828058545866249,0.6356604807597042,-1.0,12.042555555555555,0.0322222222222222,179.14013124486598,-11.10859528612795,104.78613262350518,1525.0,1535.0,1000.0,1528.0,1475.0,1021.47,138.0,293.25,1637229687.4851687,1637229688.605259,3f045ed9-1917-4ab4-bfc9-7d6182a175a5
0.0360532393515297,0.1211910468561709,-0.0858598323218792,-0.4892646310000246,-0.1918027206916688,0.7210043926064248,-0.1140473514449503,-0.143111450748794,-13.143672880612591,11.2842718020976,54.461951189456,2.79644919179174,0.1198601620672393,0.6140228005946454,-1.0,12.04577777777778,0.0344444444444444,179.1367965947312,-11.113763083144974,104.95484512619365,1525.0,1535.0,1000.0,1528.0,1475.0,1021.47,138.0,293.25,1637229688.713405,1637229689.92178,3f045ed9-1917-4ab4-bfc9-7d6182a175a5
0.0682856245795205,0.1555798173653416,-0.1093401182937215,-0.9185111146457228,-0.2681369379435472,1.1004976516878735,-0.0371800699764462,-0.0581653896177944,-13.10755445930816,10.696568105542315,57.22027769397556,4.612888870833896,0.275487281864207,0.6451105588303083,-1.0,12.047888888888888,0.0388888888888888,179.16300630730632,-10.983323545470654,105.13316391049482,1525.0,1636.0,1000.0,1528.0,1475.0,1021.47,138.0,293.25,1637229690.7442825,1637229691.765382,c5b0828e-f6e9-4ed5-a565-4345fde1d84d
0.0757672327177483,0.1795235925265733,-0.1032128248249282,-0.926387186234416,-0.2674795022214928,1.0858500043438537,-0.0335773265148882,-0.0529716541370592,-12.768825531790169,10.478138894768994,57.48023574068916,4.5968091903311485,0.3619440010319005,0.6342547108195149,-1.0,12.038,0.03,179.17349899569126,-10.988523880749971,105.17982169162508,1525.0,1636.0,1000.0,1528.0,1475.0,1021.47,138.0,293.25,1637229691.873067,1637229693.1108334,c5b0828e-f6e9-4ed5-a565-4345fde1d84d
0.0790675554822001,0.1867816725743946,-0.1047249249736828,-0.935919996993982,-0.2728441709744894,1.0885191897646769,-0.0374430433585036,-0.0574290622941532,-12.830553066094168,10.667576581473549,57.60004097041757,4.625479430287566,0.3896223223689743,0.6499694019370418,-1.0,12.041,0.03,179.17530064781232,-10.979053538874536,105.24697231699513,1525.0,1636.0,1000.0,1528.0,1475.0,1021.47,138.0,293.25,1637229693.2191913,1637229694.2273395,c5b0828e-f6e9-4ed5-a565-4345fde1d84d
0.0880316790690486,0.1804423576349395,-0.1140062616936904,-1.2417539587205149,-0.3220707056627688,1.3850135219151811,0.0241235364327805,0.0024555802439037,-13.083413993392137,11.295716515289024,59.02516144015885,5.98543002671254,0.3920818901202863,0.6401382501879823,-1.0,12.036333333333332,0.03,179.23142962459167,-10.91012554650049,105.27462471730485,1525.0,1737.0,1000.0,1528.0,1475.0,1021.47,138.0,293.25,1637229696.2850206,1637229697.2322931,f89ee293-a711-47b7-9e35-af02561f6c0e
0.0913325496383564,0.1749911275065865,-0.1176632430818763,-1.2326320446518224,-0.3240293139519037,1.3814250239480712,0.0199597826096766,4.4986173165877226e-05,-13.039279028534972,11.329473428549738,58.91913985863894,5.956836390741313,0.3709093894978547,0.6530069703972144,-1.0,12.022666666666668,0.03,179.2854017794131,-10.887657544361996,105.11118967411508,1525.0,1737.0,1000.0,1528.0,1475.0,1021.47,138.0,293.25,1637229697.3406577,1637229698.4431975,f89ee293-a711-47b7-9e35-af02561f6c0e
0.0940044742532703,0.1789713472956442,-0.1180182578698514,-1.2307271256697816,-0.3248735698182031,1.3759496876330608,0.0174133182153235,0.0018584105213832,-13.06673288263822,11.343079358839866,58.93334837475382,5.9402965117851725,0.3856492039744001,0.6587599904630227,-1.0,12.022666666666666,0.03,179.31089811667485,-10.904379934452432,104.99999495333716,1525.0,1737.0,1000.0,1528.0,1475.0,1021.47,138.0,293.25,1637229698.5564723,1637229699.5541525,f89ee293-a711-47b7-9e35-af02561f6c0e
0.0940965151258231,0.1708191558942111,-0.1068287166742585,-1.3133667549477352,-0.3307773354608875,1.4571297424838738,0.0410020796685856,0.0162825306068804,-13.221313850978056,12.356785530043762,58.64299576929402,6.3162867403256655,0.3696422598552549,0.615318515405292,-1.0,12.02077777777778,0.03,179.3481909495431,-10.861102717506368,104.77083679431388,1525.0,1837.0,1000.0,1528.0,1475.0,1021.47,138.0,293.25,1637229701.1751926,1637229702.3227806,355dcb52-de3c-41a2-9d6f-a2572c318308
0.0943183993707899,0.1735392923143755,-0.1114860947140786,-1.322399369631082,-0.3335484236382338,1.4702061216239326,0.0402306895502027,0.0188640580095618,-13.415776392372358,12.105732653572131,59.68091409232933,6.364217872471857,0.3728343369886248,0.6282205264729953,-1.0,12.013777777777776,0.03,179.3795430356533,-10.868717240066072,104.5691511739522,1525.0,1837.0,1000.0,1528.0,1475.0,1021.47,138.0,293.25,1637229702.431113,1637229703.555558,355dcb52-de3c-41a2-9d6f-a2572c318308
0.0924693639852102,0.1637873429662127,-0.1138145099846813,-1.325029111234544,-0.3345345762371997,1.4831219773503932,0.0430932701374866,0.0212883488055642,-13.3156277983619,12.076400050660483,59.81620402385622,6.398935166954311,0.3345263703230472,0.6277317282505018,-1.0,12.010777777777776,0.03,179.41185590170673,-10.863416064632757,104.37608373450328,1525.0,1837.0,1000.0,1528.0,1475.0,1021.47,138.0,293.25,1637229703.663965,1637229704.7846997,355dcb52-de3c-41a2-9d6f-a2572c318308
0.0286434010866285,0.1833323313979178,-0.013925503704266,0.2680592386932421,-0.056151995138123,-0.0806414432215174,-0.2674077323168691,-0.2907877613156616,-12.82254879077559,12.680647359064116,47.96652130825449,-0.7013283152498415,0.3195649108597053,0.5542093341576865,-1.0,12.016777777777778,0.0311111111111111,179.41725478679066,-11.30565108173348,104.08320598180302,1525.0,1334.0,1000.0,1528.0,1475.0,1021.47,138.0,293.25,1637229706.7186625,1637229707.743619,f679eb6b-e1ed-4900-9820-788e8040269f
0.0367517638285961,0.1978780760090538,-0.0131447998519467,0.2474048293840597,-0.0608088252298777,-0.0763818134960164,-0.2665311525857071,-0.2881854146956948,-12.760926796024812,12.659091924784825,47.90072747743934,-0.6452485601717902,0.3768594073896163,0.5597779379461566,-1.0,12.049555555555555,0.04,179.31910041495814,-11.32423251650676,104.36511976306558,1525.0,1334.0,1000.0,1528.0,1475.0,1021.47,138.0,293.25,1637229707.85226,1637229708.9727776,f679eb6b-e1ed-4900-9820-788e8040269f
0.0290893610406663,0.1840861899321295,-0.0191006117052334,0.2607299365321127,-0.0626490951486148,-0.0765998627290105,-0.2727915765832322,-0.2982080098433536,-12.888846563604698,12.763158121322476,47.64552968284053,-0.6755084868038869,0.3262822377695974,0.577272303191174,-1.0,12.05211111111111,0.04,179.27642539302389,-11.31778548197644,104.59292933918276,1525.0,1334.0,1000.0,1528.0,1475.0,1021.47,138.0,293.25,1637229709.0820162,1637229710.1170712,f679eb6b-e1ed-4900-9820-788e8040269f
0.0071573354067291,0.1682420114929315,0.0113912155983129,0.6029773235414766,-0.003808677539582,-0.3922869491312133,-0.340494223524694,-0.3650165461921095,-13.091038625669214,14.59444689730016,45.20024486607063,-2.1437592220808783,0.2497865967172824,0.5487018123798663,-1.0,12.048333333333334,0.0388888888888888,179.19752911901116,-11.411202074118442,105.07324493763602,1525.0,1234.0,1000.0,1528.0,1475.0,1021.47,138.0,293.25,1637229712.2483923,1637229713.3347695,a116ee2e-079e-4acb-8c07-1b2420e0689c
-0.0100674570024807,0.1417342406548236,0.0077884727429769,0.6071454598723885,-0.0030066070788016,-0.371630342321906,-0.3367336957725884,-0.3615584387416902,-13.067531285319928,14.715710001092017,44.989257455933306,-2.1061406872208663,0.1513304114612501,0.543664303337668,-1.0,12.045,0.0355555555555555,179.19271763019586,-11.4184939651036,105.21231745496628,1525.0,1234.0,1000.0,1528.0,1475.0,1021.47,138.0,293.25,1637229713.4630167,1637229714.4102604,a116ee2e-079e-4acb-8c07-1b2420e0689c
-0.0093179812419491,0.1343578222534268,0.0088666655673,0.6024645244317303,-0.0042425848026447,-0.3613612090676682,-0.3363260864161465,-0.3562858107330367,-13.159816954625828,15.116702459576269,44.81037339444882,-2.0698685852728738,0.1265544534242044,0.5418827025061489,-1.0,12.044666666666666,0.0333333333333333,179.1904591143103,-11.417943565692983,105.32176971859592,1525.0,1234.0,1000.0,1528.0,1475.0,1021.47,138.0,293.25,1637229714.5185406,1637229715.6393316,a116ee2e-079e-4acb-8c07-1b2420e0689c
-0.0234035224300979,0.1405990699219362,0.025356226689681,0.8639005754820447,0.0304239533836891,-0.6217377862633372,-0.404756845035182,-0.431588409047233,-13.539358039587086,16.66476799312018,42.67305942994903,-3.234153567261062,0.1404754158425794,0.5687515742648585,-1.0,12.04577777777778,0.03,179.2084467969445,-11.493843189071107,105.60462530705404,1525.0,1133.0,1000.0,1528.0,1475.0,1021.47,138.0,293.25,1637229717.7759178,1637229718.809592,54d81b6c-dfdf-492a-8aab-d7f25ad8a360
-0.0168017810530906,0.1577334642033054,0.0411209656250745,0.8594765874403278,0.0400252409441129,-0.6340372995808837,-0.3911972495114253,-0.4150292661013522,-13.124377145475998,16.641078662606247,42.84298287266973,-3.25094886589689,0.2018403383312227,0.5174532883944155,-1.0,12.041,0.03,179.22080336806292,-11.452121832299728,105.65741887478868,1525.0,1133.0,1000.0,1528.0,1475.0,1021.47,138.0,293.25,1637229718.9230068,1637229720.1442044,54d81b6c-dfdf-492a-8aab-d7f25ad8a360
-0.0217599353882639,0.1413112909685086,0.0281503248543987,0.8623802574912466,0.0320264509372344,-0.6184232165887593,-0.3998945654618301,-0.4254523493360072,-13.336498983272266,16.639434519280563,43.07289842266827,-3.2231387822210813,0.138531013328446,0.556626448927613,-1.0,12.04,0.03,179.21104985792817,-11.492138203099538,105.7417102393358,1525.0,1133.0,1000.0,1528.0,1475.0,1021.47,138.0,293.25,1637229720.252283,1637229721.3732564,54d81b6c-dfdf-492a-8aab-d7f25ad8a360
0.0052244770359747,0.1984445656558781,0.0500615314610525,0.9642114233474436,0.0477342122424284,-0.7665778537236809,-0.4279725166948273,-0.4538754538165339,-13.100279120826496,17.307686260617917,43.26665858965054,-3.780097448298971,0.3382891232240271,0.5533117538133124,-1.0,12.039555555555555,0.03,179.23113516754745,-11.510444627894987,105.86173715362044,1525.0,1033.0,1000.0,1528.0,1475.0,1021.47,138.0,293.25,1637229723.1969097,1637229724.2431698,959b5de2-11cc-498f-bcfd-49241f40d414
-0.0285282269683709,0.1424837163216861,0.0427903019154246,0.9661574303427448,0.0472477098629975,-0.7200051519420202,-0.4232389857301723,-0.452626328340717,-13.305707689777048,17.89493491776702,42.33211661351768,-3.676553579205989,0.1374481162347997,0.5486893606847422,-1.0,12.035777777777778,0.03,179.24510366331003,-11.535665480860214,105.873821276082,1525.0,1033.0,1000.0,1528.0,1475.0,1021.47,138.0,293.25,1637229724.356419,1637229725.4708478,959b5de2-11cc-498f-bcfd-49241f40d414
-0.0171441949829964,0.1653076609125518,0.051119453604141,0.976595850442818,0.0536396203509048,-0.7472667919865463,-0.4242470518587182,-0.4439564040126025,-13.389091194390126,17.802210973535548,43.03157037287815,-3.7614910609791257,0.2166839705459903,0.5338845543913194,-1.0,12.036111111111111,0.03,179.25662695134974,-11.528579918506235,105.8332195960158,1525.0,1033.0,1000.0,1528.0,1475.0,1021.47,138.0,293.25,1637229725.5838523,1637229726.5813534,959b5de2-11cc-498f-bcfd-49241f40d414
0.0069459448975646,0.1349813738914233,-0.0508703913667826,-0.1237445154579489,-0.1270949045530828,0.3340576825224258,-0.1894374299514729,-0.207327244384168,-13.016791240167915,12.40605945438947,49.05713359386924,1.1107854567860176,0.1758208167899634,0.5824122201610268,-1.0,12.038000000000002,0.0333333333333333,179.32061519913407,-11.212506843384634,105.76063214006648,1525.0,1435.0,1000.0,1528.0,1475.0,1021.47,138.0,293.25,1637229728.8372872,1637229729.8624914,04d0d27f-7c43-4611-95d0-f59d861f59b2
0.0255068891366474,0.1464885899464127,-0.0407296696389868,-0.124785454433948,-0.1212791345727963,0.3278584097240184,-0.1823794872611017,-0.206951115807064,-12.862673890130514,12.518631847906038,49.70608118009381,1.100635187350181,0.2129104012299884,0.5529791114961746,-1.0,12.049,0.04,179.3076150724138,-11.219750258999431,105.8135979803502,1525.0,1435.0,1000.0,1528.0,1475.0,1021.47,138.0,293.25,1637229729.97017,1637229731.2034273,04d0d27f-7c43-4611-95d0-f59d861f59b2
0.025907376522837,0.139696192804603,-0.0389419949812598,-0.1278403356630509,-0.1164535630987542,0.3355854593827994,-0.1776870459805968,-0.2090203921173017,-13.079965576037916,12.401036647314491,49.48618863364885,1.124054993495242,0.1914090774017728,0.5360261754725562,-1.0,12.049555555555555,0.04,179.32799939253675,-11.20486490520451,105.82607445923408,1525.0,1435.0,1000.0,1528.0,1475.0,1021.47,138.0,293.25,1637229731.3120582,1637229732.428873,04d0d27f-7c43-4611-95d0-f59d861f59b2
0.0784364180550259,0.17517137418498,0.1085206341918469,-0.1321662563751585,0.0147704300022679,0.2983352056619167,-0.0288569447324981,-0.0549176614753918,-11.680018325222113,12.144713826838824,49.70206340229399,1.0564894858844989,0.3225174119182592,-0.0499725360250069,-1.0,12.049,0.04,179.31413866198105,-11.22920257676456,105.82877466068597,1525.0,1435.0,1000.0,1439.0,1475.0,1021.47,138.0,293.25,1637229734.3667543,1637229735.3964794,3e801b4d-d69d-48b5-ab88-7b4b3063e51c
0.0834066251954062,0.1864924012745443,0.1093884485843516,-0.1161905889243257,0.0203323292091781,0.2815180242915951,-0.0307635054668659,-0.0519066096790051,-11.829127397976984,11.697539145208877,50.98097175969226,0.979869486219317,0.3527790558970609,-0.0526234718117194,-1.0,12.049,0.04,179.31560639374274,-11.204729250058495,105.83507437183044,1525.0,1435.0,1000.0,1439.0,1475.0,1021.47,138.0,293.25,1637229735.5057418,1637229736.508412,3e801b4d-d69d-48b5-ab88-7b4b3063e51c
0.0981331648152166,0.2113697335562865,0.1072715084435348,-0.1421724147397422,0.0087351788752745,0.2790460694446636,-0.0352735085684655,-0.0600850992014634,-11.583913071996374,11.733837139520793,50.66651021437141,1.0331318290353917,0.4502010070143474,-0.0250254125962428,-1.0,12.046333333333331,0.04,179.29773254759468,-11.19327141799832,105.86392509088458,1525.0,1435.0,1000.0,1439.0,1475.0,1021.47,138.0,293.25,1637229736.6173751,1637229737.763324,3e801b4d-d69d-48b5-ab88-7b4b3063e51c
0.153583407096877,0.2187105407269339,0.2857551914086,-0.1463027490374689,0.1735118991356982,0.2652103545843392,0.1488307012940501,0.1178079966040904,-10.56578092962362,11.923163117360833,50.56982234175436,1.0219976023807045,0.4832110074007454,-0.7535253815058368,-1.0,12.045,0.0377777777777777,179.28570989683564,-11.24113444292588,105.83461523133622,1525.0,1435.0,1000.0,1351.0,1475.0,1021.47,138.0,293.25,1637229738.674636,1637229739.805256,15d07c6c-a92f-4aaf-9a57-93fc5a23e424
0.1555968011622928,0.2347629066117756,0.2901928761038848,-0.1476039224302404,0.1764429625404724,0.255663853675745,0.149296384213169,0.1247795448527653,-10.688084024684594,11.800798494985804,51.29887970836256,1.0029449174563396,0.5382606060379366,-0.7613057903318964,-1.0,12.048333333333334,0.04,179.28524847961174,-11.220502148990564,105.82558268561382,1525.0,1435.0,1000.0,1351.0,1475.0,1021.47,138.0,293.25,1637229739.9139607,1637229741.034415,15d07c6c-a92f-4aaf-9a57-93fc5a23e424
0.1537066761537566,0.2268599927446948,0.2932882981147709,-0.1378245786963305,0.1823187859315075,0.2611013872991806,0.1575554087950477,0.136517495316764,-10.408255178476516,11.629103730719905,52.29492149562088,0.992419557577111,0.4968006959797644,-0.7844868866887879,-1.0,12.044333333333334,0.04,179.302330023816,-11.232804647778094,105.8263985137647,1525.0,1435.0,1000.0,1351.0,1475.0,1021.47,138.0,293.25,1637229741.143155,1637229742.2629025,15d07c6c-a92f-4aaf-9a57-93fc5a23e424
0.214820718273779,0.2540339635839012,0.4885190291866546,-0.140317352395336,0.3585386987846227,0.2312976773939093,0.3527587514821795,0.3260504639688095,-9.2067225132393,11.865297666068392,53.01035944962689,0.9430755397150378,0.5965620536973794,-1.563535141916974,-1.0,12.04577777777778,0.0377777777777777,179.2899582744994,-11.223176547505576,105.79949819317356,1525.0,1435.0,1000.0,1262.0,1475.0,1021.47,138.0,293.25,1637229743.2656038,1637229744.311268,48d2fa4b-9177-471d-91a3-c545a7b029aa
0.2267142613751345,0.2728135879432597,0.4909109959781503,-0.1630262484048622,0.3552427592161872,0.2311059255092768,0.3551244208812603,0.3306152528486459,-9.108521607294016,11.723702296836858,52.64592757948474,0.9930421437678706,0.672477159293984,-1.563988664909707,-1.0,12.045,0.04,179.28732030365995,-11.221236109735123,105.76337559938308,1525.0,1435.0,1000.0,1262.0,1475.0,1021.47,138.0,293.25,1637229744.4199631,1637229745.5400765,48d2fa4b-9177-471d-91a3-c545a7b029aa
0.2091777364214801,0.2494593132613864,0.4768084726595753,-0.1505760755729758,0.3473897009536577,0.2402963159558314,0.3454858794262789,0.3298855003073439,-9.128526602038164,11.738912360330811,52.237949527700685,0.984933152396868,0.586215269986933,-1.5236583496018794,-1.0,12.045,0.0389999999999999,179.29824815098604,-11.245573411326593,105.77584752480752,1525.0,1435.0,1000.0,1262.0,1475.0,1021.47,138.0,293.25,1637229745.6485512,1637229746.604624,48d2fa4b-9177-471d-91a3-c545a7b029aa
0.2647583683856755,0.2834815628816501,0.6428655334017973,-0.157835252356147,0.4908885336081698,0.2035347542647938,0.504667270285804,0.4755894789724497,-8.02577918194554,12.29569047137211,52.04043469366095,0.9311830314192584,0.71919532006239,-2.167786248429882,-1.0,12.042333333333334,0.0366666666666666,179.30202797767274,-11.212967881153608,105.72067097996243,1525.0,1435.0,1000.0,1173.0,1475.0,1021.47,138.0,293.25,1637229747.7713344,1637229748.8161323,b677c898-d73e-4a26-adee-b0c5ae3e34e5
0.2584683611691706,0.278769947020663,0.6254878894121623,-0.1450125333443737,0.4769602304860664,0.1899242105890297,0.4819830319507056,0.4527797801369002,-8.275856699900485,12.37052052994715,50.97469755615473,0.8710084094941997,0.7100603524385254,-2.094996632770291,-1.0,12.037,0.03,179.30039556246112,-11.233685125566726,105.67312830987971,1525.0,1435.0,1000.0,1173.0,1475.0,1021.47,138.0,293.25,1637229748.9245837,1637229749.9326327,b677c898-d73e-4a26-adee-b0c5ae3e34e5
0.2418747073554313,0.2742467957582544,0.6072769468519956,-0.1393059986401316,0.4596433990007382,0.1786952244873484,0.4603402797883356,0.4342006738866704,-8.274797315840967,12.47789251422926,49.341637497126165,0.8324480467691963,0.7057068049358644,-2.018616175529873,-1.0,12.040666666666668,0.03,179.31256620065218,-11.235593167370489,105.63432372847514,1525.0,1435.0,1000.0,1173.0,1475.0,1021.47,138.0,293.25,1637229750.0410805,1637229751.1613102,b677c898-d73e-4a26-adee-b0c5ae3e34e5
-0.0141698502553898,0.1483085886357992,-0.2299005237763582,-0.0851070694512221,-0.2903713854821077,0.2969019977772242,-0.3904724269108467,-0.4159546054343492,-14.250869931906154,12.149108174622306,49.23561255937705,0.928924440468243,0.2168476159328148,1.3365150044961072,-1.0,12.0494,0.037,179.28622838408464,-11.246749484524305,105.7747137134053,1525.0,1435.0,1000.0,1617.0,1475.0,1021.47,138.0,293.25,1637229753.4134696,1637229754.552346,824a28d4-a2c1-4518-8a5a-80198b3f89b3
-0.014985069441156,0.1518061417229194,-0.2361067091916109,-0.0833056979421908,-0.2978398461077296,0.2957317639189694,-0.3965208284580504,-0.4245012598472914,-14.03297484578644,12.137156053280613,49.74372887583568,0.9220337368104822,0.2233045074052617,1.365071603577907,-1.0,12.048333333333334,0.04,179.28018806834666,-11.2329807148767,105.78194688373634,1525.0,1435.0,1000.0,1617.0,1475.0,1021.47,138.0,293.25,1637229754.6598694,1637229755.780979,824a28d4-a2c1-4518-8a5a-80198b3f89b3
-0.0116190031554086,0.1647050123527767,-0.2295060631029983,-0.0991104319076059,-0.2958280954963304,0.2993608037843085,-0.3908800367473894,-0.4147449252619335,-14.079251042993915,12.172372780766183,50.03417256433674,0.96642540978298,0.2718013952320068,1.3470878506779738,-1.0,12.048555555555554,0.04,179.28805189281104,-11.241657426716078,105.80151006333908,1525.0,1435.0,1000.0,1617.0,1475.0,1021.47,138.0,293.25,1637229755.8898797,1637229757.0056794,824a28d4-a2c1-4518-8a5a-80198b3f89b3
-0.059151541592611,0.1468447004227973,-0.4079481434388268,-0.0671366367971093,-0.4587212972801063,0.2962741469157622,-0.5858664857701915,-0.6083562419593642,-15.457866476319047,12.589258104014313,49.85784818258878,0.8805205233948034,0.2008927613762508,2.086544998412526,-1.0,12.050000000000002,0.04,179.28582676896147,-11.277963961295448,105.84959990746536,1525.0,1435.0,1000.0,1706.0,1475.0,1021.47,138.0,293.25,1637229757.6762562,1637229758.6474826,539ea5dd-6984-4228-ac23-79b6473946be
-0.0730535490839172,0.1292720162594204,-0.4109202974260958,-0.0493037157361384,-0.4561737369638887,0.2959454302939504,-0.5866745829819183,-0.6113694859344975,-15.424563067902584,12.575072038471768,49.68337838384528,0.839302070455949,0.1339108461693964,2.0860901624116472,-1.0,12.045666666666667,0.0333333333333333,179.27564523363867,-11.254035531903172,105.82206286146156,1525.0,1435.0,1000.0,1706.0,1475.0,1021.47,138.0,293.25,1637229758.7556183,1637229759.8763554,539ea5dd-6984-4228-ac23-79b6473946be
-0.0714236585207348,0.1290391747608129,-0.4171796257690346,-0.0455782516630672,-0.4615838785919974,0.294945581571648,-0.5960430317088058,-0.623217012949564,-15.669564798497603,12.701900558456757,49.935951302251226,0.8290975654423907,0.1316797221217442,2.1154671340785627,-1.0,12.044333333333334,0.0344444444444444,179.2902694275616,-11.242376778444914,105.7912093791608,1525.0,1435.0,1000.0,1706.0,1475.0,1021.47,138.0,293.25,1637229759.9844265,1637229761.1010067,539ea5dd-6984-4228-ac23-79b6473946be
-0.12478545374591,0.1152467404871124,-0.5903726547643828,0.0040580778848565,-0.6198476584820942,0.2761402076798796,-0.7890687070044454,-0.8112160527076336,-16.73204476429757,13.149190115190528,50.42911224400186,0.6687570481846971,0.0660155835347953,2.840472016119994,-1.0,12.045600000000002,0.037,179.2843309575332,-11.259136288716215,105.7524527608624,1525.0,1435.0,1000.0,1795.0,1475.0,1021.47,138.0,293.25,1637229763.2443264,1637229764.381074,2d486d87-f89d-4728-85c2-7eafd3c5e487
-0.1335649483891194,0.1162602858780597,-0.5908794275383563,0.0161932289233507,-0.619861355041264,0.2657582169254587,-0.7928489587715504,-0.8203379648922802,-16.678078784609383,13.21070625209572,50.66527949600575,0.6185007766478948,0.0658167123961633,2.8471383581142824,-1.0,12.0412,0.03,179.28469022548356,-11.246909481705613,105.73256734811284,1525.0,1435.0,1000.0,1795.0,1475.0,1021.47,138.0,293.25,1637229764.4893143,1637229765.61571,2d486d87-f89d-4728-85c2-7eafd3c5e487
-0.1399502844609194,0.1096514225424074,-0.5958551147272629,0.0200167603619597,-0.6229019917537124,0.2687900870502792,-0.7966489336291773,-0.8233408000767838,-16.704265802634865,13.216634238271444,50.642548950740114,0.6164635795605095,0.040630172197749,2.862653625448755,-1.0,12.04,0.03,179.2853031211251,-11.290547731067551,105.6834601093642,1525.0,1435.0,1000.0,1795.0,1475.0,1021.47,138.0,293.25,1637229765.749588,1637229766.8394318,2d486d87-f89d-4728-85c2-7eafd3c5e487
-0.1601773637364245,0.10074208525555155,-0.673140986970106,0.07341745092312059,-0.6922613900113076,0.22710653055402533,-0.8949705510798122,-0.9220349656948613,-17.268448565405247,13.799468824544283,49.786731310723205,0.40193113069030484,0.007328581907788505,3.200011201595778,-1.0,12.035333333333334,0.030000000000000002,179.3117784521679,-11.28947169168206,105.57662760273622,1525.0,1435.0,1000.0,1883.0,1475.0,1021.4699999999999,138.0,293.25,1637229767.749609,1637229768.9759462,32b5e93d-7681-4239-968f-3998c85ab48d
-0.170034503841744,0.09157196542878396,-0.6997430011683601,0.0785547561806226,-0.7165338928324736,0.23489274988940503,-0.9219823710678505,-0.9526977431909817,-17.41263227222324,13.971528556743097,50.08089841879649,0.4076296187359898,-0.030967661717948104,3.3069706857619763,-1.0,12.027,0.030000000000000006,179.31246450672452,-11.282471032374014,105.45003384101956,1525.0,1435.0,1000.0,1883.0,1475.0,1021.4699999999999,138.0,293.25,1637229769.0844805,1637229770.2095644,32b5e93d-7681-4239-968f-3998c85ab48d
-0.16098820014406223,0.1079946867829232,-0.6754704995490656,0.04840479560528024,-0.7008737903411025,0.24054668880681923,-0.8968683481616688,-0.9208647318365035,-17.30295538411545,14.030224009085364,49.414650575462176,0.48989241125512634,0.04100804814986997,3.217633670444292,-1.0,12.03133333333333,0.030000000000000002,179.31714242739605,-11.273712263400856,105.34255398424027,1525.0,1435.0,1000.0,1883.0,1475.0,1021.4699999999999,138.0,293.25,1637229770.3183258,1637229771.4388678,32b5e93d-7681-4239-968f-3998c85ab48d
