raw_voltage_G-,raw_voltage_G0,raw_voltage_G1,raw_voltage_G2,raw_voltage_G3,raw_voltage_G4,raw_voltage_G5,raw_voltage_G6,load_x,load_y,load_z,load_l,load_m,load_n,rpm,voltage,current,roll,pitch,yaw,aileron1_pwm,elevator_pwm,throttle_pwm,rudder_pwm,aileron2_pwm,pbaro,pdiff,Tt,sample_start_time,sample_end_time,uid
-0.0352647425441219,0.0932774609574645,0.01160488205865,0.1078779921965339,-0.1154033104440019,-0.1265523098736285,-0.316797529411585,-0.3417389673497351,-13.585721166713403,21.77896894734111,7.75467379336941,-0.3883755619976392,0.3650970621109846,0.5971473659266848,-1.0,12.049,0.04,179.4425280045395,3.380069398658485,78.3890247016447,1525.0,1435.0,1000.0,1528.0,1475.0,1021.47,138.0,292.98999999999995,1637228512.803543,1637228513.8463428,5a98716a-52d0-47d8-87e0-1341ed18a1f6
-0.0400996278468493,0.0913051565518012,0.0101804399442694,0.1070561986822602,-0.1171427734998154,-0.1213887069653035,-0.3192766069137272,-0.3486009440569961,-13.742960162347266,21.945983303489484,8.090020180025448,-0.37390795529364,0.3558541646225026,0.6050365421418485,-1.0,12.0506,0.04,179.46703441971758,3.394992185684606,78.0553731481112,1525.0,1435.0,1000.0,1528.0,1475.0,1021.47,138.0,292.98999999999995,1637228513.955377,1637228515.0823386,5a98716a-52d0-47d8-87e0-1341ed18a1f6
-0.020499851948308,0.1045360319604751,0.0243015920165808,0.095660662055008,-0.1062266156442513,-0.1247032743666234,-0.3046349835428037,-0.3276452058555328,-13.631906452621765,21.760533433003133,8.082409596834113,-0.3561222341664838,0.4070545283620656,0.5517171645813517,-1.0,12.052,0.04,179.49599168972273,3.4019947090651144,77.77916166411372,1525.0,1435.0,1000.0,1528.0,1475.0,1021.47,138.0,292.98999999999995,1637228515.218375,1637228516.192479,5a98716a-52d0-47d8-87e0-1341ed18a1f6
0.1871125814026225,0.5005035169533029,0.0260547515300387,-0.0984743630745909,-0.1975963650491888,-0.3266864462857872,-0.3927449601024642,-0.4263426255927587,-13.444634131645854,21.017098069350943,8.78503557798788,-0.3767190938046805,1.908621229145063,0.8468631379584245,-1.0,12.041,0.03,179.4039753812243,3.418835394237427,77.34506899141356,1627.0,1435.0,1000.0,1528.0,1556.0,1021.47,138.0,292.98999999999995,1637228517.719926,1637228518.762205,51da06b6-e19d-4f7b-9d18-c0964412ae96
0.1935088740434378,0.5068313264515861,0.0357245219748202,-0.0991454944665768,-0.1892003738263457,-0.3313021873052503,-0.3836504434321768,-0.4151525349720626,-13.368596628035885,20.9450628349079,8.994996403960757,-0.3855016681366556,1.9306497306303816,0.8104365306564886,-1.0,12.037444444444446,0.03,179.40980988059533,3.418318434294621,77.14364443606016,1627.0,1435.0,1000.0,1528.0,1556.0,1021.47,138.0,292.98999999999995,1637228518.87122,1637228519.909486,51da06b6-e19d-4f7b-9d18-c0964412ae96
0.1871125814054024,0.5003528548277734,0.022603218740659,-0.102076558187377,-0.2014314018267295,-0.3225911746434084,-0.3958266863914144,-0.4115229461432596,-13.490188006492165,21.052009101311416,8.849311086950335,-0.3593439205963301,1.90803419209971,0.8611737927855136,-1.0,12.037,0.03,179.43034598269986,3.430288625406284,77.00302905488739,1627.0,1435.0,1000.0,1528.0,1556.0,1021.47,138.0,292.98999999999995,1637228520.0181873,1637228521.2249568,51da06b6-e19d-4f7b-9d18-c0964412ae96
0.4705436673511868,0.995899778563942,0.0489964872776461,-0.3425322714923907,-0.2932378015470426,-0.5809839343496864,-0.482329238941738,-0.5055235453300243,-13.125148891755387,20.1887024847478,9.44130053979672,-0.4017084129504926,3.790069797800127,1.132699138636911,-1.0,12.02822222222222,0.03,179.3060426110849,3.44058596563779,76.76407412786459,1729.0,1435.0,1000.0,1528.0,1636.0,1021.47,138.0,292.98999999999995,1637228522.3359478,1637228523.3568003,31057390-858c-4632-bea3-12f95a3d0c3f
0.4609451199378915,0.9961233063881072,0.0490227846860791,-0.3409938737220233,-0.2936585598790431,-0.5794586851239952,-0.4822109006189907,-0.499948496734552,-13.071768747488942,20.229045702525145,9.890161050409688,-0.4013840520797956,3.786365053741617,1.1337622781692072,-1.0,12.02777777777778,0.03,179.29358282821897,3.44158023248072,76.62402489348301,1729.0,1435.0,1000.0,1528.0,1636.0,1021.47,138.0,292.98999999999995,1637228523.4649932,1637228524.701977,31057390-858c-4632-bea3-12f95a3d0c3f
0.4531134284181141,0.9854986126818304,0.0422440838822105,-0.3387394198384936,-0.2956089501194321,-0.573443702593481,-0.4874703804421603,-0.5174521553766126,-13.410462833282148,20.16003184656089,9.516960032504576,-0.3939780944270027,3.751512381825851,1.1511465529204328,-1.0,12.028666666666668,0.03,179.3052745942582,3.4364478196381474,76.5026243522653,1729.0,1435.0,1000.0,1528.0,1636.0,1021.47,138.0,292.98999999999995,1637228524.8106177,1637228525.9313347,31057390-858c-4632-bea3-12f95a3d0c3f
0.6975695830933004,1.4373343781893697,0.0688838903248318,-0.5481187583282857,-0.3890194954342972,-0.8177219203487036,-0.5799769630452737,-0.6126021765968038,-13.048029407170873,20.85730766732252,10.05406194387452,-0.4643785098018485,5.466325406073536,1.42733290190991,-1.0,12.013444444444444,0.03,179.20176231847674,3.4549048643343565,76.35446009423985,1830.0,1435.0,1000.0,1528.0,1717.0,1021.47,138.0,292.98999999999995,1637228527.7521927,1637228528.8893015,316a3716-6e8e-4a47-9841-d23e92b80600
0.7071434766182368,1.424391129547489,0.0593510855675248,-0.5334771329814382,-0.3931421603885403,-0.8164481397737279,-0.5886331907932562,-0.6158619585145316,-13.17696920763172,20.83354288646053,10.279742584090778,-0.4952052141854814,5.414285327133899,1.4570671369128334,-1.0,12.01511111111111,0.03,179.18415409079643,3.4603052198062443,76.26197477941842,1830.0,1435.0,1000.0,1528.0,1717.0,1021.47,138.0,292.98999999999995,1637228528.9971817,1637228530.027196,316a3716-6e8e-4a47-9841-d23e92b80600
0.7009663292940186,1.4345676731595065,0.0694454492248548,-0.5431879957496031,-0.3869376181314144,-0.8190367905914367,-0.5785662170551619,-0.602179092183347,-13.0050750644539,20.78717445425725,10.135388111523037,-0.4788581648107645,5.454351096033851,1.4216052296263255,-1.0,12.015,0.03,179.1773102412481,3.446286375114466,76.19673964265563,1830.0,1435.0,1000.0,1528.0,1717.0,1021.47,138.0,292.98999999999995,1637228530.135072,1637228531.143238,316a3716-6e8e-4a47-9841-d23e92b80600
0.682955356499925,1.373316660196999,0.1383391378504248,-0.5511456986727787,-0.3163455429379556,-0.7707700958289768,-0.4912369350339187,-0.5223144351488925,-12.749915058596734,21.40814989782882,8.01744648542769,-0.3451080329703079,5.246945647907976,1.0966635569397551,-1.0,11.96,0.22,179.22339883994755,3.4433822403408065,76.1231891300333,1932.0,1435.0,1000.0,1528.0,1798.0,1021.47,138.0,292.98999999999995,1637228531.7381332,1637228532.7814124,c2c0c794-5a3b-488f-871f-035385ca44b9
0.6986472282183857,1.385166923163523,0.1501888521505038,-0.5581314934744256,-0.3086480758307749,-0.7752559947403057,-0.4831839044234232,-0.5120058543608167,-12.82442489341711,21.53665894240625,8.191263429845433,-0.337998065531584,5.29199165502587,1.060073999192352,-1.0,11.960666666666668,0.22,179.18562637601755,3.451855469461161,75.69730179125605,1932.0,1435.0,1000.0,1528.0,1798.0,1021.47,138.0,292.98999999999995,1637228532.8893566,1637228534.0134308,c2c0c794-5a3b-488f-871f-035385ca44b9
0.6850372332029443,1.3749739438813984,0.1376269168194135,-0.5525016584806423,-0.3164688119779483,-0.7710029377901918,-0.4935516540521678,-0.5124392137110299,-12.971359539653209,21.421162220354347,8.027053549984956,-0.3426316885164437,5.254765669113204,1.1011399464545732,-1.0,11.967999999999998,0.2,179.18674804486125,3.4461834716741584,75.38674447334418,1932.0,1435.0,1000.0,1528.0,1798.0,1021.47,138.0,292.98999999999995,1637228534.121127,1637228535.238675,c2c0c794-5a3b-488f-871f-035385ca44b9
-0.3323288814831723,-0.4550193902534495,0.0020161951704246,0.3519555855095959,-0.0035325547464354,0.1781955742491878,-0.1990405303319812,-0.2242728814531489,-13.69396697788327,23.24504578533535,7.055490000503863,-0.2450702211652523,-1.7150206899461031,0.2243174907219512,-1.0,12.04625,0.04,179.7230442532069,3.420419304433782,75.03748616523018,1423.0,1435.0,1000.0,1528.0,1394.0,1021.47,138.0,292.98999999999995,1637228536.262193,1637228537.4021847,91ed8de5-2c94-4cc6-94d1-309fe65ec183
-0.3344523963122012,-0.4555436946534699,-0.0004617862410225,0.359113954370752,-0.0062828237526266,0.1718957053898138,-0.204266589732455,-0.225948244664875,-13.665541289989372,23.374256863022897,6.992617757541429,-0.2746369385221616,-1.717667353045487,0.2387595097677784,-1.0,12.048,0.0399999999999999,179.75533124043247,3.447585111869209,75.30318257300043,1423.0,1435.0,1000.0,1528.0,1394.0,1021.47,138.0,292.98999999999995,1637228537.516092,1637228538.6292522,91ed8de5-2c94-4cc6-94d1-309fe65ec183
-0.3281382817936302,-0.4512840639665198,-0.0008315933565348,0.349800295171938,-0.0076798727891955,0.1761827280171816,-0.2031434718500973,-0.2274548666759815,-13.677048973969924,23.27937119383744,6.980284430961068,-0.2446492741418408,-1.700378731816503,0.2400146011959757,-1.0,12.0488,0.04,179.7664398600986,3.446772063225884,75.58331595161931,1423.0,1435.0,1000.0,1528.0,1394.0,1021.47,138.0,292.98999999999995,1637228538.73745,1637228539.8584645,91ed8de5-2c94-4cc6-94d1-309fe65ec183
-0.558907266722798,-0.8891237601124843,-0.0019152650877301,0.5800065534968997,0.0864308253205903,0.3897317869579262,-0.1154805590587532,-0.1464457411240219,-13.650886998732949,25.05181857030716,6.798377119338657,-0.2723849627149156,-3.3694986819737847,-0.0634296094449478,-1.0,12.026111111111112,0.03,179.92102525485376,3.4648717230169592,76.02367630946586,1321.0,1435.0,1000.0,1528.0,1314.0,1021.47,138.0,292.98999999999995,1637228541.792156,1637228543.0333798,34fd6d7c-78f9-4934-bc3c-97d8f13ebd08
-0.569965323580023,-0.8935417244251547,-0.0131968467201603,0.5742079790092658,0.0772530354012492,0.4012763413457335,-0.1243559295905567,-0.1474055959010779,-13.870252120900524,24.99620578580837,6.989206681666133,-0.2343730589599111,-3.386209646076838,-0.0233613047405164,-1.0,12.026,0.03,179.8891783594837,3.464039080268452,76.01217123526392,1321.0,1435.0,1000.0,1528.0,1314.0,1021.47,138.0,292.98999999999995,1637228543.1479666,1637228544.2501862,34fd6d7c-78f9-4934-bc3c-97d8f13ebd08
-0.5609979100397721,-0.8750809450532828,-0.005728387094658,0.5605070388284507,0.0798433285380081,0.3955435102557034,-0.1178867706375625,-0.1426589164125302,-13.707458336170852,24.84518771252237,7.006721141143167,-0.2168940310553416,-3.316120165634889,-0.0439662602406868,-1.0,12.027,0.03,179.88712474927326,3.4472675981933545,76.04551849552165,1321.0,1435.0,1000.0,1528.0,1314.0,1021.47,138.0,292.98999999999995,1637228544.3585105,1637228545.4857533,34fd6d7c-78f9-4934-bc3c-97d8f13ebd08
-0.739504674126053,-1.2029833512869628,0.0081303390093963,0.7391846548318689,0.160273901877472,0.5651353794627387,-0.0404146486902321,-0.0613079282542475,-13.61847745436327,26.730533612502576,9.158958363692324,-0.2252752545510181,-4.586747056386435,-0.3184959490128544,-1.0,12.008666666666665,0.03,-59.99488813469348,3.443181888125153,76.05796537691913,1220.0,1435.0,1000.0,1528.0,1233.0,1021.47,138.0,292.98999999999995,1637228546.297944,1637228547.4350083,59c1722e-722f-4bed-9c16-6f7e60704c1c
-0.734309841221485,-1.2068277045366484,0.0028938706482432,0.7450555471432082,0.1570349398013278,0.5640007566674069,-0.0456193411141448,-0.0616991018428767,-13.64887345582329,26.702591076956114,9.190990409732532,-0.2415243682352162,-4.602289752772116,-0.2999144105016056,-1.0,12.010111111111108,0.03,179.98176233259315,3.451425760441816,75.92975286036919,1220.0,1435.0,1000.0,1528.0,1233.0,1021.47,138.0,292.98999999999995,1637228547.5432389,1637228548.66352,59c1722e-722f-4bed-9c16-6f7e60704c1c
-0.7296393128256066,-1.199883543595739,0.0013324629458585,0.7328382180511909,0.1536518899373537,0.5688219448273569,-0.0458795757335353,-0.0716017143106357,-13.660156958845384,26.60414521879364,9.238508459582617,-0.2038596758784756,-4.5751826564348,-0.2919750303545353,-1.0,12.009555555555554,0.03,179.97194962748551,3.430199216332774,75.84542279141677,1220.0,1435.0,1000.0,1528.0,1233.0,1021.47,138.0,292.98999999999995,1637228548.771858,1637228549.9850614,59c1722e-722f-4bed-9c16-6f7e60704c1c
-0.7733494330047457,-1.2833745493566702,0.032218750791992,0.8020880117680289,0.2017448883186804,0.5765221493273028,-0.0120923562042239,-0.0410457863523687,-13.9822612477263,27.479271668061184,8.009753105547944,-0.3357856164585867,-4.881707751771224,-0.4594993505733631,-1.0,11.971,0.17,179.99693142382984,3.43292657252979,75.70044367827425,1118.0,1435.0,1000.0,1528.0,1152.0,1021.47,138.0,292.98999999999995,1637228550.8031387,1637228551.9411938,6e2da429-6c97-49b3-88f3-3812ab17e09d
-0.7717847373524362,-1.2821254221007463,0.0235669085626849,0.7973939276426293,0.1926065447704045,0.5809269621469688,-0.01995527676194,-0.0382977087339693,-13.978750756569006,27.468384821098702,8.13189978551115,-0.3157804464087876,-4.878100917503349,-0.4237748728599881,-1.0,11.973,0.1666666666666666,179.97990148549923,3.410153796915518,75.47005912084,1118.0,1435.0,1000.0,1528.0,1152.0,1021.47,138.0,292.98999999999995,1637228552.0505643,1637228553.053668,6e2da429-6c97-49b3-88f3-3812ab17e09d
-0.7740024852471592,-1.295019922039166,0.0259451790089102,0.8050875578114361,0.1974534827241059,0.585120847982594,-0.0158704150260522,-0.0471533562003004,-13.988780413304772,27.56770792750289,7.962996320822438,-0.3229662956701099,-4.925689953900391,-0.4412131735495427,-1.0,11.973111111111113,0.16,179.96478855359575,3.411414369988273,75.25591599434213,1118.0,1435.0,1000.0,1528.0,1152.0,1021.47,138.0,292.98999999999995,1637228553.161809,1637228554.398636,6e2da429-6c97-49b3-88f3-3812ab17e09d
-0.0286903941929515,0.1028650518353326,0.0047292095482632,0.0998518089590557,-0.1219502658552114,-0.1249498124373095,-0.3245634793518197,-0.3425881537609865,-13.847469043790568,21.60922586299022,8.214062396550071,-0.3681955713481424,0.3993868298817324,0.6281181837705413,-1.0,12.050000000000002,0.04,179.58188207744558,3.426996711385684,75.06332211467566,1525.0,1435.0,1000.0,1528.0,1475.0,1021.47,138.0,292.98999999999995,1637228556.3335133,1637228557.674867,1b6f71bf-cce8-4055-a5de-516f4a9d4a27
-0.0254717028461708,0.1090969859039757,0.0126321239682408,0.096674207439022,-0.1168414491858049,-0.1279219658190367,-0.3165783844414998,-0.3439715068418225,-13.62870826735496,21.594979895256103,8.303749733720545,-0.3672830169146051,0.4213091318102398,0.6000297054712668,-1.0,12.051,0.04,179.61211704817148,3.4232046283039885,75.48809613261818,1525.0,1435.0,1000.0,1528.0,1475.0,1021.47,138.0,292.98999999999995,1637228557.7835748,1637228558.787475,1b6f71bf-cce8-4055-a5de-516f4a9d4a27
-0.0223625839527277,0.1102474968021051,0.0149331458356813,0.0934966058742295,-0.1157457244358027,-0.1268673307601967,-0.31393494825109,-0.3473408604594974,-13.570963845585686,21.62017665451168,8.216443649944743,-0.3574484626420828,0.4265268685817345,0.5916553065069362,-1.0,12.049111111111111,0.04,179.61459868356994,3.4326449458062003,75.847231273727,1525.0,1435.0,1000.0,1528.0,1475.0,1021.47,138.0,292.98999999999995,1637228558.8952992,1637228560.0200806,1b6f71bf-cce8-4055-a5de-516f4a9d4a27
-0.0101200517333435,0.1042736059038139,-0.0125394118489378,-0.272804724868153,-0.1793306328063608,0.235168872599358,-0.2401170618053038,-0.2642186251150068,-13.547941523828673,20.895556034906548,11.08535916754,1.276678646970514,0.4218767047909933,0.6110326733812129,-1.0,12.047,0.04,179.6385240773226,3.5439170753946936,76.40888911282576,1525.0,1535.0,1000.0,1528.0,1475.0,1021.47,138.0,292.98999999999995,1637228561.7502215,1637228562.7951596,8a24eb3f-1981-4731-a170-eb34b95e0cd5
-0.0117110439966852,0.1049047433173464,-0.0128549805648339,-0.2812330402923097,-0.1791465510390751,0.2431238334418223,-0.2392229503622981,-0.2665590934745303,-13.774090204418629,20.84679315375295,11.204774043821798,1.3131329504851703,0.4258029812191909,0.6099718316434813,-1.0,12.050666666666665,0.04,179.6240880930568,3.551056520352126,76.54762391524706,1525.0,1535.0,1000.0,1528.0,1475.0,1021.47,138.0,292.98999999999995,1637228562.904291,1637228564.0249424,8a24eb3f-1981-4731-a170-eb34b95e0cd5
-0.0071090002340456,0.101433487554984,-0.00933112990447,-0.2787084902375135,-0.1766220011430396,0.2425321421484334,-0.2349101775112776,-0.2574996406008832,-13.564271777958856,20.930236794377503,10.995798344214352,1.3069095022686934,0.4130647470586475,0.5950092931090672,-1.0,12.05,0.04,179.61968641559167,3.5592835069233413,76.7133857762141,1525.0,1535.0,1000.0,1528.0,1475.0,1021.47,138.0,292.98999999999995,1637228564.132193,1637228565.250084,8a24eb3f-1981-4731-a170-eb34b95e0cd5
0.0087833909260881,0.0875112098643939,-0.0388395443712056,-0.6771677760983362,-0.2461369739494362,0.6428655334133724,-0.1543152361168284,-0.1877211459555375,-13.578791539625376,20.40170049266893,14.008209855244369,3.1008384455532307,0.381430808066235,0.6144415749241988,-1.0,12.044888888888888,0.03,179.61110921581394,3.671491680735277,76.95090788133102,1525.0,1636.0,1000.0,1528.0,1475.0,1021.47,138.0,292.98999999999995,1637228566.2558453,1637228567.1920593,331c07b4-5260-4e23-ae3b-9ba4f5beb10e
0.0052359821843874,0.1035772728826871,-0.0316351543295763,-0.6911930574145831,-0.2452740906542726,0.6421259193214123,-0.1486037707418311,-0.1653272704275408,-13.405102222254513,20.45945205565278,14.352829850218322,3.1316979701827776,0.4395891355257696,0.597718849510752,-1.0,12.043,0.0366666666666666,179.61047021367162,3.692175722839929,76.94381131478337,1525.0,1636.0,1000.0,1528.0,1475.0,1021.47,138.0,292.98999999999995,1637228567.3008263,1637228568.3338633,331c07b4-5260-4e23-ae3b-9ba4f5beb10e
-0.0003933034818388,0.0925652399246293,-0.0438935746587944,-0.6898644907139139,-0.2546014481865216,0.6512752195680424,-0.1576982863547865,-0.1869404418842199,-13.451005457299138,20.445236659968504,14.211815401969384,3.148510540389985,0.398921081419507,0.6385353128299353,-1.0,12.045333333333334,0.04,179.60599416303552,3.678177107840381,76.96154931605788,1525.0,1636.0,1000.0,1528.0,1475.0,1021.47,138.0,292.98999999999995,1637228568.4412556,1637228569.554031,331c07b4-5260-4e23-ae3b-9ba4f5beb10e
0.0106548887189842,0.0947408012616752,-0.0545757950215894,-1.037335953377001,-0.3094895925069925,0.9849074692973914,-0.0827666009904582,-0.1029104051969318,-13.34489170062131,20.607112615393763,16.70098998061319,4.683028637409402,0.4263749444091479,0.6219043510196223,-1.0,12.029666666666666,0.03,179.5948245270128,3.817279602111998,76.97155326646224,1525.0,1737.0,1000.0,1528.0,1475.0,1021.47,138.0,292.98999999999995,1637228570.8746517,1637228572.0161006,469d9c24-b341-4170-bdb5-ba7d46b50707
0.0141250488524454,0.088127554989976,-0.0561109053638828,-1.0347440149058598,-0.3081960893217895,0.988525551952482,-0.081791953824886,-0.1097877214912752,-13.3874615610911,20.495079754440525,16.6329262613504,4.684460778115976,0.402057455186829,0.6199901226443055,-1.0,12.031777777777778,0.03,179.58685597298114,3.8102050913835495,76.8264345138967,1525.0,1737.0,1000.0,1528.0,1475.0,1021.47,138.0,292.98999999999995,1637228572.1252177,1637228573.2370522,469d9c24-b341-4170-bdb5-ba7d46b50707
0.0108926609718163,0.0838131390709235,-0.0575079543967494,-1.033730468814177,-0.3091274554324846,0.9924838571011526,-0.0818741331947639,-0.1151293795159227,-13.34837893924279,20.53069062537718,16.720968266704386,4.691269519296262,0.3846060903456563,0.6229037481200926,-1.0,12.032555555555556,0.03,179.5628395100396,3.793159026217445,76.74049783266952,1525.0,1737.0,1000.0,1528.0,1475.0,1021.47,138.0,292.98999999999995,1637228573.345354,1637228574.475952,469d9c24-b341-4170-bdb5-ba7d46b50707
0.0156179737171432,0.0909490460271239,-0.0436059469297777,-0.971794591746186,-0.2974579858089592,0.9253707250007176,-0.0931874911690241,-0.12601814428228,-13.238314955966894,21.36269377906693,16.281598562838465,4.406938228006399,0.4077549880417181,0.6046896670096377,-1.0,12.015666666666666,0.03,179.5754586639861,3.8126074681284936,76.47400813637267,1525.0,1837.0,1000.0,1528.0,1475.0,1021.47,138.0,292.98999999999995,1637228576.2918007,1637228577.349039,dfee7ad0-c4d8-46a5-8b7a-247b27482b82
0.0157412427666259,0.0839501046621524,-0.0441948989647781,-0.974424332656662,-0.2962389919017821,0.934437846099528,-0.0912836694215192,-0.1095959696483817,-13.375867882427508,21.355569770239608,16.25733097323842,4.433095650152557,0.3829796715915042,0.6001240951984723,-1.0,12.018,0.03,179.55950789554447,3.7834587820718175,76.31346681666125,1525.0,1837.0,1000.0,1528.0,1475.0,1021.47,138.0,292.98999999999995,1637228577.456765,1637228578.565197,dfee7ad0-c4d8-46a5-8b7a-247b27482b82
0.0148783595696122,0.07993701301873,-0.0486599772292651,-0.9736299317033668,-0.2995535595738315,0.9376976267832378,-0.093899712271113,-0.117389311971098,-13.330519199420644,21.309230088045577,16.23880569061448,4.438119190575814,0.3673897044676797,0.6139957216694528,-1.0,12.02222222222222,0.03,179.54623607907718,3.786359003716266,76.23036238720988,1525.0,1837.0,1000.0,1528.0,1475.0,1021.47,138.0,292.98999999999995,1637228578.6731956,1637228579.6814983,dfee7ad0-c4d8-46a5-8b7a-247b27482b82
-0.0512212337981766,0.1078505990793812,0.0455997407433057,0.568411048115279,-0.0397709103930414,-0.5820451440293332,-0.4142485614419911,-0.4460930674408087,-13.623509868356331,22.979669619430656,5.061694841914385,-2.4415745131173456,0.3893644335579453,0.5880279961767996,-1.0,12.04988888888889,0.04,179.5555342432673,3.3103134355750523,76.062615976834,1525.0,1334.0,1000.0,1528.0,1475.0,1021.47,138.0,292.98999999999995,1637228581.9347353,1637228583.070053,f4965807-0c85-47d1-905d-f070ed848e0a
-0.0432679158829356,0.1116105782824717,0.0491542716430638,0.5636495769313057,-0.0372721101582297,-0.5823908453082453,-0.4101823262776715,-0.4350859624767625,-13.580348337248074,22.915499365907213,4.942932993146206,-2.4318562429916186,0.4050242272168756,0.5742920968560229,-1.0,12.049333333333331,0.04,179.55848184934908,3.3017046461724204,76.41060880267679,1525.0,1334.0,1000.0,1528.0,1475.0,1021.47,138.0,292.98999999999995,1637228583.1787832,1637228584.2969086,f4965807-0c85-47d1-905d-f070ed848e0a
-0.0561246019627294,0.1063713707921627,0.0417510077829532,0.5652745364940582,-0.043304622613191,-0.577895085518263,-0.4172755014971065,-0.442216940460784,-13.6840935007971,22.97953504634877,5.008917333428499,-2.4254050183554288,0.3848551701860887,0.6020737659444652,-1.0,12.050666666666665,0.04,179.57361603073002,3.3154823946728715,76.69178795914861,1525.0,1334.0,1000.0,1528.0,1475.0,1021.47,138.0,292.98999999999995,1637228584.4044917,1637228585.4441197,f4965807-0c85-47d1-905d-f070ed848e0a
-0.0670818492646431,0.1136305467063374,0.076773108031597,1.010631796014971,0.0286160080224976,-1.0170069598267122,-0.5164112162406265,-0.5514059343728364,-14.059669407639875,24.8467357088489,1.6309400675296146,-4.403370654328131,0.3920975244805917,0.5965143968321641,-1.0,12.042333333333334,0.0344444444444444,179.59313671137795,3.1748633375302293,77.07946114842954,1525.0,1234.0,1000.0,1528.0,1475.0,1021.47,138.0,292.98999999999995,1637228586.334916,1637228587.4643898,c6842228-633a-4117-aa8d-1840d1ec8443
-0.0702731475467673,0.1153974027294006,0.0764580871842516,1.003427406672482,0.0266710966821764,-1.0105147868212705,-0.5149867737673971,-0.5407500083215221,-13.98634929403408,24.853969414560584,1.8605244454064624,-4.372424765735208,0.3970377330854388,0.5980874771041882,-1.0,12.03977777777778,0.03,179.59163710540017,3.172549373789541,77.28349787168554,1525.0,1234.0,1000.0,1528.0,1475.0,1021.47,138.0,292.98999999999995,1637228587.5733347,1637228588.8057032,c6842228-633a-4117-aa8d-1840d1ec8443
-0.0710401548824893,0.1113569180246124,0.075102127892718,1.0020851440378542,0.0278490007332974,-1.0048581045622933,-0.514397821602585,-0.5423935955717732,-14.162364592312905,24.74629327341536,1.9254026531584991,-4.357545205284953,0.382631712495936,0.5970048459831501,-1.0,12.041555555555554,0.03,179.58485700428406,3.1522855306144524,77.43183592007985,1525.0,1234.0,1000.0,1528.0,1475.0,1021.47,138.0,292.98999999999995,1637228588.9135103,1637228590.0413454,c6842228-633a-4117-aa8d-1840d1ec8443
-0.0578366717992589,0.1193167255789083,0.0944985618262798,1.2268161610119472,0.0578465713027589,-1.229411242203705,-0.5711289835354402,-0.6026985075090123,-14.30618941449179,26.46490612005541,0.3677634506785588,-5.357046192603976,0.4008986827432728,0.6104114391559856,-1.0,12.03377777777778,0.03,179.5975065146269,3.079665299243453,77.63331739367635,1525.0,1133.0,1000.0,1528.0,1475.0,1021.47,138.0,292.98999999999995,1637228590.7406356,1637228591.88521,c28cfba7-c27b-469e-9c5e-5638081f9067
-0.0748751914579997,0.1218347851023666,0.1051249839386565,1.2399258745255028,0.0683908141780503,-1.2443837006657728,-0.5638698053480495,-0.5814698888823776,-14.17189269204419,26.488795745036928,0.3740277457528667,-5.419507515510863,0.4083968747642777,0.5717418731808076,-1.0,12.034333333333333,0.03,179.5933400992332,3.037448872336924,77.76349321015772,1525.0,1133.0,1000.0,1528.0,1475.0,1021.47,138.0,292.98999999999995,1637228591.9967492,1637228593.1071026,c28cfba7-c27b-469e-9c5e-5638081f9067
-0.0753271779076095,0.1306690652358603,0.112315677060839,1.2493901965637737,0.0759924041472029,-1.2639971896586746,-0.5633630326503656,-0.5898384891945474,-14.363925138930556,26.47232185873233,0.0863000235323253,-5.484824524437663,0.4447303900542216,0.5514835768072306,-1.0,12.037,0.03,179.59179192302136,3.028686024223013,77.87066570842438,1525.0,1133.0,1000.0,1528.0,1475.0,1021.47,138.0,292.98999999999995,1637228593.2160826,1637228594.224084,c28cfba7-c27b-469e-9c5e-5638081f9067
-0.0771762134274966,0.1343671359584674,0.1068781434132194,1.3296246373527356,0.0700480977775603,-1.3429990127177076,-0.601959946682157,-0.6330511451744986,-14.496849599309297,27.635263670639592,-0.3088441673254832,-5.836032780370175,0.4528397984175911,0.6219690793037552,-1.0,12.021,0.03,179.58589063957845,2.9947928231503784,78.08214582005586,1525.0,1033.0,1000.0,1528.0,1475.0,1021.47,138.0,292.98999999999995,1637228596.270779,1637228597.4153798,ae71bfab-d944-4145-8a1a-925ea84613e6
-0.069122636603635,0.1316826105434796,0.1088778409532757,1.3084634538084703,0.0724723886437814,-1.320481848386554,-0.5919614555648849,-0.6234635512477937,-14.58686287707475,27.40431348199967,-0.2024881187936138,-5.739159041759783,0.4451939048352511,0.6013770512299171,-1.0,12.020222222222223,0.03,179.5795127607135,3.013332446730928,78.07760905662715,1525.0,1033.0,1000.0,1528.0,1475.0,1021.47,138.0,292.98999999999995,1637228597.549466,1637228598.636345,ae71bfab-d944-4145-8a1a-925ea84613e6
-0.0763133301936768,0.129066567909536,0.1108638418617408,1.3257622078625877,0.0758965282095192,-1.3341236341577052,-0.5945911958680913,-0.6279697205402748,-14.605223594957437,27.539329722497225,-0.2456541477344475,-5.807857901471215,0.4338930312590615,0.5974563018923966,-1.0,12.017777777777775,0.03,179.57265980424623,3.0035620034188324,78.06959876255054,1525.0,1033.0,1000.0,1528.0,1475.0,1021.47,138.0,292.98999999999995,1637228598.7452848,1637228599.752662,ae71bfab-d944-4145-8a1a-925ea84613e6
-0.0250471095054559,0.0988245671178301,0.0127553929874912,0.112493732343833,-0.1137186336453015,-0.1320857199437971,-0.320084704019347,-0.3516689738828313,-13.875626723493312,21.838820072036626,8.337184308019134,-0.4108208795969092,0.3822968419800652,0.599270687858619,-1.0,12.050777777777776,0.04,179.58627009453235,3.31705604179852,78.0364647559769,1525.0,1435.0,1000.0,1528.0,1475.0,1021.47,138.0,292.98999999999995,1637228601.7999046,1637228602.8251612,0ca21366-c05d-4702-bb4a-c83ddffe4a8a
-0.0221905551892982,0.1089413930013076,0.0221599981029308,0.1135697339458364,-0.1073283668775285,-0.1435398787944791,-0.3141968264769235,-0.3450962679292157,-13.754150772313624,21.87620026499136,8.316702635598336,-0.4382131325454104,0.4200271985789481,0.5706386118258453,-1.0,12.050000000000002,0.04,179.57158366999704,3.356369685739664,78.07802797489623,1525.0,1435.0,1000.0,1528.0,1475.0,1021.47,138.0,292.98999999999995,1637228602.9322915,1637228604.049802,0ca21366-c05d-4702-bb4a-c83ddffe4a8a
-0.0282258069098209,0.1012099597246093,0.0179655639475733,0.1151475774902579,-0.1097345784348963,-0.1375440728607403,-0.3161559825252656,-0.3359184763317527,-13.763907141426396,21.879534244026623,8.275035206966951,-0.4284972911063986,0.3910078591405622,0.5814342262179644,-1.0,12.051,0.04,179.57015540155055,3.3484077958856098,78.1012908402994,1525.0,1435.0,1000.0,1528.0,1475.0,1021.47,138.0,292.98999999999995,1637228604.15819,1637228605.282756,0ca21366-c05d-4702-bb4a-c83ddffe4a8a
0.0148983776601534,0.1229073310257538,0.1667784605723444,0.0982661688955332,0.0238116766496427,-0.1510027759514602,-0.1607252260620232,-0.1889064246584781,-12.602324744928152,21.77035102023318,8.34058786828,-0.413379211741908,0.4750943623509177,-0.0211822831327702,-1.0,12.050555555555556,0.04,179.57493198051012,3.357926399687996,78.06878293439969,1525.0,1435.0,1000.0,1439.0,1475.0,1021.47,138.0,292.98999999999995,1637228607.329427,1637228608.468497,3997b738-c242-418c-bd29-5bd39e2c248e
0.0410678234404384,0.127257526498037,0.1639029419390547,0.0917034523482838,0.020503262346867,-0.1494436438962584,-0.1636442368504908,-0.1971602670753328,-12.7008357655596,21.702759933464435,8.288139974867248,-0.395720952726209,0.4931968934382866,-0.0082466974531875,-1.0,12.051888888888888,0.04,179.55731464591094,3.3492180745077715,78.07839680511142,1525.0,1435.0,1000.0,1439.0,1475.0,1021.47,138.0,292.98999999999995,1637228608.576065,1637228609.6278791,3997b738-c242-418c-bd29-5bd39e2c248e
0.0378069467065859,0.1379211189000034,0.1732648133522768,0.0875747618496528,0.0257495922062781,-0.1547688662253716,-0.1572539699557562,-0.1916246656704776,-12.622671417165298,21.809754225483108,8.534777175221524,-0.3971200259838645,0.5315563184792241,-0.0356393232804618,-1.0,12.052,0.04,179.5573131280911,3.3528162798239647,78.08523610120034,1525.0,1435.0,1000.0,1439.0,1475.0,1021.47,138.0,292.98999999999995,1637228609.7355282,1637228610.7209594,3997b738-c242-418c-bd29-5bd39e2c248e
0.0905069210925705,0.162141016702053,0.359082178353709,0.0783180797799955,0.1935795482866207,-0.1797908372613399,0.0330865647314928,0.01563824443965,-11.256808967776678,21.824770874600425,8.580300171251727,-0.422420120648697,0.6252447334611867,-0.7846610081458842,-1.0,12.051222222222222,0.04,179.56109249943188,3.354696858575441,78.03291988779766,1525.0,1435.0,1000.0,1351.0,1475.0,1021.47,138.0,292.98999999999995,1637228611.722751,1637228612.9731896,8c9da62a-b69e-4e92-a069-8de99988f490
0.0954376821304101,0.1636925628023168,0.357846201005792,0.079369975463315,0.1920017048072873,-0.182302238489515,0.030995922038324,0.0001096336742138,-11.234973153743532,21.835060106684526,8.564059070945579,-0.4304213256720958,0.6308456798598263,-0.777665424237332,-1.0,12.047,0.04,179.54153083764896,3.356310490766857,78.03159862564823,1525.0,1435.0,1000.0,1351.0,1475.0,1021.47,138.0,292.98999999999995,1637228613.0801954,1637228614.2016993,8c9da62a-b69e-4e92-a069-8de99988f490
0.0882097342971044,0.1637599498647945,0.3632366182045816,0.0772250944216787,0.1974671793275491,-0.181448121011993,0.0366969776236572,0.0127143028779981,-11.296900503779211,21.815031649443828,8.457429313312161,-0.4235762178502862,0.6330872505291861,-0.80077055031261,-1.0,12.049,0.0399999999999999,179.55044468986176,3.3441492393427232,78.02595142524247,1525.0,1435.0,1000.0,1351.0,1475.0,1021.47,138.0,292.98999999999995,1637228614.309563,1637228615.4300416,8c9da62a-b69e-4e92-a069-8de99988f490
0.1424070156282378,0.1841815180102503,0.5434148310530632,0.0841007667912454,0.3606479688225903,-0.2179357566404059,0.2155466358785924,0.1832364553095809,-10.033457674221332,22.09582769850894,8.387215911123652,-0.5096207437948771,0.7119410667429374,-1.5200746470232296,-1.0,12.04622222222222,0.0355555555555555,179.54017238891402,3.3474373161251028,77.95527126167333,1525.0,1435.0,1000.0,1262.0,1475.0,1021.47,138.0,292.98999999999995,1637228616.3412983,1637228617.477559,803484f5-7d6d-4dd9-8ad9-325cd1598a54
0.1344904049609637,0.1846061113206494,0.5441955348186502,0.0821832485490924,0.3612506173537963,-0.2149909963029817,0.2173956711958181,0.2009187117370676,-10.008969750443748,22.06674895519604,8.624167219978766,-0.4987818174275855,0.711545223668112,-1.5241944723569834,-1.0,12.045666666666667,0.04,179.5398870387887,3.34735924326834,77.93503796462204,1525.0,1435.0,1000.0,1262.0,1475.0,1021.47,138.0,292.98999999999995,1637228617.5852287,1637228618.5943673,803484f5-7d6d-4dd9-8ad9-325cd1598a54
0.1641487214164314,0.1919885561110108,0.5475090481012492,0.0804142853618706,0.3627445957057161,-0.2227516779557033,0.2187663805450821,0.1893588169163902,-9.938045343629785,22.03423856484244,8.335880881450525,-0.5122915352077878,0.7417142740992114,-1.5321635005836474,-1.0,12.04611111111111,0.04,179.5380747619289,3.343588646823408,77.93556692482775,1525.0,1435.0,1000.0,1262.0,1475.0,1021.47,138.0,292.98999999999995,1637228618.7029216,1637228619.9375522,803484f5-7d6d-4dd9-8ad9-325cd1598a54
0.186295170817747,0.2141835544377001,0.6904029964730037,0.0937677976994148,0.4909504421228572,-0.2632982161939938,0.3540462280137352,0.3353750805560513,-9.0816942199543,22.460729196779024,8.472661554526393,-0.6231319811609466,0.8251075300597663,-2.090754931161476,-1.0,12.040666666666668,0.03,179.53797003236164,3.3491782791694824,77.85986034915742,1525.0,1435.0,1000.0,1173.0,1475.0,1021.47,138.0,292.98999999999995,1637228621.8705509,1637228623.107186,07164b86-0e92-448c-8407-e883cde06f05
0.1927418667818649,0.2120677101651348,0.6915704910126553,0.0877166581972787,0.4916281477895793,-0.2560532836578837,0.3575388502254614,0.3262970021305654,-9.059978555254052,22.461198331257425,8.433591059497504,-0.5931358157814691,0.8181834559659782,-2.09859135027217,-1.0,12.040555555555557,0.03,179.5327274827187,3.3521286600156475,77.78849929161903,1525.0,1435.0,1000.0,1173.0,1475.0,1021.47,138.0,292.98999999999995,1637228623.2414734,1637228624.3293743,07164b86-0e92-448c-8407-e883cde06f05
0.193908265664113,0.216458278787752,0.6927566128710605,0.0770952510350803,0.4912923082025506,-0.2500443287211072,0.3599499922224857,0.3279460676082932,-9.10956092512257,22.420140466248096,8.523535248224706,-0.5558973368877019,0.8355867365421745,-2.102636526845252,-1.0,12.041777777777774,0.03,179.52910596463877,3.359059025293487,77.7430830870979,1525.0,1435.0,1000.0,1173.0,1475.0,1021.47,138.0,292.98999999999995,1637228624.4375503,1637228625.4663763,07164b86-0e92-448c-8407-e883cde06f05
-0.087777350302694,0.0738146513809487,-0.1916520580482284,0.1259711456423758,-0.3017450092500321,-0.1101438317066771,-0.5333675604164899,-0.5579254980363332,-15.250178571630135,22.136700856454524,8.13274742614237,-0.4008442109033512,0.285422462459968,1.4333887234366725,-1.0,12.050222222222224,0.04,179.60243032210863,3.3992487595753573,77.85317511177979,1525.0,1435.0,1000.0,1617.0,1475.0,1021.47,138.0,292.98999999999995,1637228627.2877471,1637228628.3328388,ec1dd4d2-61b9-407f-8062-211a1a27ece7
-0.0966938103820131,0.0688017109658774,-0.1946653012252935,0.1299979338422608,-0.304032334864212,-0.1088015688575291,-0.5359288176098659,-0.5533508456939861,-15.205575784537125,22.199587052729584,8.129978438442457,-0.406622563355397,0.2656440011093043,1.4436884279335829,-1.0,12.049444444444443,0.04,179.59632413299062,3.3751185550113485,77.83534907695596,1525.0,1435.0,1000.0,1617.0,1475.0,1021.47,138.0,292.98999999999995,1637228628.4418614,1637228629.561552,ec1dd4d2-61b9-407f-8062-211a1a27ece7
-0.1024463653017909,0.0638161636684882,-0.1981168343293694,0.13331250097252,-0.3049500044307804,-0.1064457606132737,-0.5389146682070957,-0.5720329569891528,-15.362311291998177,22.17027666584889,8.180705657111998,-0.4092425749019145,0.246977508851501,1.4532941392430587,-1.0,12.04977777777778,0.04,179.59875719815497,3.3757841901482752,77.83258436816193,1525.0,1435.0,1000.0,1617.0,1475.0,1021.47,138.0,292.98999999999995,1637228629.6699631,1637228630.7918644,ec1dd4d2-61b9-407f-8062-211a1a27ece7
-0.1789142574546588,0.0235893709658063,-0.4219871186980109,0.179867102181312,-0.5067140502095501,-0.0977347489113446,-0.777371839997806,-0.806490738154331,-16.855130277762026,22.73152476062645,8.13130890602463,-0.5028695281793645,0.0871916547569428,2.3669728763632083,-1.0,12.049333333333331,0.0355555555555555,179.63014267630103,3.377642807944296,77.87804383054782,1525.0,1435.0,1000.0,1706.0,1475.0,1021.47,138.0,292.98999999999995,1637228632.8422644,1637228633.8822472,650be207-fb99-41de-9bc7-0c2bf5a6d75f
-0.1731890954517175,0.0333961069986295,-0.4078111775894182,0.1836199590988,-0.4955924417515742,-0.1107464803085574,-0.7669624508114822,-0.7909040466727303,-16.702636992555835,22.78550702427495,8.231966728122444,-0.5394176228867132,0.1224389771691016,2.3191267005237086,-1.0,12.045666666666667,0.04,179.6135028176631,3.3832791369656325,77.8508832038583,1525.0,1435.0,1000.0,1706.0,1475.0,1021.47,138.0,292.98999999999995,1637228633.9921665,1637228635.0924995,650be207-fb99-41de-9bc7-0c2bf5a6d75f
-0.1615798914203664,0.0367944971252109,-0.4099325010491681,0.176920150750896,-0.4983575037473642,-0.1084723035971318,-0.7679190188802193,-0.799791473667049,-16.68858906433398,22.69084752493041,8.140852603070662,-0.5199347077453805,0.1365819246078858,2.327418988056724,-1.0,12.047222222222224,0.04,179.620712461787,3.371804419160012,77.82644099245846,1525.0,1435.0,1000.0,1706.0,1475.0,1021.47,138.0,292.98999999999995,1637228635.2007182,1637228636.2107422,650be207-fb99-41de-9bc7-0c2bf5a6d75f
-0.2323593302011854,0.0051455849129128,-0.5834558900386706,0.2445044464813899,-0.6529467729887144,-0.1318506869885427,-0.964005627869995,-0.9898691295437164,-17.955250379610742,23.42545674563673,7.831230360748996,-0.7293801233067893,0.0102794805043612,3.0488312567948284,-1.0,12.04188888888889,0.03,179.63503612738643,3.367529787956641,77.73834293581392,1525.0,1435.0,1000.0,1795.0,1475.0,1021.47,138.0,292.98999999999995,1637228637.4360735,1637228638.5739603,9a24c13a-cfa7-4f49-b3c0-90433249e04e
-0.2414116607218831,-0.019171285679933,-0.5880990248731858,0.2569102407356751,-0.6515825952614226,-0.1224570386270227,-0.964494321440411,-0.9829709908433064,-18.034057318465035,23.493576534622605,7.383606567175232,-0.7361464196106562,-0.0782191277517085,3.0504501250169533,-1.0,12.04022222222222,0.0322222222222222,179.63485247118874,3.350653742325813,77.69110231187447,1525.0,1435.0,1000.0,1795.0,1475.0,1021.47,138.0,292.98999999999995,1637228638.6831188,1637228639.8193254,9a24c13a-cfa7-4f49-b3c0-90433249e04e
-0.2426942066306811,-0.0183905818144258,-0.5867036190172471,0.2570351533718358,-0.6503433301827257,-0.1236721973363598,-0.9640845201221396,-0.9837681309591284,-18.094106683954536,23.52688549418273,7.34285263780043,-0.7389052485049018,-0.0744311511277503,3.0462590557256948,-1.0,12.041777777777778,0.0355555555555555,179.63881094526772,3.3526944984997007,77.64499246369763,1525.0,1435.0,1000.0,1795.0,1475.0,1021.47,138.0,292.98999999999995,1637228639.929644,1637228641.031249,9a24c13a-cfa7-4f49-b3c0-90433249e04e
-0.2848023639076425,-0.03955176544035023,-0.7173808882932247,0.32787210642674325,-0.7687156116023938,-0.16257426165975922,-1.119813400430296,-1.1462614754250016,-18.86941957870632,24.408087382973417,7.028998915637935,-0.9872197569183031,-0.16252014648169313,3.604052708862221,-1.0,12.028,0.030000000000000002,179.65898732407592,3.3360778340457906,77.5131531166984,1525.0,1435.0,1000.0,1883.0,1475.0,1021.4699999999999,138.0,292.98999999999995,1637228642.7359169,1637228643.6932251,1aba9cd6-c8ac-424f-8805-29456b63ab28
-0.2911164783044782,-0.034484038602926016,-0.716518004444905,0.3223797868123865,-0.7695921914277694,-0.16246468919257306,-1.1193614133162377,-1.1350850747410413,-18.85207480805552,24.40751938468203,7.036460211340418,-0.974535084715097,-0.14297106628379783,3.604014827791456,-1.0,12.022,0.023333333333333334,179.6521844556626,3.3213045617578763,77.38405343446627,1525.0,1435.0,1000.0,1883.0,1475.0,1021.4699999999999,138.0,292.98999999999995,1637228643.8013973,1637228644.919006,1aba9cd6-c8ac-424f-8805-29456b63ab28
-0.2895413738545457,-0.035018204417032246,-0.7110667722138283,0.3241192496353284,-0.7639492070567048,-0.16430002816711198,-1.1140608415699458,-1.1386735764604083,-18.850247773606785,24.402986557837437,6.9703326951591436,-0.9823513735185022,-0.14427002057306007,3.5812118534031985,-1.0,12.030777777777779,0.030000000000000002,179.6578019068,3.3373565260925946,77.2537402552916,1525.0,1435.0,1000.0,1883.0,1475.0,1021.4699999999999,138.0,292.98999999999995,1637228645.0276515,1637228646.2499206,1aba9cd6-c8ac-424f-8805-29456b63ab28
