raw_voltage_G-,raw_voltage_G0,raw_voltage_G1,raw_voltage_G2,raw_voltage_G3,raw_voltage_G4,raw_voltage_G5,raw_voltage_G6,load_x,load_y,load_z,load_l,load_m,load_n,rpm,voltage,current,roll,pitch,yaw,aileron1_pwm,elevator_pwm,throttle_pwm,rudder_pwm,aileron2_pwm,pbaro,pdiff,Tt,sample_start_time,sample_end_time,uid
-0.0313288993268949,0.0986328153040425,0.0047248266456315,0.1407743858993316,-0.1125878456930708,-0.1168085774737386,-0.3153933580079991,-0.3372201974484322,-13.306141067427248,20.96361534114978,14.175427970978308,-0.4452697183690585,0.3217968785761158,0.6112141311974308,-1.0,12.04788888888889,0.04,179.27766089835373,0.9933965985663736,83.7693445725119,1525.0,1435.0,1000.0,1528.0,1475.0,1021.47,138.0,292.98999999999995,1637228207.345354,1637228208.4902403,76178247-3b7d-43bd-bd3b-dfba1244473a
-0.035562779653909,0.0890868619440845,-0.0025201051104492,0.1398539771953418,-0.1179130679939975,-0.1068024190178357,-0.3196403875547601,-0.3503557473574122,-13.353964332617638,20.98783986109024,14.103503066352234,-0.4209440279621234,0.2866241423179448,0.6330818196543027,-1.0,12.046,0.04,179.2756634474765,0.9998427911810172,83.75086435734755,1525.0,1435.0,1000.0,1528.0,1475.0,1021.47,138.0,292.98999999999995,1637228208.6180868,1637228209.7084198,76178247-3b7d-43bd-bd3b-dfba1244473a
-0.0388762511725029,0.0919795750751315,0.0038175665829985,0.1421418502633789,-0.1115228012373588,-0.110286823773398,-0.3138944064203873,-0.3382194985751253,-13.350155810319292,20.93369463082037,14.357588238781783,-0.4339357735785796,0.2953138392357355,0.6083113775498898,-1.0,12.050333333333334,0.04,179.27238495667487,0.9906501747579244,83.76492771684862,1525.0,1435.0,1000.0,1528.0,1475.0,1021.47,138.0,292.98999999999995,1637228209.819747,1637228210.9361756,76178247-3b7d-43bd-bd3b-dfba1244473a
0.2020829193597503,0.5244450991774696,0.0121664409724013,-0.0740123082463864,-0.2038282998150224,-0.3217282913779438,-0.3995384545113775,-0.4318486433763868,-13.13571500827544,19.932844804989035,15.954345113429929,-0.4273387197745699,1.9287782201083823,0.8978391737149639,-1.0,12.041333333333332,0.03,179.17704310496055,0.992967814468478,83.7487902565696,1627.0,1435.0,1000.0,1528.0,1556.0,1021.47,138.0,292.98999999999995,1637228211.8487675,1637228212.9880311,177a5568-fd20-467a-8816-56fb50453e05
0.2037128097478356,0.5221440775496023,0.0096051844831304,-0.0726289557243283,-0.2049651142921548,-0.3216324154153127,-0.4021544977123783,-0.4277396749389485,-13.237819253678532,19.907105206092467,15.809562051086422,-0.4306164183699185,1.9218207405365395,0.9060721805908872,-1.0,12.040666666666665,0.03,179.1575057282947,0.9813371406768082,83.69487046653181,1627.0,1435.0,1000.0,1528.0,1556.0,1021.47,138.0,292.98999999999995,1637228213.0972264,1637228214.1108158,177a5568-fd20-467a-8816-56fb50453e05
0.1967960479618816,0.5234452504944161,0.0145496422018835,-0.0733822664882452,-0.2021710160587614,-0.3231801267643934,-0.3974839702982206,-0.4126460640848541,-13.070844237681436,19.99560942473848,15.707294685334151,-0.4314943928006724,1.9268332170590048,0.8889638855005528,-1.0,12.041,0.03,179.15634763177545,0.9842157689627856,83.6383369907716,1627.0,1435.0,1000.0,1528.0,1556.0,1021.47,138.0,292.98999999999995,1637228214.2257636,1637228215.445815,177a5568-fd20-467a-8816-56fb50453e05
0.4701793389352698,1.0241229053524703,0.0317251268349745,-0.3046212870270553,-0.3034433827648382,-0.5928654287961574,-0.4992768169359928,-0.5212871933866097,-12.83028700172495,19.280406105308728,16.5195188122814,-0.5195300801173848,3.825324682936176,1.2085816114442711,-1.0,12.028666666666668,0.03,179.00401316380672,0.9841086322281484,83.55377014192794,1729.0,1435.0,1000.0,1528.0,1636.0,1021.47,138.0,292.98999999999995,1637228217.378753,1637228218.5182235,011c4901-e672-44ff-b74b-1672c8ece56e
0.4824377577904102,1.029218024824735,0.0360669359314314,-0.3113736914413679,-0.3016902230191253,-0.5917697037370906,-0.4945925927381245,-0.5225472765342388,-12.721072176500556,19.29275963218357,16.53507178843397,-0.5014805282718977,3.8446304600078895,1.1942565903921911,-1.0,12.029222222222224,0.03,178.98942691537923,0.9807181192093738,83.48187708854422,1729.0,1435.0,1000.0,1528.0,1636.0,1021.47,138.0,292.98999999999995,1637228218.626342,1637228219.747753,011c4901-e672-44ff-b74b-1672c8ece56e
0.4750005271296062,1.0258486716324675,0.0374502883509594,-0.3073605991407644,-0.3005671050450901,-0.5921258143167059,-0.4932777227537473,-0.5086178727038796,-12.625841801240975,19.38823745855274,16.54918607372772,-0.5105813071043378,3.830789444097219,1.1886439198508365,-1.0,12.029444444444444,0.03,178.99872356174953,0.9768010531522408,83.39244107373224,1729.0,1435.0,1000.0,1528.0,1636.0,1021.47,138.0,292.98999999999995,1637228219.8555956,1637228220.97507,011c4901-e672-44ff-b74b-1672c8ece56e
0.71306038935995,1.4690008237961802,0.0626656527265153,-0.5177260863381482,-0.3925806014054663,-0.8303364569719033,-0.5860993267140647,-0.60594564674593,-12.536871129880367,20.1000245696852,16.605088895328848,-0.5653116519082615,5.519265356341724,1.4633823838596025,-1.0,12.009333333333334,0.03,178.86626646208538,0.9782871647632148,83.33518966919931,1830.0,1435.0,1000.0,1528.0,1717.0,1021.47,138.0,292.98999999999995,1637228221.7721615,1637228222.8196683,9073d6df-9600-423c-93f2-29d593cf43e4
0.7190594814396801,1.4703841763330785,0.0647886193331712,-0.5219857172153183,-0.391169855539199,-0.8268027431921995,-0.5827436687181317,-0.6162180690254275,-12.507092396352755,20.07033285426348,16.763711316470825,-0.5478130867908053,5.523495669298751,1.4541760887423454,-1.0,12.011555555555551,0.03,178.8426719530525,0.9721055115412685,83.17631263891563,1830.0,1435.0,1000.0,1528.0,1717.0,1021.47,138.0,292.98999999999995,1637228222.9278996,1637228224.0486298,9073d6df-9600-423c-93f2-29d593cf43e4
0.7222491356919271,1.4682535395353635,0.0598836077757878,-0.5235898584960964,-0.3961526645408185,-0.8228542972794276,-0.5859935891671545,-0.6187601517471905,-12.416164067492016,20.063776802880938,16.786430288258273,-0.5355601570519402,5.514546001221248,1.472102569331354,-1.0,12.012999999999998,0.03,178.8416762632535,0.9688392581619252,83.06570683222617,1830.0,1435.0,1000.0,1528.0,1717.0,1021.47,138.0,292.98999999999995,1637228224.157244,1637228225.2771492,9073d6df-9600-423c-93f2-29d593cf43e4
0.6861033732197737,1.3771067720751415,0.1270471473397768,-0.5130314526844874,-0.3176680828698238,-0.7640795979673944,-0.4944391912884543,-0.5261275582142162,-12.341602801725548,20.60386895297936,14.43363877908537,-0.4207156210029964,5.195982216081038,1.1288743618993324,-1.0,11.951666666666666,0.2766666666666666,178.85701383248974,0.9800184872801724,82.79186254001303,1932.0,1435.0,1000.0,1528.0,1798.0,1021.47,138.0,292.98999999999995,1637228226.2789068,1637228227.4171753,18a3a821-4ea2-4e8b-8f59-f6a82ee73996
0.6972271691631917,1.3792763070067326,0.124220177714893,-0.51504320372841,-0.3194694545242522,-0.7629488096954747,-0.4967533624042785,-0.527310940932943,-12.437692028073077,20.482728708523723,14.615303353802563,-0.4145997993132447,5.203255718874765,1.138959869871135,-1.0,11.953111111111111,0.2644444444444444,178.86952673904918,0.9604501376036936,82.32475273286504,1932.0,1435.0,1000.0,1528.0,1798.0,1021.47,138.0,292.98999999999995,1637228227.5259123,1637228228.5425131,18a3a821-4ea2-4e8b-8f59-f6a82ee73996
0.6821746527374547,1.376480565416232,0.1141784090112571,-0.5160277128611417,-0.3296722965522942,-0.7590732299385853,-0.5075084509177247,-0.5332990779433925,-12.5123045947105,20.62005466092834,14.566656735115458,-0.4033050180541598,5.193216179787775,1.181333431553527,-1.0,11.95588888888889,0.26,178.87200078534855,0.9385880183048544,81.95218412747863,1932.0,1435.0,1000.0,1528.0,1798.0,1021.47,138.0,292.98999999999995,1637228228.6513612,1637228229.6025496,18a3a821-4ea2-4e8b-8f59-f6a82ee73996
-0.3258646527042835,-0.4445453555885895,-0.0146788143638136,0.3962042321983288,-0.0100219843381967,0.1779221909548732,-0.2141828991902171,-0.232426717518687,-13.651310686531778,22.595902912473107,14.148641155388374,-0.3494810410266508,-1.7454223613863202,0.2894288216756638,-1.0,12.049,0.04,179.3843317571714,0.9096072410652746,81.51894978188415,1423.0,1435.0,1000.0,1528.0,1394.0,1021.47,138.0,292.98999999999995,1637228230.245056,1637228231.216071,029cb6cc-37ce-4480-b026-27b9e2191708
-0.3256729008328998,-0.4383819028354399,-0.0123640959278041,0.395546797440409,-0.0092138873815633,0.1720737606406109,-0.2140733267164023,-0.2316323170134288,-13.63947191009018,22.610167592766004,14.098815204994423,-0.3609323964889956,-1.7217199250062052,0.2856891040376864,-1.0,12.04977777777778,0.04,179.40285219456084,0.9565941637941368,81.81247488473574,1423.0,1435.0,1000.0,1528.0,1394.0,1021.47,138.0,292.98999999999995,1637228231.3248413,1637228232.444795,029cb6cc-37ce-4480-b026-27b9e2191708
-0.3293298826099654,-0.4516949608174925,-0.0172537674357002,0.4003679856664515,-0.0108711709911791,0.1821270342688671,-0.2149362099742076,-0.2326184693902232,-13.62458894669023,22.605012477549185,14.2824326585262,-0.3494576532409315,-1.774288379515344,0.2945429978701078,-1.0,12.046,0.04,179.4075726141872,0.9534921314040568,82.05982790879801,1423.0,1435.0,1000.0,1528.0,1394.0,1021.47,138.0,292.98999999999995,1637228232.5527446,1637228233.567134,029cb6cc-37ce-4480-b026-27b9e2191708
-0.5672254631866238,-0.8787675127385853,-0.0185686371081989,0.6213071522912362,0.0815669034793772,0.3924924651024739,-0.1305517052384248,-0.1535345324340649,-13.863863629993055,24.338425247471765,13.923077797111182,-0.3638752682861623,-3.398447925263967,-0.0008384451296692,-1.0,12.027888888888889,0.03,179.53354558759932,0.9542529148706708,82.47321372466442,1321.0,1435.0,1000.0,1528.0,1314.0,1021.47,138.0,292.98999999999995,1637228235.225609,1637228236.336038,f7d79440-1a42-41fb-8996-02f60af73083
-0.5683896710417211,-0.8807809079270167,-0.0229515359639809,0.6217591386802589,0.0777455636688734,0.3933279551002695,-0.1349483008519517,-0.1539180361942251,-13.898873352402845,24.35650781065321,13.786820221228934,-0.3631550921147227,-3.40487713863518,0.0161368049677131,-1.0,12.028,0.03,179.5490986872493,0.9593069702652648,82.45818958522013,1321.0,1435.0,1000.0,1528.0,1314.0,1021.47,138.0,292.98999999999995,1637228236.444988,1637228237.5641243,f7d79440-1a42-41fb-8996-02f60af73083
-0.5685403331866361,-0.8767952072647734,-0.0218147215684884,0.6178008336309927,0.0770744323017715,0.3938621208593083,-0.133167748103589,-0.149083150856719,-13.758481120215116,24.3356745920491,13.910421818772129,-0.3530169114028472,-3.391458410685496,0.0136948018290906,-1.0,12.026222222222223,0.03,179.54692365145365,0.9496945106516278,82.42650585548024,1321.0,1435.0,1000.0,1528.0,1314.0,1021.47,138.0,292.98999999999995,1637228237.6722896,1637228238.6371973,f7d79440-1a42-41fb-8996-02f60af73083
-0.7313102936561332,-1.2039377283804324,-0.0227049979284477,0.7636828650557096,0.1444478027962761,0.5871205453560479,-0.0623976260296771,-0.0867775017857517,-14.02339494421753,25.809127553500385,15.164592778569707,-0.2380236097523835,-4.645675107006433,-0.2149444613744914,-1.0,12.007222222222222,0.04,179.67831675942705,0.9658178599495468,82.3993884866555,1220.0,1435.0,1000.0,1528.0,1233.0,1021.47,138.0,292.98999999999995,1637228240.8201227,1637228241.9660378,b8aa323d-b756-4289-a294-5a6d006f312f
-0.7374534766217579,-1.204666385788784,-0.0250964171198193,0.763562335352571,0.1426020546237237,0.5869096183660399,-0.0650027115800766,-0.0880129312617685,-14.080237879122503,25.800424233041426,14.9986065736894,-0.2384575499014531,-4.646671474483299,-0.2058211442608643,-1.0,12.008,0.0311111111111111,179.66753113181773,0.9694644576303276,82.25656088310153,1220.0,1435.0,1000.0,1528.0,1233.0,1021.47,138.0,292.98999999999995,1637228242.079238,1637228243.1914856,b8aa323d-b756-4289-a294-5a6d006f312f
-0.7338030683181985,-1.1970620502881435,-0.0171715880932335,0.7672987561852516,0.1493374741010976,0.5758619752702296,-0.0603157490138785,-0.0804770843715308,-14.056838983886148,25.78591300564937,15.025010230822764,-0.2713971348121037,-4.618508107111276,-0.2314582336291683,-1.0,12.009,0.0377777777777777,179.64542408620412,0.9502404158926344,82.14781971805549,1220.0,1435.0,1000.0,1528.0,1233.0,1021.47,138.0,292.98999999999995,1637228243.2995994,1637228244.323002,b8aa323d-b756-4289-a294-5a6d006f312f
-0.763895516142035,-1.264440409946813,0.0167690325375151,0.8210352813443282,0.1947366334908917,0.5857262358028837,-0.0236895065789559,-0.0406118791503402,-14.200636253442248,26.643152641990746,14.339087111645206,-0.3632562220965467,-4.868570764341092,-0.4008077407269656,-1.0,11.972444444444443,0.18,179.67165808389623,0.9717239933010672,81.89893217815967,1118.0,1435.0,1000.0,1528.0,1152.0,1021.47,138.0,292.98999999999995,1637228246.2578225,1637228247.3961658,398681b6-65d6-4d15-acb3-ce9d8040d2c1
-0.7721923471796521,-1.280955187229531,0.0039490535371682,0.8439140107588134,0.1872681743268515,0.5822944264008849,-0.0389945894826475,-0.0621888905948712,-14.376295268564718,26.85002576164106,14.435925688677806,-0.4219167123895805,-4.9337522977516,-0.3532380616217116,-1.0,11.973999999999998,0.1744444444444444,179.67688393752118,0.938971777700877,81.57994792463182,1118.0,1435.0,1000.0,1528.0,1152.0,1021.47,138.0,292.98999999999995,1637228247.5057683,1637228248.512077,398681b6-65d6-4d15-acb3-ce9d8040d2c1
-0.7891804704579356,-1.3028872324075411,0.0110887956951655,0.859455768355812,0.1980764021932708,0.5896313982231532,-0.027607818160486,-0.0544969030239948,-14.195528469902714,26.99079662199276,14.527125645117914,-0.4390937247065568,-5.0195570416695565,-0.3962240883899224,-1.0,11.974222222222222,0.17,179.6701569600986,0.9362333461623942,81.3469420923761,1118.0,1435.0,1000.0,1528.0,1152.0,1021.47,138.0,292.98999999999995,1637228248.6207645,1637228249.8530667,398681b6-65d6-4d15-acb3-ce9d8040d2c1
-0.0172400709166946,0.1252178350491922,-0.0015849040878922,0.1271216566314409,-0.1230596872003721,-0.1215530656531477,-0.3278369574027222,-0.3335758167523422,-13.630451674782575,20.90272728665171,15.346335914564143,-0.425828421449108,0.4147044366595858,0.6563417851117821,-1.0,12.053299999999998,0.04,179.29971937373327,0.9267031618691344,80.91731188582467,1525.0,1435.0,1000.0,1528.0,1475.0,1021.47,138.0,292.98999999999995,1637228251.7861955,1637228252.8352745,219420f4-b296-4f68-88f6-2d829e8f834a
-0.0106931157650613,0.1303403478476719,0.001688573488783,0.1275736430223218,-0.1209367204627865,-0.1275932484001714,-0.3261522804109207,-0.3635438920859387,-13.577437684577513,20.887048272252866,15.279393382936862,-0.44034601502681,0.4342866700123928,0.6471623763335159,-1.0,12.051444444444444,0.04,179.29726354127172,0.947031472069296,81.35005969427726,1525.0,1435.0,1000.0,1528.0,1475.0,1021.47,138.0,292.98999999999995,1637228252.945179,1637228253.949788,219420f4-b296-4f68-88f6-2d829e8f834a
-0.0243211918777442,0.1195337633517987,-0.0062691271938512,0.129847271705824,-0.126922116947439,-0.1184302501235115,-0.3320418015359969,-0.3639547889347903,-13.636571072290224,20.98595591685938,15.3201536416183,-0.4246481221640841,0.3930299515049413,0.6732352272650389,-1.0,12.05277777777778,0.04,179.30186101749302,0.9642760158922202,81.73214502990723,1525.0,1435.0,1000.0,1528.0,1475.0,1021.47,138.0,292.98999999999995,1637228254.0579026,1637228255.178167,219420f4-b296-4f68-88f6-2d829e8f834a
0.0007846005376932,0.1240399310236671,-0.0323884650722877,-0.3158113770773885,-0.1981853171165855,0.308532566972042,-0.237809465345815,-0.254450786937108,-13.579964945063624,19.947865139450613,18.577582841299684,1.532456610825932,0.4338563493758565,0.6734326709417925,-1.0,12.050777777777776,0.04,179.31097704330526,1.0767551916890363,82.18635336862297,1525.0,1535.0,1000.0,1528.0,1475.0,1021.47,138.0,292.98999999999995,1637228255.7253754,1637228256.7040274,44db837a-7d3e-4143-ae25-e4f0bac3f014
0.0069069623531012,0.1199309635377317,-0.0228830531519563,-0.3125378990442704,-0.1900632571000982,0.3091626086539272,-0.2264139273105467,-0.2525743575207831,-13.271660520798354,20.025113048738262,18.601205048381605,1.5276325840616038,0.4162546244145406,0.6329371251572349,-1.0,12.051666666666668,0.04,179.31981834373087,1.10138856537987,82.37986325254813,1525.0,1535.0,1000.0,1528.0,1475.0,1021.47,138.0,292.98999999999995,1637228256.8118894,1637228257.933075,44db837a-7d3e-4143-ae25-e4f0bac3f014
-0.0054473337095764,0.1150960784479607,-0.0326623962526583,-0.3078947649947507,-0.1953775223358878,0.3103952988319291,-0.2366589542854007,-0.2527387163058399,-13.62226840501382,19.92735402050096,18.636730404579623,1.5186230041032651,0.3990942365036494,0.6673931319407774,-1.0,12.049,0.04,179.31310958014615,1.0777822458115751,82.5332374270905,1525.0,1535.0,1000.0,1528.0,1475.0,1021.47,138.0,292.98999999999995,1637228258.040577,1637228259.157922,44db837a-7d3e-4143-ae25-e4f0bac3f014
0.0148783595712031,0.1069192331233451,-0.0513855924617933,-0.7186409717105399,-0.2593404580439484,0.7168543357167767,-0.1443852303872679,-0.1520416075332002,-13.443799319135934,19.55101965944138,21.79535375412708,3.3556998237425013,0.3885464521389947,0.6487999801628053,-1.0,12.0429,0.037,179.30780495167272,1.213582131361877,82.84397506199646,1525.0,1636.0,1000.0,1528.0,1475.0,1021.47,138.0,292.98999999999995,1637228260.7442544,1637228261.8072128,e3be8ff8-af5f-413a-9c5b-520f8f483532
0.0113912157048801,0.106272207701437,-0.0567058838913577,-0.719216227395283,-0.2649943981716018,0.7184754602342496,-0.1492727107125678,-0.1748600758551952,-13.38057601520287,19.573218175363387,21.82046054893317,3.360558411695402,0.3851836381795406,0.6706989042404631,-1.0,12.043111111111113,0.04,179.30568136996877,1.2158813544634033,82.88462258022108,1525.0,1636.0,1000.0,1528.0,1475.0,1021.47,138.0,292.98999999999995,1637228261.9158888,1637228263.0554817,e3be8ff8-af5f-413a-9c5b-520f8f483532
0.0171793814338743,0.1149180232029165,-0.0494132879577812,-0.7278176696573734,-0.2609155624903876,0.7174569842346915,-0.1420979049289128,-0.1706004461506909,-13.271354106156949,19.545741291218075,21.80943679081787,3.377906703795204,0.4184562277426089,0.6460302137165584,-1.0,12.045,0.04,179.2984079774126,1.2121709253445974,82.90890693836008,1525.0,1636.0,1000.0,1528.0,1475.0,1021.47,138.0,292.98999999999995,1637228263.1724288,1637228264.3950307,e3be8ff8-af5f-413a-9c5b-520f8f483532
0.0244522541401479,0.0984410634780039,-0.0743821152781941,-1.0561243572347057,-0.3231116439149814,1.0513790553608091,-0.0821754574846863,-0.1057746293872519,-13.458293264576392,19.797355252944,24.138252749896694,4.869555459969292,0.376183440186247,0.6776402418525486,-1.0,12.029111111111112,0.03,179.31307163465075,1.3146453443952917,82.94219424473512,1525.0,1737.0,1000.0,1528.0,1475.0,1021.47,138.0,292.98999999999995,1637228266.3286486,1637228267.4672768,2e625106-3dc3-487f-b267-3c63308e8270
0.0248949268914209,0.0976335143790511,-0.0754033307552843,-1.0508396736290575,-0.3229670082350321,1.0467983785918948,-0.0851465151485745,-0.1207268896652996,-13.567274496028858,19.822258883532783,24.051344113101425,4.847386643535733,0.3739812765685694,0.6828050369946739,-1.0,12.029,0.03,179.31318850677656,1.3002760730535965,82.8411165519378,1525.0,1737.0,1000.0,1528.0,1475.0,1021.47,138.0,292.98999999999995,1637228267.5761375,1637228268.6948364,2e625106-3dc3-487f-b267-3c63308e8270
0.0190174596001386,0.0928605377136623,-0.079558318983142,-1.0506424429112429,-0.3263856698366553,1.0529782654726434,-0.0867243587835442,-0.0992287696807914,-13.47682694505153,19.80572544357916,24.268367645905705,4.860592401285734,0.3532281046839515,0.6951719261509568,-1.0,12.031333333333334,0.03,179.29831235476428,1.3086592290542711,82.7324854288284,1525.0,1737.0,1000.0,1528.0,1475.0,1021.47,138.0,292.98999999999995,1637228268.8025253,1637228269.8683712,2e625106-3dc3-487f-b267-3c63308e8270
0.0308759401710975,0.1034266107346963,-0.0588913068608195,-0.9973934768291868,-0.3095657453776065,0.988648821181198,-0.0894209373802187,-0.1187863614299608,-13.28955985970572,20.55888944796937,23.62523189343221,4.601932569475484,0.3919988322548941,0.6485906713046056,-1.0,12.012999999999998,0.03,179.2901707692736,1.305054596719797,82.53238593017397,1525.0,1837.0,1000.0,1528.0,1475.0,1021.47,138.0,292.98999999999995,1637228271.749318,1637228272.7920597,39e5717e-a139-4c00-a0e1-f2c5da11b295
0.0199597828526929,0.1047003906638152,-0.0563300503392354,-0.9846419714823196,-0.3057854946748588,0.975308373855286,-0.0900646756514507,-0.1174988844727929,-13.255183767587196,20.54093342890396,23.582880234649654,4.543209584967745,0.3955004198374716,0.6411047148720118,-1.0,12.017333333333331,0.03,179.28277291549256,1.3270781029537129,82.35630213555125,1525.0,1837.0,1000.0,1528.0,1475.0,1021.47,138.0,292.98999999999995,1637228272.9004,1637228274.0201683,39e5717e-a139-4c00-a0e1-f2c5da11b295
0.0285612217471792,0.0979616839443835,-0.0582201754730818,-0.9940652100255316,-0.3078810684260212,0.99177163619934,-0.0883252126229746,-0.1164168560277657,-13.337452330930176,20.63471276968985,23.749712049431352,4.601973992136805,0.3703717919830159,0.6433000583298395,-1.0,12.016777777777778,0.03,179.28041270567934,1.3343684405451532,82.21637660348463,1525.0,1837.0,1000.0,1528.0,1475.0,1021.47,138.0,292.98999999999995,1637228274.1287,1637228275.1361847,39e5717e-a139-4c00-a0e1-f2c5da11b295
-0.0379689911193105,0.1242464751336264,0.0390297755087196,0.5390352198811378,-0.0451481794695741,-0.5181199994702428,-0.4020958764509871,-0.4320223157102824,-13.645016598776747,22.22239184186323,12.613671133599327,-2.2358157300273707,0.3872656309000822,0.5996782729220008,-1.0,12.051,0.04,179.27771250422745,0.8082534236412209,81.97523373919769,1525.0,1334.0,1000.0,1528.0,1475.0,1021.47,138.0,292.98999999999995,1637228276.742996,1637228277.7068262,fdacfe3e-db88-4c60-aac1-61d0ea6c22ef
-0.0354838874382823,0.1170272931772967,0.0266710966848915,0.539538705331772,-0.0554260773944908,-0.5114804538781782,-0.4130843536931536,-0.4390393381020368,-13.748531862660734,22.2464557769447,12.528309576708324,-2.222553095413224,0.36083346619011,0.6450968622361822,-1.0,12.049,0.04,179.28330870588744,0.8587139185208739,82.27684123256712,1525.0,1334.0,1000.0,1528.0,1475.0,1021.47,138.0,292.98999999999995,1637228277.8154862,1637228278.9348042,fdacfe3e-db88-4c60-aac1-61d0ea6c22ef
-0.0470152944236364,0.1136223287833571,0.0239087747169777,0.5381937034041875,-0.0570214526072984,-0.5062993183387748,-0.4142847203542066,-0.4323378846199373,-13.812392312727008,22.216523567565574,12.59990570676127,-2.2082330995497306,0.3478701877961802,0.6523890476893367,-1.0,12.05,0.04,179.27073205089573,0.8513709137676303,82.57745151831772,1525.0,1334.0,1000.0,1528.0,1475.0,1021.47,138.0,292.98999999999995,1637228279.04268,1637228280.2569315,fdacfe3e-db88-4c60-aac1-61d0ea6c22ef
-0.0646712548647269,0.1196433358230327,0.0615973211833453,0.9857040610571312,0.0169602365361501,-0.9440316507099444,-0.5101929769881006,-0.5370519364984484,-14.075390274856325,24.13699550656244,9.548680364165005,-4.187360914499748,0.3466807123937663,0.6361793497326211,-1.0,12.038333333333334,0.03,179.3044322042606,0.7056264162671941,83.15347552197073,1525.0,1234.0,1000.0,1528.0,1475.0,1021.47,138.0,292.98999999999995,1637228282.3035553,1637228283.4411175,bb5d6889-3bb5-4409-aae9-788d1ef1c8e5
-0.0575627406570605,0.1301075063405718,0.0648981917897375,0.973349766087055,0.0165767328917101,-0.9435796640540768,-0.5071112504954236,-0.5316007047976777,-14.004077123280736,24.105851600577225,9.477861962154543,-4.158494464536042,0.3877804463076734,0.6289351357081322,-1.0,12.039555555555555,0.03,179.28790618210877,0.7072546515453507,83.30283733983067,1525.0,1234.0,1000.0,1528.0,1475.0,1021.47,138.0,292.98999999999995,1637228283.5489662,1637228284.66903,bb5d6889-3bb5-4409-aae9-788d1ef1c8e5
-0.0608951730563253,0.1248158708380788,0.0631170436783537,0.9687763068594444,0.0157960290408453,-0.9342832684159396,-0.50550696621639,-0.5228718257057463,-14.01779604526321,24.05707076313169,9.46364677931473,-4.127708853836444,0.3686060319874437,0.6294522128987726,-1.0,12.04411111111111,0.03,179.29828655182737,0.6954226413267404,83.41910613225198,1525.0,1234.0,1000.0,1528.0,1475.0,1021.47,138.0,292.98999999999995,1637228284.7777386,1637228285.898668,bb5d6889-3bb5-4409-aae9-788d1ef1c8e5
-0.0686317519231705,0.132056800492684,0.0912432480735702,1.1961544132136663,0.0554524971141323,-1.1593164967728722,-0.5530823926377059,-0.574001974665065,-14.20263636960631,25.72422969512284,8.153693160652088,-5.134147427771893,0.3824984745094925,0.6050455826984034,-1.0,12.033888888888889,0.03,179.3121821922388,0.5976253425348043,83.74277437773065,1525.0,1133.0,1000.0,1528.0,1475.0,1021.47,138.0,292.98999999999995,1637228287.8335774,1637228288.970826,adc831e6-d6a7-4d30-a461-6fa88993a6bb
-0.0513675130271245,0.1333979674969204,0.0810924546833927,1.1997177100985552,0.0461958149480056,-1.1644839391659962,-0.5659944161129752,-0.5991422897067553,-14.333910410202762,25.749741442865243,7.984065814611961,-5.154226726428856,0.3888794028486995,0.6497261440932636,-1.0,12.034333333333334,0.03,179.3001504345609,0.5874046996358533,83.82657320974764,1525.0,1133.0,1000.0,1528.0,1475.0,1021.47,138.0,292.98999999999995,1637228289.0795918,1637228290.19987,adc831e6-d6a7-4d30-a461-6fa88993a6bb
-0.0636483958194126,0.1342131866521528,0.0905069210122028,1.1956942088577258,0.0541639247947367,-1.1608285979702844,-0.5548574672728162,-0.5753825887567111,-14.22517800986382,25.74962944942383,8.168992265015403,-5.136384407038781,0.3906205948519445,0.6105839651071122,-1.0,12.037,0.03,179.31290012101155,0.6138804812813962,83.91396168562841,1525.0,1133.0,1000.0,1528.0,1475.0,1021.47,138.0,292.98999999999995,1637228290.3085473,1637228291.4290917,adc831e6-d6a7-4d30-a461-6fa88993a6bb
-0.0684925949076888,0.1393252900471829,0.1013858233970238,1.3590311497262355,0.0721025814535069,-1.324042958057163,-0.60146687077698,-0.625463249795515,-14.444631075890731,27.161012908723947,6.907810153370711,-5.8620105663361,0.4031284778680099,0.6372227898122946,-1.0,12.009,0.06,179.3064539402549,0.5724774279264963,84.04815517116154,1525.0,1033.0,1000.0,1528.0,1475.0,1021.47,138.0,292.98999999999995,1637228293.2242253,1637228294.1664631,4c3daeed-309d-486c-84be-7f5898c3a301
-0.0771625168438433,0.124793241706565,0.0985917254470319,1.3460057219054502,0.0711027326066893,-1.2966498148147652,-0.595481472720849,-0.6280792932187871,-14.488492589506372,27.127516158604823,7.085520075922099,-5.771427274169419,0.3487858735967611,0.6322324825905447,-1.0,12.017333333333331,0.0366666666666666,179.30583922322958,0.541024211142127,83.93265667229663,1525.0,1033.0,1000.0,1528.0,1475.0,1021.47,138.0,292.98999999999995,1637228294.2770455,1637228295.4168272,4c3daeed-309d-486c-84be-7f5898c3a301
-0.0670681527415285,0.1397635798841542,0.1043442800152183,1.3567849138623005,0.0731709130027123,-1.3214543060103705,-0.5970565773949869,-0.6205324866974132,-14.231633832582128,27.20041198285853,7.06947532013863,-5.8505850814057725,0.4022967330829932,0.6258497998867782,-1.0,12.017666666666663,0.0333333333333333,179.31562916103996,0.5239710964144563,83.87486871845887,1525.0,1033.0,1000.0,1528.0,1475.0,1021.47,138.0,292.98999999999995,1637228295.546592,1637228296.5535283,4c3daeed-309d-486c-84be-7f5898c3a301
-0.0194589134607222,0.1133566155456952,-0.0025299666413795,0.0515988333867023,-0.1304969190085532,-0.0341279280914594,-0.3059772464931188,-0.3353426731104461,-13.771236288607232,20.948820089287185,16.316199498673722,-0.0586692466825378,0.371857560177427,0.6357893530802389,-1.0,12.050000000000002,0.04,179.3281329606805,0.897395289716115,83.75832292392121,1525.0,1435.0,1000.0,1528.0,1475.0,1021.47,138.0,292.98999999999995,1637228298.2434666,1637228299.210783,2d509900-79de-4416-af3d-8cdaba95ced2
-0.0213627351485285,0.1122745874391284,-0.0010781313943891,0.0559406424597365,-0.1296888219786029,-0.0371411711037659,-0.3058539774352116,-0.3331512233802046,-13.70568856588918,21.06014939696585,16.30986932630704,-0.0743921704635626,0.3669508274566944,0.6324325387933679,-1.0,12.04922222222222,0.04,179.3214105367174,0.9185020802133026,83.78911189887984,1525.0,1435.0,1000.0,1528.0,1475.0,1021.47,138.0,292.98999999999995,1637228299.343403,1637228300.4401586,2d509900-79de-4416-af3d-8cdaba95ced2
-0.0212120730169868,0.1018925961964104,-0.0076524796517699,0.069842649411762,-0.1325103132404333,-0.0397161241721007,-0.3125652921507,-0.3433140716788208,-13.734149778586165,21.086104609406416,16.266265949426927,-0.1117145311863308,0.326471972141592,0.6535661716589969,-1.0,12.048666666666668,0.04,179.32422153901584,0.9260005132730496,83.82506297903116,1525.0,1435.0,1000.0,1528.0,1475.0,1021.47,138.0,292.98999999999995,1637228300.548761,1637228301.5562394,2d509900-79de-4416-af3d-8cdaba95ced2
0.0247634399556973,0.1340948483779472,0.1612337566888038,0.0439079418197897,0.0177420361119574,-0.0567321813079254,-0.1378990876236384,-0.1664712069757778,-12.550730928791404,20.933513285216847,16.256011844151445,-0.0834576082413585,0.4528619473887065,-0.0254361141719129,-1.0,12.048777777777778,0.04,179.30123719354884,0.9430678160586056,83.76626719283587,1525.0,1435.0,1000.0,1439.0,1475.0,1021.47,138.0,292.98999999999995,1637228303.2426662,1637228304.2193143,94352db2-ee44-40ab-b4cf-099d737802d5
0.0312731403524705,0.1355313434073393,0.1590757269787946,0.0436959190671497,0.0161384430115593,-0.0569053058020473,-0.1403584418756882,-0.1739561030105314,-12.62284353873052,20.888534447699733,16.38680540232734,-0.0837894467334143,0.4574893866012193,-0.0164842740599286,-1.0,12.047999999999998,0.04,179.3004722123618,0.9388462255430088,83.79008026792216,1525.0,1435.0,1000.0,1439.0,1475.0,1021.47,138.0,292.98999999999995,1637228304.3275316,1637228305.44925,94352db2-ee44-40ab-b4cf-099d737802d5
0.0333413207288989,0.1303403478409733,0.1595140168404964,0.0457367063194938,0.0168643606222832,-0.0546864632753951,-0.1384272269830117,-0.1612319990266716,-12.510971279561836,20.925654313036663,16.25448523056451,-0.0831038103304441,0.4381780933005406,-0.021553918775548,-1.0,12.05,0.04,179.30482987305223,0.9489091337608146,83.7877238526585,1525.0,1435.0,1000.0,1439.0,1475.0,1021.47,138.0,292.98999999999995,1637228305.557172,1637228306.7880504,94352db2-ee44-40ab-b4cf-099d737802d5
0.0929262811800338,0.1687942567842152,0.3554268410742214,0.0260125661300541,0.1900294004482868,-0.0830690210336014,0.0598573103852737,0.0421591650956692,-11.087894334181028,20.96709556038944,16.50339653126532,-0.0916044911802861,0.5849743432840622,-0.8009674051817474,-1.0,12.044222222222222,0.04,179.30551289196924,0.9442517392306756,83.72708543320715,1525.0,1435.0,1000.0,1351.0,1475.0,1021.47,138.0,292.98999999999995,1637228308.815656,1637228309.8607745,ef17fc41-a8e8-41ec-b0fe-c2843c6a6d23
0.0945567194801875,0.1684260933017984,0.3567022645179445,0.0255392130429855,0.1909103630645699,-0.0836081176179224,0.0612905182723665,0.0345986647101447,-11.041373759252988,20.979200966738485,16.323656907455568,-0.0916096230834829,0.5849966131830365,-0.806221073756666,-1.0,12.046,0.04,179.31703618000898,0.9404706247687408,83.73322653218088,1525.0,1435.0,1000.0,1351.0,1475.0,1021.47,138.0,292.98999999999995,1637228309.9694436,1637228311.0896194,ef17fc41-a8e8-41ec-b0fe-c2843c6a6d23
0.0966331177257971,0.166006185410925,0.354087317740559,0.0254110132820655,0.1885507200419445,-0.0811208224214084,0.0593647821380816,0.0323414718312444,-11.030588900310612,21.00151346974131,16.305597385427202,-0.0857108959985284,0.5758546046664447,-0.7970218763104984,-1.0,12.047,0.04,179.3141128590442,0.9338488275162172,83.74785679738304,1525.0,1435.0,1000.0,1351.0,1475.0,1021.47,138.0,292.98999999999995,1637228311.198594,1637228312.4121444,ef17fc41-a8e8-41ec-b0fe-c2843c6a6d23
0.1550763319441201,0.1978232898319297,0.5453871353052643,0.0244796472450476,0.3605383963630617,-0.1217037278300465,0.2474596158333063,0.2245315775423108,-9.862165721063644,21.21636533460404,16.298191742364807,-0.1632684628906733,0.6992296180771843,-1.5552847944243784,-1.0,12.04511111111111,0.04,179.2929635577342,0.9337620390534824,83.69997337675171,1525.0,1435.0,1000.0,1262.0,1475.0,1021.47,138.0,292.98999999999995,1637228313.3214576,1637228314.459463,f69611a9-b1c4-440e-a913-72ca0a8c6128
0.1561172703900048,0.2057262038167065,0.5499480888856532,0.0169739330622679,0.3622367695030086,-0.1214708863125094,0.2517740315574556,0.2310922290158537,-9.783977512780687,21.20916180720442,16.483283420494896,-0.1455659700040435,0.7278896226980466,-1.5687487970776328,-1.0,12.041333333333334,0.0333333333333333,179.30224654372617,0.9170170002454844,83.70530244212415,1525.0,1435.0,1000.0,1262.0,1475.0,1021.47,138.0,292.98999999999995,1637228314.5677538,1637228315.59599,f69611a9-b1c4-440e-a913-72ca0a8c6128
0.1504255286807516,0.1897138317526894,0.5352352470286315,0.0236589494326917,0.3533624959093452,-0.1116016934486518,0.2405072430436357,0.2146437586488375,-9.979809003510788,21.145484349537984,16.4328231825451,-0.1397296820728676,0.6679099027346649,-1.5226258552397958,-1.0,12.045375,0.03125,179.3044680627537,0.9196112137033088,83.6865359281971,1525.0,1435.0,1000.0,1262.0,1475.0,1021.47,138.0,292.98999999999995,1637228315.7043478,1637228316.7142715,f69611a9-b1c4-440e-a913-72ca0a8c6128
0.1995490561256972,0.2244132396484254,0.689232762619764,0.036478928405658,0.4889649891745835,-0.1667473294350259,0.3829602089243376,0.3626454746514583,-8.96109204912043,21.58116930665745,16.2357143389117,-0.2815303887013596,0.8007821183838907,-2.115492954946653,-1.0,12.036700000000002,0.03,179.31170908780229,0.9116593287127224,83.64547590449212,1525.0,1435.0,1000.0,1173.0,1475.0,1021.47,138.0,292.98999999999995,1637228317.8271315,1637228318.872239,9e1cfa9b-194f-451e-8525-e72752eef3f5
0.2025759954536372,0.2179024438573825,0.6870643236742939,0.0416688283902419,0.4886696914002728,-0.1644369938119936,0.3818502399138584,0.3501427090360273,-8.970102108193982,21.59347637246076,16.32386561666972,-0.2880627712750463,0.7748689175502467,-2.111183892187504,-1.0,12.038,0.03,179.30894866684923,0.897854659958438,83.6127058521375,1525.0,1435.0,1000.0,1173.0,1475.0,1021.47,138.0,292.98999999999995,1637228318.9801328,1637228320.1014192,9e1cfa9b-194f-451e-8525-e72752eef3f5
0.1959068674041802,0.2181018657427264,0.6842625559231508,0.0407522547125981,0.4850992728189985,-0.164038697800208,0.3799228603122679,0.3572545096068408,-8.825070837020641,21.58505140913689,16.269432152612996,-0.2852312126896358,0.7750079074227392,-2.0997133557914207,-1.0,12.03622222222222,0.03,179.32191293507637,0.9169261682158972,83.58590390524314,1525.0,1435.0,1000.0,1173.0,1475.0,1021.47,138.0,292.98999999999995,1637228320.2098663,1637228321.328955,9e1cfa9b-194f-451e-8525-e72752eef3f5
-0.0892702752545397,0.0755404177484444,-0.1993906144115658,0.0972083732096022,-0.306607288283897,-0.0300189603890277,-0.5167810234439871,-0.5337373681305321,-15.163302057277448,21.45501172284509,16.03536760635349,-0.1595120322070701,0.2242786904214521,1.4383872378420277,-1.0,12.049444444444443,0.04,179.37345050691363,0.930031510680088,83.71921857310309,1525.0,1435.0,1000.0,1617.0,1475.0,1021.47,138.0,292.98999999999995,1637228322.4452846,1637228323.477229,1e36ab7d-79d6-463a-b89d-b1310ecec727
-0.0904585887203395,0.0709942560682703,-0.2034321953064714,0.0937415003582021,-0.3104888935584804,-0.0218223916341384,-0.5178175792585143,-0.5423004592860828,-15.0802428668992,21.45024025563269,16.0935372010511,-0.1334546239548651,0.2062949425505943,1.4502206815865215,-1.0,12.050666666666666,0.04,179.37843502718795,0.9351868686894034,83.72518512279804,1525.0,1435.0,1000.0,1617.0,1475.0,1021.47,138.0,292.98999999999995,1637228323.5890949,1637228324.6035855,1e36ab7d-79d6-463a-b89d-b1310ecec727
-0.0809975534256481,0.0833748492123875,-0.1951994670575299,0.0946882064740757,-0.3053335081249454,-0.0361276256972039,-0.5136856003437617,-0.5399830003351181,-14.956446601848148,21.44547072734193,15.955440856414356,-0.1673173123590517,0.2534827094627596,1.427493800201077,-1.0,12.049,0.04,179.364411889912,0.927590998712278,83.71026267728138,1525.0,1435.0,1000.0,1617.0,1475.0,1021.47,138.0,292.98999999999995,1637228324.7113202,1637228325.8362772,1e36ab7d-79d6-463a-b89d-b1310ecec727
-0.1553737063096743,0.0488650003224075,-0.409327660840057,0.1409584676523683,-0.4981734218947073,-0.0338534490425687,-0.7436202176769601,-0.7648422228724754,-16.437420246265212,21.935851493583712,15.821250270770957,-0.2747595429998684,0.1164579608159693,2.304210735882461,-1.0,12.044444444444444,0.03,179.41029861857595,0.9351040526457168,83.77259650146674,1525.0,1435.0,1000.0,1706.0,1475.0,1021.47,138.0,292.98999999999995,1637228326.9511282,1637228328.089743,fb5fb52d-0d8e-4719-b3dc-18f4598cd3a8
-0.1631971811909514,0.0355453709903127,-0.4233310252974874,0.1399854641231261,-0.507495849984041,-0.0185089201534993,-0.7539156512384128,-0.7871424221098144,-16.73744860576984,21.901280725730608,15.928335450877942,-0.2391438846710002,0.0669071589042043,2.348990048604349,-1.0,12.041333333333334,0.0311111111111111,179.4128773944426,0.9355889842188204,83.72906770588625,1525.0,1435.0,1000.0,1706.0,1475.0,1021.47,138.0,292.98999999999995,1637228328.1983356,1637228329.314757,fb5fb52d-0d8e-4719-b3dc-18f4598cd3a8
-0.1588898870878397,0.0381899025335829,-0.4106874554717447,0.1387363380494635,-0.4973592982452372,-0.0212668592025564,-0.7407609229196025,-0.7656886707472808,-16.496807257997585,21.9282053636572,15.83888405037968,-0.2416086938773006,0.0768711509433143,2.2995596997752696,-1.0,12.043333333333331,0.0366666666666666,179.4092073061286,0.934936535141542,83.6768114463663,1525.0,1435.0,1000.0,1706.0,1475.0,1021.47,138.0,292.98999999999995,1637228329.423309,1637228330.4343388,fb5fb52d-0d8e-4719-b3dc-18f4598cd3a8
-0.2226884630503099,0.0171382917911431,-0.5910300893712829,0.2093147019785328,-0.6597868368699177,-0.0574531681886601,-0.9496198499533705,-0.9774238817092152,-17.910804962063963,22.699366929082927,15.50148319600443,-0.486764949114212,-0.0091962754058982,3.060279725605232,-1.0,12.038777777777778,0.03,179.44444501096658,0.9239674410619784,83.63095279736893,1525.0,1435.0,1000.0,1795.0,1475.0,1021.47,138.0,292.98999999999995,1637228332.2767055,1637228333.3719416,7a72094a-e4c8-446c-8d70-5d57e469956e
-0.2179357566659326,0.0173163470579001,-0.5956458310957923,0.2047811412929803,-0.6648271722382817,-0.053987938728533,-0.9535644612125532,-0.9796701183235512,-17.925531908967162,22.70234879619714,15.392579650711186,-0.4689863526438358,-0.0071934013002127,3.078869567041663,-1.0,12.037444444444445,0.03,179.41567321854285,0.9070149826898106,83.52777747758653,1525.0,1435.0,1000.0,1795.0,1475.0,1021.47,138.0,292.98999999999995,1637228333.4797926,1637228334.6486387,7a72094a-e4c8-446c-8d70-5d57e469956e
-0.2162510798067435,0.0209733282332252,-0.58360655220064,0.200877622253871,-0.6557874402191538,-0.054302959586221,-0.9397035356876202,-0.962672678795252,-17.606288688510574,22.683927989658518,15.444392877783628,-0.4602425437949251,0.0050472775978674,3.0311234196663897,-1.0,12.037222222222224,0.03,179.4149173442747,0.9100059652160416,83.51221147646805,1525.0,1435.0,1000.0,1795.0,1475.0,1021.47,138.0,292.98999999999995,1637228334.7806404,1637228335.8709166,7a72094a-e4c8-446c-8d70-5d57e469956e
-0.26771617869830594,-0.002125644247021564,-0.7277497350930294,0.27110425752563383,-0.7849860346066009,-0.08940669295673821,-1.110179781723191,-1.133190017710539,-18.752959575706367,23.56234348797739,15.214035721520672,-0.6995075742406391,-0.08919982269410724,3.6426349161056555,-1.0,12.006666666666668,0.04666666666666667,179.4232410681432,0.8823529897948765,83.40126567813992,1525.0,1435.0,1000.0,1883.0,1475.0,1021.4699999999999,138.0,292.98999999999995,1637228337.8056548,1637228338.9438858,06a00f65-9c06-4299-ba43-ff78a6a5cbdf
-0.26724337346166416,-0.00043439314248338846,-0.7211474435755004,0.276770249591961,-0.7773718406224889,-0.09773474888811014,-1.1063085839758273,-1.125607049202687,-18.89212831269889,23.550659836841177,15.04872405588488,-0.7308480257534452,-0.08068570051826397,3.6176813329166593,-1.0,12.0078,0.044,179.4174008010569,0.8731702309000076,83.17061793074964,1525.0,1435.0,1000.0,1883.0,1475.0,1021.4699999999999,138.0,292.98999999999995,1637228339.0529912,1637228340.1730392,06a00f65-9c06-4299-ba43-ff78a6a5cbdf
-0.276420068938509,-0.012528454616273001,-0.7363643261483159,0.27889321604658796,-0.788219519604949,-0.08584613538063836,-1.1177589150473761,-1.1440700237087487,-19.036800210302385,23.480235593881872,15.230947978090846,-0.7101899425776725,-0.127864124244052,3.6682413548452657,-1.0,12.008555555555555,0.030000000000000002,179.43643395798006,0.8763741611747679,82.92558550140338,1525.0,1435.0,1000.0,1883.0,1475.0,1021.4699999999999,138.0,292.98999999999995,1637228340.2808793,1637228341.3975666,06a00f65-9c06-4299-ba43-ff78a6a5cbdf
