raw_voltage_G-,raw_voltage_G0,raw_voltage_G1,raw_voltage_G2,raw_voltage_G3,raw_voltage_G4,raw_voltage_G5,raw_voltage_G6,load_x,load_y,load_z,load_l,load_m,load_n,rpm,voltage,current,roll,pitch,yaw,aileron1_pwm,elevator_pwm,throttle_pwm,rudder_pwm,aileron2_pwm,pbaro,pdiff,Tt,sample_start_time,sample_end_time,uid
-0.0733685698985454,0.0405868002911713,0.0074822178554907,0.250705700039772,-0.0969951346399688,-0.3222076709456621,-0.3684335640196925,-0.3957719007469558,-14.062619441834563,22.412057070162216,-8.91142936930584,-1.149128793726391,0.3007259034821349,0.6219904658589825,-1.0,12.052666666666669,0.04,179.61886223943185,7.965991856969142,65.44726877803403,1525.0,1435.0,1000.0,1528.0,1475.0,1021.47,138.0,293.25,1637229149.750058,1637229150.8829453,ef11737b-cb54-4e91-a9fd-5082613fd5e5
-0.0761489714275771,0.0424906219485271,0.0010311386631766,0.2540750532661888,-0.1025970274025952,-0.3258235629972574,-0.3767336800598233,-0.3989495026899162,-14.157382481817962,22.39923247282404,-8.775424843828732,-1.1652868792235576,0.3065076760168038,0.6506222952729471,-1.0,12.050666666666668,0.04,179.66856780275174,7.982280530047283,65.28113429230228,1525.0,1435.0,1000.0,1528.0,1475.0,1021.47,138.0,293.25,1637229150.9915874,1637229152.2277813,ef11737b-cb54-4e91-a9fd-5082613fd5e5
-0.0730261559426616,0.0442711745688924,0.0106872125992559,0.2536230668411614,-0.0934888154739325,-0.327727384966951,-0.3671597838631781,-0.3914163941534403,-14.142527525764931,22.37893033039329,-8.783015082212875,-1.1681929604152057,0.313815411764382,0.6116426008582924,-1.0,12.052111111111111,0.04,179.71296706799643,7.998697648627317,65.14614622809569,1525.0,1435.0,1000.0,1528.0,1475.0,1021.47,138.0,293.25,1637229152.3360608,1637229153.461295,ef11737b-cb54-4e91-a9fd-5082613fd5e5
0.0706918360332278,0.2998763425344079,0.0293008359447556,0.1482280528900745,-0.1312913194485659,-0.4501061596704326,-0.4057429968036128,-0.4296708900426009,-14.171863947332014,21.841387492738832,-4.446479328862464,-1.2074091784790448,1.2484104974632793,0.7290133761023233,-1.0,12.049,0.04,179.74018461292906,8.052332847449703,64.93701949608824,1627.0,1435.0,1000.0,1528.0,1556.0,1021.47,138.0,293.25,1637229155.189057,1637229156.207351,3db8f982-62c4-471d-adba-ed3968ee50a6
0.0567936641629386,0.2832405034910684,0.0178735230767256,0.1473355851293401,-0.1397136078428781,-0.4329164269845103,-0.4115366422717781,-0.4417523531374263,-14.174481985081483,21.88115951093656,-4.503589347939144,-1.1670841372069831,1.185926806720787,0.7621909732092241,-1.0,12.048875,0.04,179.80421080620874,8.12450660263558,64.86444190596768,1627.0,1435.0,1000.0,1528.0,1556.0,1021.47,138.0,293.25,1637229156.315771,1637229157.4375207,3db8f982-62c4-471d-adba-ed3968ee50a6
0.0569952774907011,0.2897819794787466,0.0163986776294467,0.1431740228730148,-0.1435497402437169,-0.4347523141146748,-0.4154538588278829,-0.4413129676377904,-14.213398787279887,21.97813263465675,-4.419951489893786,-1.161259004130536,1.2104160068434142,0.7758095617356388,-1.0,12.049,0.04,179.84307610040594,8.187869318928405,64.81622304715711,1627.0,1435.0,1000.0,1528.0,1556.0,1021.47,138.0,293.25,1637229157.5506966,1637229158.778762,3db8f982-62c4-471d-adba-ed3968ee50a6
0.2237689535518608,0.5676599289119459,0.044473335768062,0.0294312271535091,-0.1791465510456537,-0.5634830143441735,-0.4502332637301531,-0.4768462313817522,-14.180342299867554,21.61512287391084,1.0711589528591294,-1.1940747464171506,2.2195035265039245,0.8760861008937602,-1.0,12.045,0.0355555555555555,179.8198322077505,8.24657583834579,64.66156707378052,1729.0,1435.0,1000.0,1528.0,1636.0,1021.47,138.0,293.25,1637229159.7813396,1637229161.03827,2141b851-36ec-4055-8956-63bcf5335daf
0.2114880718246029,0.5633077108717377,0.0423958417546034,0.0295364167394839,-0.1809347739036628,-0.5626020514164135,-0.4521135277357253,-0.4805410158213796,-14.18633787291927,21.68041544738749,0.5882440942803586,-1.1920829974382905,2.2073590143138886,0.8827928779255916,-1.0,12.042333333333334,0.03,179.8507304657358,8.29079211143899,64.60974187508818,1729.0,1435.0,1000.0,1528.0,1636.0,1021.47,138.0,293.25,1637229161.1530142,1637229162.259962,2141b851-36ec-4055-8956-63bcf5335daf
0.2144859744367816,0.5692114749212174,0.0502850595052046,0.0263412835400589,-0.1753728749110229,-0.5665992562729198,-0.4433433453541605,-0.4628428666339583,-13.9227082417711,21.59188552440708,0.4879454768660967,-1.193935141700379,2.2294167795653936,0.8527422025315599,-1.0,12.0414,0.03,179.85006050006922,8.306123381722973,64.57325728127171,1729.0,1435.0,1000.0,1528.0,1636.0,1021.47,138.0,293.25,1637229162.3696048,1637229163.495458,2141b851-36ec-4055-8956-63bcf5335daf
0.3665374885678694,0.831056230512163,0.0791837023066361,-0.0929683462146716,-0.2100739311850545,-0.6790852949915808,-0.4763761652673428,-0.5014271774338664,-14.17240075386482,21.64174439053151,5.333202581061524,-1.1751568433046231,3.1868401186098687,0.9449218150302482,-1.0,12.043,0.03,179.78232688010803,8.326260999207651,64.54270584511423,1830.0,1435.0,1000.0,1528.0,1717.0,1021.47,138.0,293.25,1637229164.1878262,1637229165.2191718,0e6c8006-ae54-4610-a4ac-6f3616efe668
0.3501016194580086,0.8066352687687122,0.0640490051525493,-0.0791622144776042,-0.2182233844006717,-0.6662105250870195,-0.487169056076437,-0.5116722059544082,-14.30520935068464,21.692000239405832,5.469344853696224,-1.1778343723198932,3.0923215882115422,0.9892633290159146,-1.0,12.03788888888889,0.03,179.7730985356294,8.342996195902781,64.48062094337863,1830.0,1435.0,1000.0,1528.0,1717.0,1021.47,138.0,293.25,1637229165.326682,1637229166.4479516,0e6c8006-ae54-4610-a4ac-6f3616efe668
0.3440751341141106,0.8068407171284061,0.0592826027893326,-0.0857639560608914,-0.2248251263404039,-0.660649720299762,-0.4910999693670425,-0.5153291879811037,-14.241086196403309,21.77851899550141,5.389453480331301,-1.1500908388089102,3.093858490275854,1.0102126830516236,-1.0,12.039444444444444,0.03,179.78401166010332,8.365560769327042,64.44207590916251,1830.0,1435.0,1000.0,1528.0,1717.0,1021.47,138.0,293.25,1637229166.556321,1637229167.677248,0e6c8006-ae54-4610-a4ac-6f3616efe668
0.3515945442299208,0.7812144584047113,0.149310080958799,-0.112527033032562,-0.1420020290432359,-0.6245318826460525,-0.3877046256409606,-0.4152210175657735,-13.884571121925726,22.27129901339838,4.18858496984708,-1.0008207895456498,3.014875107577667,0.6224922422355224,-1.0,12.038444444444444,0.03,179.75871263941755,8.388490947599374,64.49593726313744,1932.0,1435.0,1000.0,1528.0,1798.0,1021.47,138.0,293.25,1637229169.724553,1637229170.750615,1641f2da-cdeb-42fa-be33-3bf591b90117
0.350485123081796,0.773380027618597,0.1515426199445926,-0.1063635813153812,-0.1371260538767774,-0.6239840201221187,-0.3845955062374734,-0.4078796605334649,-13.95898169076268,22.26077746724079,4.003237505082217,-1.0135184912294095,2.9870431182533728,0.607178007505453,-1.0,12.024444444444445,0.03,179.7630976208647,8.383346676789493,64.42842919120083,1932.0,1435.0,1000.0,1528.0,1798.0,1021.47,138.0,293.25,1637229170.8584702,1637229171.9776852,1641f2da-cdeb-42fa-be33-3bf591b90117
0.3443079755958329,0.7703530884569697,0.1429685745282297,-0.1106369078598561,-0.1433032022069304,-0.6183958223007102,-0.3906767793985183,-0.4175220398815361,-14.08670193701098,22.09619244586236,3.76300605153637,-0.9929420564758736,2.9787031918009625,0.6351729885204037,-1.0,12.025,0.03,179.7622871050832,8.394258093716067,64.3739113801557,1932.0,1435.0,1000.0,1528.0,1798.0,1021.47,138.0,293.25,1637229172.0860102,1637229173.1233473,1641f2da-cdeb-42fa-be33-3bf591b90117
-0.2201956890506092,-0.2268933069100712,0.0172889539433888,0.328598023989341,-0.0307174848865292,-0.170107369509805,-0.2882675936573963,-0.3135925344500165,-13.98748695433845,22.699349872902435,-14.004364547088327,-0.9814263215931934,-0.6668439835654718,0.3652803317450952,-1.0,12.032333333333334,0.0322222222222222,179.96691501915734,8.384694785376924,64.36384671695875,1423.0,1435.0,1000.0,1528.0,1394.0,1021.47,138.0,293.25,1637229174.1864574,1637229175.3629138,a4b98860-713d-4ca4-9a52-cc6472a24d98
-0.2207846411580217,-0.2289888806130733,0.0105913366999657,0.3396785391264707,-0.0348812388244153,-0.1772432771389441,-0.2963759575191502,-0.3191944278892601,-13.998372281094674,22.63883454784589,-13.91646161333469,-1.0231827134308904,-0.6771955649668161,0.3916104810902103,-1.0,12.048666666666668,0.04,179.99225957443753,8.378507772353755,64.43398365281588,1423.0,1435.0,1000.0,1528.0,1394.0,1021.47,138.0,293.25,1637229175.471289,1637229176.5971692,a4b98860-713d-4ca4-9a52-cc6472a24d98
-0.2028642727133864,-0.2281375867224449,0.0062000092396346,0.330416505368953,-0.0408445099035536,-0.1708901806450775,-0.2980532593920378,-0.3235794341931197,-13.854177482151425,22.595863666040337,-14.130674970777656,-0.9884786591998076,-0.6722634639548868,0.4079447972242223,-1.0,12.051,0.04,179.99802121845744,8.384097902734457,64.528956674315,1423.0,1435.0,1000.0,1528.0,1394.0,1021.47,138.0,293.25,1637229176.7054522,1637229177.8219726,a4b98860-713d-4ca4-9a52-cc6472a24d98
-0.3193511162204236,-0.4180452482721699,0.0188728239872934,0.4029330769446351,0.0099580078249956,-0.0730497141160111,-0.2450346748060964,-0.2668352160725527,-14.027471599692692,23.381274742431984,-16.935258759189477,-0.9268943780847038,-1.3665608023032865,0.2192461536601541,-1.0,12.04811111111111,0.04,-179.98971570842667,8.346287303581603,64.66281699839863,1321.0,1435.0,1000.0,1528.0,1314.0,1021.47,138.0,293.25,1637229179.759787,1637229180.784959,08980f0f-75c8-4427-ab22-ce1e699b0f92
-0.32287496737653,-0.4199123635377736,0.0133503714805124,0.4094942758575112,0.0067365771821904,-0.075981873459378,-0.24961042166673,-0.2801679958523778,-13.962307413518625,23.232686735314257,-16.790792618194132,-0.9494879472694024,-1.3764656736174632,0.2378183768527963,-1.0,12.046,0.0355555555555555,-179.98952901658933,8.357988555994698,64.70867185284646,1321.0,1435.0,1000.0,1528.0,1314.0,1021.47,138.0,293.25,1637229180.8939435,1637229182.008952,08980f0f-75c8-4427-ab22-ce1e699b0f92
-0.3137431964015931,-0.4077837844399048,0.0206035211485365,0.4052850497427325,0.0088381771622449,-0.0829424650706779,-0.247725774964148,-0.2637507507207861,-13.965738940588857,23.47701795962203,-16.609764214144814,-0.9536263538978874,-1.3315740900198718,0.2239690441863474,-1.0,12.046666666666669,0.0388888888888888,-179.9922246645818,8.354264490213488,64.7645177562302,1321.0,1435.0,1000.0,1528.0,1314.0,1021.47,138.0,293.25,1637229182.117172,1637229183.1500022,08980f0f-75c8-4427-ab22-ce1e699b0f92
-0.3546548236278673,-0.485046088952314,0.0382309921894619,0.4411426372191434,0.0420249389365287,-0.0515773443693874,-0.2178398807353575,-0.2360426095170188,-14.226338604586454,23.949303065115547,-18.03939577698389,-0.9603811773050652,-1.610128797396966,0.1007613544113666,-1.0,12.042666666666667,0.0377777777777777,179.9876317418199,8.357240365689366,64.834814063168,1220.0,1435.0,1000.0,1528.0,1233.0,1021.47,138.0,293.25,1637229183.6873944,1637229184.7883778,c61b3932-47ef-4f4d-bd05-df962c2fe6a6
-0.3525044635776591,-0.4880867257319587,0.0400663310622266,0.4458679494718887,0.0434356844849684,-0.0501939920367023,-0.2160045416760091,-0.2436168072151939,-14.12833681529863,24.06776259967692,-17.63576551637735,-0.966941403847663,-1.626267458786108,0.093987683829397,-1.0,12.036333333333332,0.03,179.953240980439,8.35457099495249,64.7754832454877,1220.0,1435.0,1000.0,1528.0,1233.0,1021.47,138.0,293.25,1637229184.8966951,1637229186.0172431,c61b3932-47ef-4f4d-bd05-df962c2fe6a6
-0.3478339362565854,-0.4813206241107178,0.0455586510538979,0.4435395347566333,0.0478459763501125,-0.0560287261309382,-0.2116353390471853,-0.2358782505665289,-14.10812436413663,23.983174201406044,-17.78859941585696,-0.9751019513099068,-1.5990455327911075,0.0749048327604349,-1.0,12.038444444444444,0.03,179.94515100082208,8.338770870127483,64.78673787942007,1220.0,1435.0,1000.0,1528.0,1233.0,1021.47,138.0,293.25,1637229186.1250703,1637229187.245679,c61b3932-47ef-4f4d-bd05-df962c2fe6a6
-0.3953768913522637,-0.5838897971625651,0.0735056569365305,0.5025212937756095,0.0942542994270079,-0.0259510824491699,-0.1715334553619064,-0.1941886611759175,-14.236817314330125,24.86794775403992,-19.82542243121211,-1.0336944846892366,-1.9702543458579425,-0.0987159718403428,-1.0,12.036,0.03,179.93160294114836,8.327041348320325,64.78056035277076,1118.0,1435.0,1000.0,1528.0,1152.0,1021.47,138.0,293.25,1637229189.258296,1637229190.5238163,4db0e71d-af16-4175-9db4-c550806d6613
-0.4253153831153183,-0.6207516311489859,0.0676512000166352,0.531416646822359,0.097057711042383,-0.0264578551590781,-0.1765036629248893,-0.2069100260015783,-14.376633217047615,25.157857884907628,-21.29294105944604,-1.0986880820101443,-2.0984363330487827,-0.0939710293479595,-1.0,12.028222222222222,0.03,179.92894523865135,8.324127229138192,64.74370161636973,1118.0,1435.0,1000.0,1528.0,1152.0,1021.47,138.0,293.25,1637229190.6329944,1637229191.640055,4db0e71d-af16-4175-9db4-c550806d6613
-0.4277226908112751,-0.6322112717324986,0.0689430594107541,0.5422960962271837,0.1023275988409336,-0.0290278775168029,-0.1745445070302581,-0.1923872895813396,-14.450265839027647,25.13744918550887,-21.81685932987054,-1.129196183929629,-2.137510266836629,-0.1077724572953443,-1.0,12.029666666666667,0.03,179.93640987650426,8.30963138585344,64.70203822134256,1118.0,1435.0,1000.0,1528.0,1152.0,1021.47,138.0,293.25,1637229191.7483838,1637229192.9766474,4db0e71d-af16-4175-9db4-c550806d6613
-0.0635344404370193,0.0615836246222333,0.0122623168926004,0.2380363840096686,-0.097488210763548,-0.3357261764152756,-0.3670365147553787,-0.3914711805457669,-13.91610794225782,22.275047352325032,-9.541989344890911,-1.1516248092761374,0.38588899863501,0.6158560249796023,-1.0,12.039333333333332,0.0344444444444444,179.75708250093567,8.294955301465588,64.75730583537658,1525.0,1435.0,1000.0,1528.0,1475.0,1021.47,138.0,293.25,1637229194.7106018,1637229196.053059,0bd995e4-15b8-4aaf-8c61-ebd5eb2710a7
-0.0651780275185146,0.0641722741949745,0.0110433231448084,0.2311333187814797,-0.0979128041141745,-0.3321513741371857,-0.3673104460078418,-0.3967032666129369,-14.090521342997263,22.142755594251128,-9.580075682940572,-1.129051669591913,0.3979404156436475,0.6186172851008594,-1.0,12.050888888888888,0.04,179.77383164260036,8.306003891357992,64.90121943900857,1525.0,1435.0,1000.0,1528.0,1475.0,1021.47,138.0,293.25,1637229196.1614048,1637229197.2281406,0bd995e4-15b8-4aaf-8c61-ebd5eb2710a7
-0.0705744718460518,0.0591182440755827,0.0089477496532291,0.2364475832312954,-0.1000768604904053,-0.33027494530979,-0.369597771702141,-0.3943474580766308,-14.017969809581432,22.29684699983432,-9.340900428923687,-1.135830970580299,0.3755668891153633,0.6274378583509314,-1.0,12.049333333333331,0.04,179.7728420240806,8.307028894052188,64.98632663170656,1525.0,1435.0,1000.0,1528.0,1475.0,1021.47,138.0,293.25,1637229197.336341,1637229198.3980963,0bd995e4-15b8-4aaf-8c61-ebd5eb2710a7
-0.0446485289893551,0.0534538953218904,-0.0182853922591667,-0.1915589217329874,-0.168995756674309,0.0897968913960571,-0.2773278769089978,-0.3034543402531042,-13.91422850813545,21.30291670976119,-6.181547371700444,0.7662152756625469,0.3765400849350204,0.6275552639935803,-1.0,12.054,0.04,179.7457034057784,8.422196982516002,65.0187290491291,1525.0,1535.0,1000.0,1528.0,1475.0,1021.47,138.0,293.25,1637229199.2159526,1637229200.2375746,549242e5-78b8-4c7d-b96d-e5f38e233ce1
-0.0533529662454502,0.0530725831139172,-0.0147220954949639,-0.1954509359828415,-0.167536251277587,0.0949774777608782,-0.2722787768661442,-0.29342188358143,-13.753568509091526,21.390765965420155,-5.976562402883535,0.7875095152063161,0.3728626178726983,0.6138065038198155,-1.0,12.048666666666668,0.04,179.75299349435258,8.422669688524811,65.03219818217237,1525.0,1535.0,1000.0,1528.0,1475.0,1021.47,138.0,293.25,1637229200.345401,1637229201.3742526,549242e5-78b8-4c7d-b96d-e5f38e233ce1
-0.0492763223830664,0.0542696623565026,-0.0132406756750603,-0.1959801710427306,-0.1657792565825881,0.0941951303434614,-0.2706949065928113,-0.2893359255372936,-13.776949537561013,21.336578861075804,-5.977738122693647,0.7866478958547883,0.3776864537001758,0.6072834180124057,-1.0,12.050000000000002,0.04,179.73220695197847,8.429057907537281,64.98677059400262,1525.0,1535.0,1000.0,1528.0,1475.0,1021.47,138.0,293.25,1637229201.4826915,1637229202.6994002,549242e5-78b8-4c7d-b96d-e5f38e233ce1
-0.0298682982469511,0.0437370087752426,-0.0481121148397474,-0.6067537436807618,-0.244233152069566,0.5061191054623412,-0.1943502803546429,-0.2246881611181362,-13.741277832665364,20.96061532161612,-2.4968911325290963,2.6352447594910817,0.3554374439396938,0.6531881122312355,-1.0,12.047666666666666,0.04,179.70800986847885,8.569433093724244,64.97049425321046,1525.0,1636.0,1000.0,1528.0,1475.0,1021.47,138.0,293.25,1637229203.7220345,1637229204.8593037,ccea2b67-8f30-4151-a39d-f2159f204aa8
-0.0278275109601209,0.0518727645913837,-0.0381684129909485,-0.6052060321672351,-0.2359193400603111,0.4961069220268037,-0.1872280692163341,-0.2062388945946005,-13.70663218134866,20.941022611118083,-2.518600675484996,2.609634015111918,0.3863381614566346,0.6191691765457716,-1.0,12.047222222222224,0.04,179.69222757803664,8.567005151201784,64.87216305536943,1525.0,1636.0,1000.0,1528.0,1475.0,1021.47,138.0,293.25,1637229204.967352,1637229206.0881672,ccea2b67-8f30-4151-a39d-f2159f204aa8
-0.038017750860586,0.0432165395510891,-0.0455645548673251,-0.6004807178207059,-0.2407816189168553,0.4994899717023835,-0.1928847484528326,-0.2160730246442985,-13.713223391762114,20.92973389686682,-2.674821956259502,2.6061056948273085,0.3542524361100198,0.6427011528310076,-1.0,12.049,0.04,179.68994174139445,8.563032921880726,64.80998480771517,1525.0,1636.0,1000.0,1528.0,1475.0,1021.47,138.0,293.25,1637229206.197024,1637229207.2044475,ccea2b67-8f30-4151-a39d-f2159f204aa8
-0.0196780583864828,0.0384090474684711,-0.0666435593551704,-0.964398445703432,-0.3034844724587802,0.8570385998863363,-0.1194848852000058,-0.1433032025043056,-13.691938176991366,20.810229668757543,0.0464640291085742,4.22907713828112,0.3554198157054081,0.6524614381040869,-1.0,12.046777777777775,0.03,179.67664260417052,8.697904019097784,64.6722479718226,1525.0,1737.0,1000.0,1528.0,1475.0,1021.47,138.0,293.25,1637229209.2569687,1637229210.1935894,f18ca38d-36b1-4f82-8fb6-b54da495e097
-0.0291286840734212,0.0349712112388928,-0.0684241120447696,-0.9675897458214944,-0.3050458803674487,0.8640786304035313,-0.1184302501058161,-0.1386326755945973,-13.619117145724724,20.778858793773303,0.147780270217589,4.251852003736979,0.3413919747865641,0.6552763839319719,-1.0,12.03588888888889,0.03,179.6581358271594,8.685684620945153,64.53174490931617,1525.0,1737.0,1000.0,1528.0,1475.0,1021.47,138.0,293.25,1637229210.302704,1637229211.4198503,f18ca38d-36b1-4f82-8fb6-b54da495e097
-0.0228611386752819,0.039568872051423,-0.0648843732935397,-0.9639924793270602,-0.3007325595155607,0.8572993823225745,-0.1170978488234772,-0.1490360343470124,-13.739031144232843,20.70576931617363,0.3155409374743715,4.228161692990637,0.3577781219404434,0.6434499846791968,-1.0,12.039111111111112,0.03,179.64063384686622,8.696256520551735,64.41808373133799,1525.0,1737.0,1000.0,1528.0,1475.0,1021.47,138.0,293.25,1637229211.5315974,1637229212.638006,f18ca38d-36b1-4f82-8fb6-b54da495e097
-0.011172495293282,0.0481473006475891,-0.0488106393586223,-0.9767116593318188,-0.296622495586681,0.8601477184378133,-0.1083495823625533,-0.1296751255869457,-13.62571939528372,21.57521763504848,0.3348288687593873,4.26987779387797,0.3915792412590451,0.6041620685253116,-1.0,12.033444444444449,0.03,179.62204207194543,8.690454369715546,64.14067939274747,1525.0,1837.0,1000.0,1528.0,1475.0,1021.47,138.0,293.25,1637229214.7816594,1637229215.8057296,195c1834-bffd-43fa-9e00-0076168d0d97
-0.0226365151214046,0.0332728379701658,-0.0653012965451026,-0.9935721334504636,-0.3136747135789322,0.889910337700141,-0.1171153803938153,-0.1417828844795046,-13.573036686071267,21.74043613730679,0.1874196909948917,4.375068622142105,0.3377578386905248,0.6601604956787894,-1.0,12.024333333333333,0.03,179.6277005042178,8.716266792953885,63.96778605537703,1525.0,1837.0,1000.0,1528.0,1475.0,1021.47,138.0,293.25,1637229215.9142616,1637229217.040582,195c1834-bffd-43fa-9e00-0076168d0d97
-0.0123290327240709,0.0476290228774112,-0.0465813874109318,-0.9939846739487288,-0.2976294667284457,0.8753130946391585,-0.1026079846581427,-0.1216472981282014,-13.577544402496631,21.676036190503496,0.1867035000398493,4.34370008645271,0.3928769554735069,0.5938893033610885,-1.0,12.024888888888889,0.03,179.61511626012705,8.70478989328228,63.82895487139744,1525.0,1837.0,1000.0,1528.0,1475.0,1021.47,138.0,293.25,1637229217.1531582,1637229218.2600582,195c1834-bffd-43fa-9e00-0076168d0d97
-0.0863666046374779,0.0620082179405892,0.0349986043558462,0.6620818032414146,-0.0316077612213473,-0.7405143848048571,-0.4600498634933755,-0.4884702297544152,-14.119994134698407,23.246548923351515,-11.79694081991049,-3.0106703026111354,0.3581588841698202,0.6276113291324872,-1.0,12.030777777777775,0.0322222222222222,179.63451247955007,8.191042700707786,63.61286514098611,1525.0,1334.0,1000.0,1528.0,1475.0,1021.47,138.0,293.25,1637229220.1983252,1637229221.4249449,512710a0-56d8-49c6-b6f7-2935411c8867
-0.0801483667368717,0.0739516169718187,0.0449696990536088,0.6495083636816382,-0.0255401855924641,-0.7403500260577104,-0.4516675676684476,-0.4784443472210166,-14.188920411083105,23.270500253925945,-11.685228599507482,-2.9812999853714963,0.4046322126764169,0.595255204690825,-1.0,12.050666666666666,0.04,179.7058242079444,8.177625268401988,63.9824459180656,1525.0,1334.0,1000.0,1528.0,1475.0,1021.47,138.0,293.25,1637229221.5333347,1637229222.892587,512710a0-56d8-49c6-b6f7-2935411c8867
-0.0946530230250479,0.0523247510371565,0.0236578537639465,0.6539871379043719,-0.0407570626342325,-0.7250235705403822,-0.4666926959543453,-0.4895796513027921,-14.241290926387371,23.19833811713561,-12.07108460030703,-2.958589839539845,0.3254050998881582,0.6632953077795594,-1.0,12.045333333333334,0.04,179.73101849906288,8.185590122747868,64.23441387327709,1525.0,1334.0,1000.0,1528.0,1475.0,1021.47,138.0,293.25,1637229223.010172,1637229224.118368,512710a0-56d8-49c6-b6f7-2935411c8867
-0.0845765696656358,0.0723986379666276,0.0764317476327484,1.0885272810133733,0.0454438106819907,-1.1643251420003682,-0.5463866698699236,-0.5804215747999367,-14.435391085709632,24.880475898034284,-14.96291618283655,-4.912755024616322,0.3775713231847414,0.5887514517817778,-1.0,12.04588888888889,0.03,179.77380432184367,8.023500531960833,64.65854813016739,1525.0,1234.0,1000.0,1528.0,1475.0,1021.47,138.0,293.25,1637229225.6871336,1637229226.773383,2ee7f89b-8af3-43f4-ac84-3bd387e7f204
-0.1116957571570028,0.068491958023114,0.0680747397701253,1.088590495935929,0.0387936046693234,-1.1606713190102558,-0.5548195381074698,-0.5762999628964991,-14.61750018487099,24.9044379726556,-15.043292887891972,-4.905048751172817,0.3643830318352116,0.62048469555715,-1.0,12.036333333333332,0.03,179.79198021413498,8.016371901469588,64.82641368939878,1525.0,1234.0,1000.0,1528.0,1475.0,1021.47,138.0,293.25,1637229226.8809898,1637229227.8864143,2ee7f89b-8af3-43f4-ac84-3bd387e7f204
-0.1175449044756839,0.062947253997392,0.0615929382764512,1.0867046694970504,0.0315087212021842,-1.152834183954017,-0.5594989581772584,-0.5860987787848222,-14.50095231032116,25.037768884786068,-14.993596412477965,-4.88255599443158,0.3421451999262965,0.6453143071342086,-1.0,12.038888888888888,0.03,179.79333410941047,8.02599838905855,65.00111702689925,1525.0,1234.0,1000.0,1528.0,1475.0,1021.47,138.0,293.25,1637229227.996229,1637229229.2276528,2ee7f89b-8af3-43f4-ac84-3bd387e7f204
-0.1098151142287243,0.065925433681813,0.0777318670855478,1.2541155093906224,0.0549544902425263,-1.3133870250314388,-0.5998506759790265,-0.6222856465798764,-14.650105622185595,26.473476363071324,-15.597084267446045,-5.610827694799696,0.340155165610065,0.6491169539461729,-1.0,12.035666666666666,0.03,179.7817865362537,7.937578080294411,65.37854569133509,1525.0,1133.0,1000.0,1528.0,1475.0,1021.47,138.0,293.25,1637229231.3703668,1637229232.5151513,fb1ef3ad-e379-4200-96b2-b5a74a8f59b8
-0.109910990138382,0.0711849121484795,0.0780057982690381,1.2423364688883387,0.0537217999875929,-1.3080179689927418,-0.5985358058735283,-0.6237237860125254,-14.724390306937067,26.412111967930628,-15.635894917363856,-5.572628811206388,0.3622177312248212,0.6490020441433764,-1.0,12.035,0.03,179.74939626138965,7.948513972065509,65.47211017604538,1525.0,1133.0,1000.0,1528.0,1475.0,1021.47,138.0,293.25,1637229232.6486847,1637229233.8288982,fb1ef3ad-e379-4200-96b2-b5a74a8f59b8
-0.1074045197747159,0.0732941821542108,0.0820325864284151,1.2424049516216509,0.0569952774534036,-1.3099628816732158,-0.5950568789238885,-0.6188341128505491,-14.691705933404306,26.42199504140165,-15.58104349650318,-5.576862550586943,0.3696583102686972,0.6344532294829183,-1.0,12.033333333333331,0.03,179.73443814710734,7.94467255983981,65.51772445605245,1525.0,1133.0,1000.0,1528.0,1475.0,1021.47,138.0,293.25,1637229233.9363778,1637229235.058426,fb1ef3ad-e379-4200-96b2-b5a74a8f59b8
-0.1018848063442521,0.0805270607697646,0.0912958428371779,1.2502744461389126,0.0594891468465023,-1.325095401326427,-0.5963021704271165,-0.6192860990883543,-14.650548424505589,27.08080218702684,-15.671852868719204,-5.623784191775255,0.3969290518606958,0.6207771774882687,-1.0,12.0297,0.03,179.72032105678483,7.926651390305945,65.71691371816347,1525.0,1033.0,1000.0,1528.0,1475.0,1021.47,138.0,293.25,1637229237.197361,1637229238.334856,a95f349b-a3bb-43a2-bc75-df58bf2e0399
-0.1048432631655703,0.071650595144935,0.087072919974418,1.2740850913873756,0.0599948238198098,-1.3395200825740563,-0.6056032323534049,-0.6283258308662738,-14.85486838982789,27.19510843659678,-15.894130179723456,-5.7095001637748055,0.3638557013033709,0.6377188851417719,-1.0,12.021333333333336,0.03,179.70893877420596,7.914937615879373,65.76496592035829,1525.0,1033.0,1000.0,1528.0,1475.0,1021.47,138.0,293.25,1637229238.4436634,1637229239.6807597,a95f349b-a3bb-43a2-bc75-df58bf2e0399
-0.1091028931221104,0.0740337963232873,0.091154494381253,1.2744001122900048,0.0620082179192152,-1.3421498245557095,-0.6018366775005184,-0.619779175363801,-14.658538128496398,27.25288363722135,-15.86631938025279,-5.715430660315696,0.3713790350231787,0.6244941036887918,-1.0,12.017,0.04,179.6912546555349,7.908874210307434,65.77681174510882,1525.0,1033.0,1000.0,1528.0,1475.0,1021.47,138.0,293.25,1637229239.7895544,1637229240.904937,a95f349b-a3bb-43a2-bc75-df58bf2e0399
-0.0717348443202041,0.0492726099162474,-0.0037297852012455,0.1656648671524766,-0.1165587522116323,-0.2479010909447918,-0.3591127803164435,-0.3840821592734091,-14.153368271451662,22.09680789767816,-8.273953694193388,-0.7929128741072817,0.3380495566981419,0.651919566998433,-1.0,12.032888888888888,0.0322222222222222,179.6906308315907,8.251990470810316,65.82353479249115,1525.0,1435.0,1000.0,1528.0,1475.0,1021.47,138.0,293.25,1637229241.7110722,1637229242.836037,a550773e-523d-482b-a240-69143349c6ab
-0.0647945238894783,0.0571596362005514,0.0091942877113242,0.1693344490125782,-0.1058978982203551,-0.2594500306251319,-0.3485324608488762,-0.3725151393125936,-13.965234656985194,22.08367916353646,-8.247145654154837,-0.8264870856240938,0.3664288286609035,0.6058793151427954,-1.0,12.049,0.04,179.6733352747924,8.255863662388407,65.78708890307995,1525.0,1435.0,1000.0,1528.0,1475.0,1021.47,138.0,293.25,1637229242.944682,1637229243.9770834,a550773e-523d-482b-a240-69143349c6ab
-0.0681501808958453,0.0514207781645801,-0.0010644348522761,0.1693070559072262,-0.1137323302083491,-0.2519717086506269,-0.3575584945611124,-0.3824177530620353,-14.151653565261867,22.076510607210533,-8.060273742648624,-0.810242892678137,0.343920710794251,0.6428265102761286,-1.0,12.049,0.0399999999999999,179.6422164775879,8.248361752572642,65.74897189405183,1525.0,1435.0,1000.0,1528.0,1475.0,1021.47,138.0,293.25,1637229244.0846968,1637229245.205817,a550773e-523d-482b-a240-69143349c6ab
-0.0062280375380825,0.0860319815473381,0.1704164771189179,0.1460776932391418,0.0389432132523866,-0.2741875295320565,-0.1818864108787057,-0.2065676120824028,-12.97565591521824,21.925043410574656,-8.106119992049267,-0.7996458882238322,0.4795451171774074,-0.0441858863274348,-1.0,12.049,0.04,179.63280037879812,8.259861504918847,65.63096368012191,1525.0,1435.0,1000.0,1439.0,1475.0,1021.47,138.0,293.25,1637229247.232254,1637229248.1640253,68217937-ece1-4afa-8a31-984daf24634f
-0.0138707174045112,0.0778140464692812,0.1535971037173048,0.1526931308637936,0.0246850956670485,-0.2694622161706907,-0.1984592483269095,-0.2296189226041293,-13.05813518404183,22.005182389568784,-7.84230983981583,-0.8042559912868121,0.4450890879871449,0.0211021764236395,-1.0,12.049444444444443,0.04,179.62856717933252,8.258100928796539,65.61917629143426,1525.0,1435.0,1000.0,1439.0,1475.0,1021.47,138.0,293.25,1637229248.2740662,1637229249.50695,68217937-ece1-4afa-8a31-984daf24634f
-0.0211912541885946,0.0900467167465956,0.1713582524633013,0.1445612102826314,0.0382277050304424,-0.2752898287299159,-0.1812240452466625,-0.1965948728135949,-12.860285851568074,21.93643286487693,-7.896826400495132,-0.7984882545396838,0.4921778985458707,-0.0445944657700202,-1.0,12.046333333333331,0.04,179.6265757997345,8.26450385168847,65.5915808093676,1525.0,1435.0,1000.0,1439.0,1475.0,1021.47,138.0,293.25,1637229249.615153,1637229250.7359917,68217937-ece1-4afa-8a31-984daf24634f
0.0420934217520021,0.1131358270226152,0.346367390013632,0.1369086692947106,0.195972610914643,-0.299496581933725,-0.0041110973955616,-0.0316444680271221,-11.70830005728726,22.07555887070068,-7.775869114570294,-0.8253860721965017,0.5815897836958108,-0.7465307513225976,-1.0,12.049,0.04,179.60378573520393,8.275515254995396,65.46881271249607,1525.0,1435.0,1000.0,1351.0,1475.0,1021.47,138.0,293.25,1637229252.7572117,1637229253.7234516,5b62a7f5-523c-4d21-9f79-e5961d87161d
0.0514755643828465,0.1126033048368763,0.3457187210431724,0.1402155662840233,0.1959742545016272,-0.3027859479310524,-0.0052418853050013,-0.0325939136901171,-11.694654753825748,22.051650930231585,-7.891331476417286,-0.8404395908892717,0.580070586208116,-0.7442177164823226,-1.0,12.047444444444444,0.04,179.58700623714287,8.272891134261771,65.43030258813573,1525.0,1435.0,1000.0,1351.0,1475.0,1021.47,138.0,293.25,1637229253.834184,1637229255.0373847,5b62a7f5-523c-4d21-9f79-e5961d87161d
0.0584197195829856,0.1239714482407177,0.3590180784713184,0.1270257807254182,0.2047400516355658,-0.3019093680090274,0.0085642460013425,-0.0198835069250691,-11.553148613695503,22.01575258642916,-7.805872319176184,-0.8082077760346892,0.6234155121654437,-0.7924484046115087,-1.0,12.049,0.04,179.5854444005527,8.28002650007845,65.40053207027337,1525.0,1435.0,1000.0,1351.0,1475.0,1021.47,138.0,293.25,1637229255.145867,1637229256.2648766,5b62a7f5-523c-4d21-9f79-e5961d87161d
0.1205747017650777,0.16011666540774,0.5477977293916857,0.1318880588707345,0.373139229327653,-0.3525318567144755,0.1913585144302832,0.167855220505799,-10.250164950689197,22.26438191500277,-7.91038301385538,-0.9212439862983812,0.7620593195527907,-1.5343237361124935,-1.0,12.046777777777775,0.04,179.5852911007513,8.27919549372943,65.31083195481351,1525.0,1435.0,1000.0,1262.0,1475.0,1021.47,138.0,293.25,1637229257.3808453,1637229258.513994,50662406-772b-410a-a63f-bf7cd080243b
0.1202459843782848,0.1566377396314882,0.5436613690843122,0.1349423913486218,0.3692768000938064,-0.3510389315993115,0.1871947607680627,0.1696083800750131,-10.221623454908444,22.34602377430466,-7.816052904426741,-0.9244143555321068,0.7473362853546354,-1.5177710284002928,-1.0,12.045222222222224,0.04,179.58107915076314,8.260805304252909,65.2563467768944,1525.0,1435.0,1000.0,1262.0,1475.0,1021.47,138.0,293.25,1637229258.6226046,1637229259.752038,50662406-772b-410a-a63f-bf7cd080243b
0.1102748898972828,0.1492415982051304,0.5305126740661579,0.1310388722833468,0.3589358991218201,-0.3392187995021521,0.1767168938341885,0.1542134485503393,-10.441034126944084,22.30458229087212,-7.766249771521415,-0.8900795024814426,0.7203541358546559,-1.4718403269746307,-1.0,12.046444444444443,0.04,179.59493077439993,8.265104813471696,65.2609207269086,1525.0,1435.0,1000.0,1262.0,1475.0,1021.47,138.0,293.25,1637229259.865625,1637229260.9750454,50662406-772b-410a-a63f-bf7cd080243b
0.1662434097981491,0.1844675021475146,0.7016451306682805,0.1487556442877315,0.5117911237905766,-0.4001104229447371,0.3365716119919305,0.3033974533705201,-9.31630687632824,22.669543946255647,-7.932610197758179,-1.0553955387869112,0.8546603589586609,-2.1360862974633106,-1.0,12.044444444444444,0.0377777777777777,179.582685004128,8.263101481042634,65.17917550510205,1525.0,1435.0,1000.0,1173.0,1475.0,1021.47,138.0,293.25,1637229262.709254,1637229263.8444078,d9e39829-7546-4805-990f-b93ac27949f7
0.1664537889184451,0.1815879377844805,0.6970299387343443,0.1523583869789306,0.5077807718040109,-0.400149869026697,0.3318643790660826,0.3065005456458857,-9.28788741829667,22.709557059758417,-7.904238793637551,-1.0635568100195034,0.842672166159472,-2.1179043124960764,-1.0,12.038,0.03,179.57131198025002,8.264932825513844,65.18251774433591,1525.0,1435.0,1000.0,1173.0,1475.0,1021.47,138.0,293.25,1637229263.978721,1637229264.9598715,d9e39829-7546-4805-990f-b93ac27949f7
0.1632060610396956,0.1752371177126083,0.6900348330137139,0.1451660503138049,0.5015351416499003,-0.3881319582882947,0.3290768556259425,0.3067635195866686,-9.267000731887862,22.66907181889548,-8.059109489691664,-1.0209576751240403,0.8205189054460584,-2.0969123218808345,-1.0,12.040888888888889,0.03,179.58344239621596,8.265403918839098,65.21866538215335,1525.0,1435.0,1000.0,1173.0,1475.0,1021.47,138.0,293.25,1637229265.0692875,1637229266.1883163,d9e39829-7546-4805-990f-b93ac27949f7
-0.139174511260093,0.0141655906762102,-0.2048785520506323,0.2101732021941481,-0.2968273961489118,-0.2424049352899185,-0.5755666698057188,-0.6015090562259846,-15.705517701861757,22.62780340702732,-8.162321247326295,-0.8882215276575998,0.1981505436188996,1.4748204683127688,-1.0,12.045444444444444,0.0355555555555555,179.67827881393166,8.265060891560783,65.39061311777868,1525.0,1435.0,1000.0,1617.0,1475.0,1021.47,138.0,293.25,1637229268.2347314,1637229269.466875,08513257-872d-4d83-9c5e-0cc9764feeab
-0.1279082692689788,0.0258903928262879,-0.1916794511764933,0.2001106149963752,-0.2873499241071921,-0.2461917602369445,-0.56187010708468,-0.5858527893149391,-15.5072890773244,22.50043916418166,-8.28064479085791,-0.874138461635526,0.243844877871,1.4257734807495304,-1.0,12.049,0.04,179.67794792921188,8.26056055580765,65.3825663960265,1525.0,1435.0,1000.0,1617.0,1475.0,1021.47,138.0,293.25,1637229269.5997276,1637229270.6932478,08513257-872d-4d83-9c5e-0cc9764feeab
-0.1297299116581611,0.0228086671223639,-0.1993221316023243,0.2034388785798871,-0.2942666871682134,-0.2453562700699442,-0.5698688997039961,-0.589194750183924,-15.517691263367134,22.559787899817348,-8.216360082296212,-0.8797508642519416,0.2308971240183129,1.4567160821424172,-1.0,12.051222222222222,0.04,179.6893664876843,8.262759876720395,65.35312828070374,1525.0,1435.0,1000.0,1617.0,1475.0,1021.47,138.0,293.25,1637229270.800929,1637229272.041095,08513257-872d-4d83-9c5e-0cc9764feeab
-0.2046090037795822,-0.0142816141585468,-0.4072085289072718,0.2585812207611781,-0.4810192997866385,-0.2486160514346645,-0.796615513575429,-0.8208721305074208,-17.035463405449914,23.24708626867725,-8.301174525136451,-1.0180363407507695,0.0833237093658587,2.3118232468984066,-1.0,12.045333333333332,0.04,179.7192523598527,8.255991443844128,65.39615391901538,1525.0,1435.0,1000.0,1706.0,1475.0,1021.47,138.0,293.25,1637229273.2427175,1637229274.2879877,26146abe-fd5c-4fde-b56a-8d41fc2e399d
-0.2023934482148692,-0.0139594711028394,-0.4007678578787685,0.2494615047063805,-0.4744926140535807,-0.2417606490968247,-0.7856829154895252,-0.8090350111855209,-16.95407782349509,23.03766803503821,-8.406529503141343,-0.9831028743914813,0.086417257903524,2.2785419181068023,-1.0,12.045,0.0355555555555555,179.7069898935628,8.261308556385506,65.32235372503341,1525.0,1435.0,1000.0,1706.0,1475.0,1021.47,138.0,293.25,1637229274.396075,1637229275.4038904,26146abe-fd5c-4fde-b56a-8d41fc2e399d
-0.2064854324723547,-0.0144048831774756,-0.4062223764351054,0.2487196991354542,-0.4794031054037953,-0.2413431779326111,-0.7914929982747415,-0.8114762869296817,-17.02941199473368,23.034967276078472,-8.549179161757216,-0.9808415920685536,0.0862896878345063,2.3006244455186686,-1.0,12.045,0.04,179.7226097772847,8.258670490682327,65.27847810762506,1525.0,1435.0,1000.0,1706.0,1475.0,1021.47,138.0,293.25,1637229275.5119922,1637229276.7504883,26146abe-fd5c-4fde-b56a-8d41fc2e399d
-0.2737645797294633,-0.0493689111055961,-0.5995630481043733,0.3304311712536975,-0.6510665087818651,-0.2725811969635435,-1.0115381944240656,-1.0346141715760668,-18.43439363878848,23.867498359040187,-8.757601338338702,-1.2402072346718933,-0.0553583992716813,3.1061459162494622,-1.0,12.043666666666669,0.03,179.72646048615678,8.2210185037002,65.27014375901781,1525.0,1435.0,1000.0,1795.0,1475.0,1021.47,138.0,293.25,1637229278.7720473,1637229279.818206,ec2230fc-e44c-42d9-aa0a-247382abd6e1
-0.2787479362786134,-0.0494478033002007,-0.5950793412216153,0.33019449471378,-0.6479634153339618,-0.2720552491323693,-1.006291861193713,-1.0341408182420486,-18.269138211341417,23.91068491323455,-8.68878662815409,-1.2378877729917064,-0.0571197178272621,3.088521222537847,-1.0,12.04011111111111,0.03,179.726112905419,8.224557869782608,65.23734974408288,1525.0,1435.0,1000.0,1795.0,1475.0,1021.47,138.0,293.25,1637229279.9263046,1637229280.9299583,ec2230fc-e44c-42d9-aa0a-247382abd6e1
-0.2730644115963093,-0.0499611503277209,-0.5948788235021875,0.3296115692514162,-0.6464463839321889,-0.2732150737731029,-1.0059949196017668,-1.035798650927573,-18.379059155254165,23.82653468665424,-8.997775256362194,-1.239831560349149,-0.0554454742347892,3.08521350069654,-1.0,12.040888888888889,0.03,179.7397216778853,8.231532346698835,65.21340006521318,1525.0,1435.0,1000.0,1795.0,1475.0,1021.47,138.0,293.25,1637229281.0385058,1637229282.278033,ec2230fc-e44c-42d9-aa0a-247382abd6e1
-0.3241635398047167,-0.06927603802434465,-0.7179539525061623,0.4047212994723132,-0.7584782512922348,-0.3174314064323397,-1.1566473095674155,-1.1816035547649357,-19.13717191895155,24.836651136562587,-9.203491251623486,-1.5084672558163326,-0.1377318464208526,3.6171533904502366,-1.0,12.037666666666667,0.030000000000000002,179.7455759089139,8.204870608409951,65.19237067166861,1525.0,1435.0,1000.0,1883.0,1475.0,1021.4699999999999,138.0,293.25,1637229284.3302972,1637229285.3496454,6b9c95e5-6643-4073-8e20-374f6387ed12
-0.31115454644576723,-0.06304136429418936,-0.7117652972255621,0.3985052538355822,-0.753635694189532,-0.31790695102350797,-1.1494527758071738,-1.18135208574564,-19.063031433091087,24.708404079769746,-9.163725903132528,-1.4960123442513282,-0.11406973567181015,3.592738813134266,-1.0,12.032666666666668,0.030000000000000002,179.7535429451258,8.2028206978853,65.15358658083156,1525.0,1435.0,1000.0,1883.0,1475.0,1021.4699999999999,138.0,293.25,1637229285.465285,1637229286.5742633,6b9c95e5-6643-4073-8e20-374f6387ed12
-0.3172736219173409,-0.06488437329153594,-0.725777429716035,0.40397182383186964,-0.7655785501370274,-0.3214286107849076,-1.164654871446876,-1.1905315262067797,-19.133359859643846,24.671774699996558,-9.31703947953149,-1.5172575983921228,-0.12068752574339126,3.6493245815648834,-1.0,12.031888888888888,0.030000000000000002,179.75291608554193,8.21320011896652,65.10500040962563,1525.0,1435.0,1000.0,1883.0,1475.0,1021.4699999999999,138.0,293.25,1637229286.682031,1637229287.8058078,6b9c95e5-6643-4073-8e20-374f6387ed12
