raw_voltage_G-,raw_voltage_G0,raw_voltage_G1,raw_voltage_G2,raw_voltage_G3,raw_voltage_G4,raw_voltage_G5,raw_voltage_G6,load_x,load_y,load_z,load_l,load_m,load_n,rpm,voltage,current,roll,pitch,yaw,aileron1_pwm,elevator_pwm,throttle_pwm,rudder_pwm,aileron2_pwm,pbaro,pdiff,Tt,sample_start_time,sample_end_time,uid
-0.0650273653959636,0.0539546415044078,0.0046196370719073,0.1557200701903207,-0.1131296815910583,-0.187967683487894,-0.3393694616121935,-0.366159935241575,-13.891555939182986,22.3320863911096,-0.3044847113919364,-0.6324238755089154,0.2848814923353667,0.6195636798768233,-1.0,12.05,0.04,179.1115476620994,5.531679281900002,75.07133999785134,1525.0,1435.0,1000.0,1528.0,1475.0,1021.47,138.0,292.98999999999995,1637228825.242469,1637228826.2671592,a18eee5c-ee3c-4b64-a7eb-e3d29d70d4a7
-0.0501529022069369,0.0677881656449224,0.0191379893700674,0.1534875312110445,-0.1009260471729616,-0.2012807397101236,-0.3273986674379724,-0.3456698799047908,-13.811363442222756,22.174372801844623,-0.4588706975826515,-0.6576108580468115,0.3387589396283161,0.5676652600994058,-1.0,12.050666666666665,0.04,179.1610847474198,5.541682947713132,74.32605935310595,1525.0,1435.0,1000.0,1528.0,1475.0,1021.47,138.0,292.98999999999995,1637228826.3748734,1637228827.4242823,a18eee5c-ee3c-4b64-a7eb-e3d29d70d4a7
-0.0617538877656543,0.0506537708771022,0.005920810151834,0.1577745539099938,-0.1096096658211166,-0.1875841798881629,-0.3374519430914297,-0.3574900121634725,-14.021757697146263,22.25310339680756,-0.426691126926524,-0.6367403223719571,0.2743340659986079,0.6096531209181082,-1.0,12.053,0.04,179.21169189571015,5.552309441401202,73.72493895771257,1525.0,1435.0,1000.0,1528.0,1475.0,1021.47,138.0,292.98999999999995,1637228827.5352876,1637228828.724644,a18eee5c-ee3c-4b64-a7eb-e3d29d70d4a7
0.0827858971536906,0.3118882236422339,0.0237811227639353,0.0589949750135294,-0.150356930398047,-0.3186328686425186,-0.380746772516922,-0.405482762904461,-13.93428722583395,21.869945917608703,4.303682630672834,-0.7092542886074175,1.2248654462434465,0.7400828957939515,-1.0,12.047777777777778,0.04,179.2380958892216,5.580098350630615,72.85542400215382,1627.0,1435.0,1000.0,1528.0,1556.0,1021.47,138.0,292.98999999999995,1637228829.7522986,1637228830.8900254,3cab0ee1-ad26-47ba-b2ed-65ac25d89921
0.0826215384563832,0.3176270813193616,0.0264108620692502,0.05466686253521,-0.1519183381692193,-0.3216461119355356,-0.3795140819513542,-0.4016888152842499,-13.705755392363434,22.013524771085844,4.120154084397906,-0.7050937606437783,1.2471007982041666,0.7373683693895523,-1.0,12.046,0.04,179.28618649225774,5.594507630754009,72.46322315636309,1627.0,1435.0,1000.0,1528.0,1556.0,1021.47,138.0,292.98999999999995,1637228830.997879,1637228832.114606,3cab0ee1-ad26-47ba-b2ed-65ac25d89921
0.0790056470171216,0.3136002933565933,0.0220005701555708,0.0478870660214728,-0.1538221599662502,-0.3110449739354327,-0.3794455991552687,-0.3943337619311529,-13.815703025890032,21.804348174946146,4.165151825059346,-0.6676324601549588,1.2329288651358572,0.745401390572351,-1.0,12.045,0.0311111111111111,179.32700825619722,5.612318297652204,72.15098409409558,1627.0,1435.0,1000.0,1528.0,1556.0,1021.47,138.0,292.98999999999995,1637228832.2231486,1637228833.230817,3cab0ee1-ad26-47ba-b2ed-65ac25d89921
0.2244493985239321,0.5771083619898066,0.0350944802610057,-0.0531935383670454,-0.2004452495221473,-0.4409294634559851,-0.4308487940352372,-0.4592280702700086,-13.963051814116454,21.61987278109693,9.025717202024468,-0.7313574617220935,2.1924803056930138,0.902068765887202,-1.0,12.044333333333334,0.03,179.35327261028564,5.632321407842101,71.48293619284507,1729.0,1435.0,1000.0,1528.0,1636.0,1021.47,138.0,292.98999999999995,1637228835.2779968,1637228836.3013294,57736e58-9752-4f53-ae19-6547a66d63f5
0.2306402427147087,0.5864357174947578,0.0447779472355431,-0.0629317918391583,-0.1943365837925879,-0.4388749791205343,-0.4192067166781038,-0.4503526982055308,-13.717201854540855,21.520270536365484,9.42395290435698,-0.7047645147800227,2.2240051196834774,0.8657907821784961,-1.0,12.041444444444444,0.0322222222222222,179.38633072586848,5.645654174261312,71.31268993323295,1729.0,1435.0,1000.0,1528.0,1636.0,1021.47,138.0,292.98999999999995,1637228836.4103413,1637228837.6445296,57736e58-9752-4f53-ae19-6547a66d63f5
0.2321709700246771,0.5852002880277519,0.052678122242365,-0.0687106440730946,-0.1869042825335705,-0.436453426981623,-0.4094328504334548,-0.4290901556336949,-13.689552167452126,21.473815921252,8.908403005012202,-0.6862701297514495,2.224956657639311,0.8300941156731096,-1.0,12.042,0.03,179.40561614444496,5.644498828790457,71.17961204526425,1729.0,1435.0,1000.0,1528.0,1636.0,1021.47,138.0,292.98999999999995,1637228837.7529943,1637228838.8735511,57736e58-9752-4f53-ae19-6547a66d63f5
0.375056747370225,0.8406027309959804,0.0790193436139308,-0.1695458105278852,-0.2213735932012297,-0.5574598139377487,-0.4455315080250642,-0.4707879687191871,-13.751191512689983,21.50079345278803,14.04091891941747,-0.7284506281910366,3.1519033289890763,0.9297377483838212,-1.0,12.033111111111111,0.03,179.3712299365235,5.636255075053466,70.97610352330406,1830.0,1435.0,1000.0,1528.0,1717.0,1021.47,138.0,292.98999999999995,1637228839.7320092,1637228840.920641,dcd40e31-71cf-4bb5-87a6-99836b912461
0.3711000858195115,0.8332898650862332,0.0841035061125348,-0.1660241511063125,-0.2167518259733285,-0.5559356604697713,-0.4385703675574984,-0.4704033689089204,-13.51549735721642,21.59838147210621,13.744104447910455,-0.731998244072268,3.1253284816913487,0.9054534451314902,-1.0,12.03,0.03,179.38919485186045,5.650311983820306,70.82352696307478,1830.0,1435.0,1000.0,1528.0,1717.0,1021.47,138.0,292.98999999999995,1637228841.02905,1637228842.1575344,dcd40e31-71cf-4bb5-87a6-99836b912461
0.3705083945296157,0.8230733290304073,0.0768454258517707,-0.166918262503411,-0.2200652977819265,-0.5445094401342249,-0.4426596129882647,-0.4618698629925473,-13.766138277728198,21.53138673171294,13.786758194637702,-0.7052299922415238,3.088055020097092,0.9243506244903664,-1.0,12.030666666666669,0.03,179.39156720423216,5.662695401376755,70.62800369116428,1830.0,1435.0,1000.0,1528.0,1717.0,1021.47,138.0,292.98999999999995,1637228842.271533,1637228843.3795302,dcd40e31-71cf-4bb5-87a6-99836b912461
0.3506220886470498,0.7677781356815977,0.1536792830567061,-0.1787088090884021,-0.1421389946202118,-0.4980030367477233,-0.3463957973713647,-0.3758571004585424,-13.453300220119722,21.98544582768425,11.8130089674098,-0.567448636397709,2.9022737506150613,0.5668745321730575,-1.0,12.021222222222224,0.03,179.4194040196495,5.6517901980250524,70.56502403464742,1932.0,1435.0,1000.0,1528.0,1798.0,1021.47,138.0,292.98999999999995,1637228844.2890356,1637228845.3143184,f4861236-dbda-448f-975d-aa0daf959439
0.3547562576029246,0.7672834160302443,0.1509646252141134,-0.1745182096190116,-0.144433990160131,-0.5003035112636033,-0.3500007322334477,-0.3733133750018876,-13.443862522329068,22.01027984896242,11.940880735138812,-0.5820164854129406,2.898530503026296,0.578987077613094,-1.0,12.021888888888888,0.03,179.4176767406994,5.6753737028642455,70.47920726118565,1932.0,1435.0,1000.0,1528.0,1798.0,1021.47,138.0,292.98999999999995,1637228845.422558,1637228846.6569357,f4861236-dbda-448f-975d-aa0daf959439
0.3590953270104378,0.7732529235630494,0.147006867733871,-0.1856814537552144,-0.1517578145405058,-0.4968585520112979,-0.3533405017298336,-0.3796904938634607,-13.311022402654002,22.039459072485155,11.771724614752737,-0.5490573916657353,2.922602830851889,0.5995791438954459,-1.0,12.021,0.03,179.4472286925083,5.685585784310799,70.37972176137488,1932.0,1435.0,1000.0,1528.0,1798.0,1021.47,138.0,292.98999999999995,1637228846.7703292,1637228847.8847415,f4861236-dbda-448f-975d-aa0daf959439
-0.2078687850332824,-0.2233869875252151,0.00894774965173,0.2572389581235234,-0.0492489292539498,-0.0476190388044419,-0.2704209753840141,-0.2941845084092304,-13.961959245708211,22.908184093713924,-5.415761282030879,-0.5428591440469281,-0.7217338247513783,0.3883252191431925,-1.0,12.051333333333332,0.04,179.72761099357697,5.694711154201283,70.32468485595281,1423.0,1435.0,1000.0,1528.0,1394.0,1021.47,138.0,292.98999999999995,1637228849.8194666,1637228850.8503463,68945c90-77f9-44e0-bda5-6560df43b503
-0.2043076794377946,-0.2171002664650854,0.0115500958122634,0.2573348340242041,-0.049933757218199,-0.0546042839009549,-0.2687636916007639,-0.2829122389245291,-13.632451072453684,22.941010839751304,-5.506241389804193,-0.5582735601060399,-0.6995313262019395,0.3842019569413648,-1.0,12.05111111111111,0.04,179.74935528025466,5.740409436048768,70.43484138797689,1423.0,1435.0,1000.0,1528.0,1394.0,1021.47,138.0,292.98999999999995,1637228850.9838092,1637228851.979813,68945c90-77f9-44e0-bda5-6560df43b503
-0.20823859217802,-0.2162373831735851,0.0079752939635885,0.2531984735390264,-0.0529059105487897,-0.0531113589917628,-0.2733246462039718,-0.2894454981894514,-13.862710789985982,22.94207691398972,-5.745251325639432,-0.5459130832298962,-0.6922642593079726,0.3991863880233792,-1.0,12.049,0.04,179.79052310711202,5.7757443762187055,70.51717552387183,1423.0,1435.0,1000.0,1528.0,1394.0,1021.47,138.0,292.98999999999995,1637228852.0881226,1637228853.2095463,68945c90-77f9-44e0-bda5-6560df43b503
-0.317537143742233,-0.4342866309124984,0.0210144179216006,0.3443490652350032,0.0052770718918751,0.0486540732238661,-0.2132241399950175,-0.2386586524284723,-13.795618852564678,23.64064420926714,-9.443451072964862,-0.5181215656760564,-1.488163450993488,0.1855544510319091,-1.0,12.045333333333332,0.04,179.8849102501623,5.847521268954686,70.7144996889935,1321.0,1435.0,1000.0,1528.0,1314.0,1021.47,138.0,292.98999999999995,1637228855.3488562,1637228856.2824008,42869488-d825-41b8-a18a-04899d4f51d6
-0.3206188699126266,-0.440395297410115,0.0140154763993064,0.3325152394227118,-0.0016259937549242,0.0640490050132701,-0.2159086657554974,-0.2370561547561551,-13.844015473935391,23.644527734554632,-9.691840858571233,-0.4572195992490992,-1.5075172850674037,0.2070905163442618,-1.0,12.041555555555554,0.03,179.90127234777412,5.877802960071806,70.73228701941204,1321.0,1435.0,1000.0,1528.0,1314.0,1021.47,138.0,292.98999999999995,1637228856.3908818,1637228857.512297,42869488-d825-41b8-a18a-04899d4f51d6
-0.321954558517013,-0.443777252412987,0.0121538401220708,0.3457099552095869,-0.0030460529813913,0.0544400474731899,-0.2218929667790956,-0.2499522881112336,-13.84262221804246,23.850022370823304,-9.834253684717272,-0.5073287043268419,-1.5206884170683412,0.2195049234676944,-1.0,12.044111111111114,0.04,179.898203316107,5.894204615862467,70.75026635403725,1321.0,1435.0,1000.0,1528.0,1314.0,1021.47,138.0,292.98999999999995,1637228857.6275032,1637228858.7396345,42869488-d825-41b8-a18a-04899d4f51d6
-0.3590377231991133,-0.5244237052761546,0.0430384842488465,0.3883150149473061,0.0439698502285827,0.0848540773252682,-0.1779144085660319,-0.1978429034047654,-14.010698017718896,24.33294388782598,-10.882743874572888,-0.5306034410814322,-1.815958789634621,0.0395730913997188,-1.0,12.035000000000002,0.03,179.91774524623236,5.910364558847503,70.76936659859624,1220.0,1435.0,1000.0,1528.0,1233.0,1021.47,138.0,292.98999999999995,1637228859.731952,1637228860.7864866,63c07a50-7b26-411c-b81b-dcd1d51f057c
-0.3594212268772476,-0.5185341834478338,0.0421482079568755,0.3804942806826274,0.0411072694943931,0.0874016373127316,-0.1807495964313162,-0.1978839932142785,-14.185343516462876,24.42923094738308,-10.738664921780954,-0.5067080495655397,-1.7930022782170976,0.0494078965357418,-1.0,12.036444444444443,0.03,179.90407879661302,5.90451127645628,70.74679054665961,1220.0,1435.0,1000.0,1528.0,1233.0,1021.47,138.0,292.98999999999995,1637228860.8949645,1637228862.1080391,63c07a50-7b26-411c-b81b-dcd1d51f057c
-0.3572982599158694,-0.5231773180334052,0.0372585365295194,0.3825213711155042,0.0383679577740544,0.0898533211723252,-0.1824616664154751,-0.2105670077862759,-14.076835580791496,24.2647154857552,-10.79550749016955,-0.5070599147226744,-1.8112434015494685,0.0617609063140411,-1.0,12.035111111111112,0.03,179.89654737468825,5.904266765170366,70.71540051505404,1220.0,1435.0,1000.0,1528.0,1233.0,1021.47,138.0,292.98999999999995,1637228862.2159271,1637228863.4496365,63c07a50-7b26-411c-b81b-dcd1d51f057c
-0.4119886288107932,-0.6248469035532896,0.0667609237154549,0.447004763759432,0.0865661472798591,0.1155891544457094,-0.1423855327560642,-0.1746409313059564,-14.207347026122756,25.17852690467049,-12.5986510673944,-0.5875131357693668,-2.1817147120416966,-0.1159077705767762,-1.0,12.030666666666669,0.03,179.90150912766526,5.906691387461982,70.7171809176977,1118.0,1435.0,1000.0,1528.0,1152.0,1021.47,138.0,292.98999999999995,1637228864.3605282,1637228865.384613,b9f5d1a1-82b8-4951-8479-2ee7141f570c
-0.43219324851757,-0.631014739902372,0.0575957345977666,0.4483486700210492,0.0798959233099714,0.1216561819625984,-0.1495488334212124,-0.170113396049151,-14.287265960225293,25.12441507834584,-12.481228428157928,-0.5777478284951392,-2.2060703211286223,-0.0847331007047527,-1.0,12.02988888888889,0.03,179.8991792742484,5.898824242766728,70.69394916760076,1118.0,1435.0,1000.0,1528.0,1152.0,1021.47,138.0,292.98999999999995,1637228865.4929974,1637228866.52229,b9f5d1a1-82b8-4951-8479-2ee7141f570c
-0.4126597603615858,-0.6197106923688228,0.0600906997345232,0.4426081688553949,0.0792932747754828,0.1153974026515484,-0.1496173161787566,-0.1785033608219199,-14.247801650145416,25.12131409247821,-12.538678661711677,-0.5787485938679598,-2.162578515331288,-0.0859503786571899,-1.0,12.029333333333334,0.03,179.9075181763151,5.90338842181585,70.634054479859,1118.0,1435.0,1000.0,1528.0,1152.0,1021.47,138.0,292.98999999999995,1637228866.6304512,1637228867.6301992,b9f5d1a1-82b8-4951-8479-2ee7141f570c
-0.0400722347130025,0.0777455636679902,0.0107967850923586,0.1340932047736866,-0.1140199579426877,-0.1912274647625411,-0.3345345756157065,-0.3588870615042063,-13.73488123783446,22.21278994866256,-0.2421527433363622,-0.5913585771868554,0.3755028686167862,0.6084078075290558,-1.0,12.046666666666663,0.04,179.72610076286048,5.906745934111604,70.64678519356201,1525.0,1435.0,1000.0,1528.0,1475.0,1021.47,138.0,292.98999999999995,1637228869.2374752,1637228870.3003418,ee603033-e920-4547-a347-6fa94144a408
-0.0531661451716472,0.0744857827570064,0.0090847152488902,0.1372434131786742,-0.1148828411796601,-0.1912685544005563,-0.3374108533889757,-0.3560107838179565,-13.850751683598608,22.30252536409438,-0.3077587025957515,-0.5981161763838813,0.3641834024363954,0.6154348280455351,-1.0,12.05,0.04,179.73702451207305,5.909052925367514,70.76386753740445,1525.0,1435.0,1000.0,1528.0,1475.0,1021.47,138.0,292.98999999999995,1637228870.409069,1637228871.4383297,ee603033-e920-4547-a347-6fa94144a408
-0.0510979647740255,0.0773894531570397,0.0153714357001248,0.1365722818404968,-0.1093357346410236,-0.1925012447748074,-0.3314117597722757,-0.3495323102496264,-13.834628449887754,22.2885670276052,-0.1191276727166179,-0.5991135982656696,0.3737689219719606,0.5913970567809202,-1.0,12.049333333333331,0.04,179.74451950632226,5.907434455125436,70.86365887790807,1525.0,1435.0,1000.0,1528.0,1475.0,1021.47,138.0,292.98999999999995,1637228871.5460632,1637228872.5593293,ee603033-e920-4547-a347-6fa94144a408
-0.0490160878212407,0.0599400376028588,-0.0234446120907595,-0.2349194911772711,-0.1810646172988596,0.1843321801416693,-0.2621482529593788,-0.2896098568327589,-13.773530862020015,21.38718984742537,2.516307132671756,1.078218587322817,0.3277953500285132,0.6421495201120276,-1.0,12.04811111111111,0.04,179.72969192454408,6.006492878385608,71.05506582247878,1525.0,1535.0,1000.0,1528.0,1475.0,1021.47,138.0,292.98999999999995,1637228874.2312613,1637228875.22249,24494945-2622-45b9-a91c-7d30157bad64
-0.0297176361281469,0.0766772321226373,-0.0068443826731147,-0.2345770771682566,-0.167806347414532,0.16530766093571,-0.251232094373396,-0.282021962471814,-13.75002061607322,21.344300215006523,2.294433737537229,1.0352142769585966,0.3933795443219233,0.5876703690468803,-1.0,12.048222222222222,0.04,179.71870594471906,6.027889726621143,71.06310267840215,1525.0,1535.0,1000.0,1528.0,1475.0,1021.47,138.0,292.98999999999995,1637228875.356968,1637228876.3527286,24494945-2622-45b9-a91c-7d30157bad64
-0.031552975020076,0.0701713668263149,-0.007132010413875,-0.232878703817395,-0.1677789543019503,0.1709917325209954,-0.2500404936275118,-0.2717632386277714,-13.70124402195467,21.444159190967053,2.42053499872752,1.0448483400253803,0.3672900862552667,0.5857272038476738,-1.0,12.049,0.04,179.7178498943431,6.028307459093506,71.1017296748883,1525.0,1535.0,1000.0,1528.0,1475.0,1021.47,138.0,292.98999999999995,1637228876.4606206,1637228877.586764,24494945-2622-45b9-a91c-7d30157bad64
-0.0152814630287956,0.0695139320249236,-0.0360728394474667,-0.639652888660055,-0.2398091631363243,0.5675344684363867,-0.1691075206043594,-0.1947885707266203,-13.546995825413802,20.76711483786592,5.657511624031714,2.8481800841635887,0.3832797653192175,0.6093582064160995,-1.0,12.046222222222225,0.0355555555555555,179.69751566227407,6.150504998009996,71.07977365234635,1525.0,1636.0,1000.0,1528.0,1475.0,1021.47,138.0,292.98999999999995,1637228878.9010994,1637228880.036347,97b0a91e-192f-400b-a469-f622539c47a3
-0.0215407904271262,0.0575979260823645,-0.0411405662974165,-0.622422611977021,-0.241822557483185,0.5637953083015416,-0.1749559516345173,-0.1970621996367433,-13.491979454926508,20.896450172219005,5.677814912137213,2.8015463802196563,0.3355776690151784,0.6260585788566685,-1.0,12.048333333333334,0.0322222222222222,179.6819777408222,6.155287790544428,71.03154720443669,1525.0,1636.0,1000.0,1528.0,1475.0,1021.47,138.0,292.98999999999995,1637228880.151131,1637228881.153864,97b0a91e-192f-400b-a469-f622539c47a3
-0.0277864213112935,0.0571870293305343,-0.0418527873590524,-0.6168207175408801,-0.2403570255366679,0.5594261065310173,-0.1782294294213219,-0.2002671944896673,-13.75422407964559,20.894881015938505,5.718828378243401,2.7789203636182584,0.3347942673064539,0.6295685372517689,-1.0,12.04188888888889,0.03,179.6703876687106,6.15263540041674,70.92116299944033,1525.0,1636.0,1000.0,1528.0,1475.0,1021.47,138.0,292.98999999999995,1637228881.2622535,1637228882.383351,97b0a91e-192f-400b-a469-f622539c47a3
-0.0083581263865666,0.0561230806591227,-0.0555619472650235,-0.9788505150705624,-0.2987076599657718,0.9101965828580404,-0.098913200802969,-0.1237247922495179,-13.468788387189605,20.88012070786049,8.293694175285486,4.383572642041242,0.3496668776396718,0.6153361375332895,-1.0,12.037,0.03,179.64704663558692,6.269669506048178,70.72206602077407,1525.0,1737.0,1000.0,1528.0,1475.0,1021.47,138.0,292.98999999999995,1637228884.318373,1637228885.3597205,2b7c5143-5137-4e19-8eb6-043add76f599
-0.0049920601000011,0.0548345084259661,-0.0566006943255556,-0.99773205496875,-0.3007194108204256,0.9281051057878514,-0.0939824394654164,-0.1190438560724333,-13.473592738840416,20.7635846004756,8.20482995914093,4.465566773793845,0.3479124479459676,0.6120694491388899,-1.0,12.037,0.03,179.64168873163803,6.264355239418953,70.6121030107765,1525.0,1737.0,1000.0,1528.0,1475.0,1021.47,138.0,292.98999999999995,1637228885.4682648,1637228886.5980823,2b7c5143-5137-4e19-8eb6-043add76f599
-0.0114053368153147,0.0449833956012803,-0.0632057229964044,-0.996914095581088,-0.3058128877518697,0.9366292952498853,-0.0983237009192182,-0.1217037279128941,-13.494797134677166,20.84584129511316,8.108561488620486,4.483067033438331,0.3114500530674796,0.632822180966098,-1.0,12.037,0.03,179.64301378833702,6.265278026434944,70.47980224655333,1525.0,1737.0,1000.0,1528.0,1475.0,1021.47,138.0,292.98999999999995,1637228886.7105076,1637228887.821851,2b7c5143-5137-4e19-8eb6-043add76f599
-0.0077795837321574,0.0523757022315841,-0.0529716540160313,-0.974761268009765,-0.3045982767649617,0.9073433160091232,-0.1049878988256336,-0.1288790817552431,-13.320966772402487,21.865392930277498,7.8755991076588945,4.374604861737035,0.3379486976467653,0.6271693280666324,-1.0,12.019333333333334,0.03,179.62375113705775,6.261706881000151,70.2789878547658,1525.0,1837.0,1000.0,1528.0,1475.0,1021.47,138.0,292.98999999999995,1637228889.7558715,1637228890.7813628,33d66da6-b0b6-44ef-b1a1-150284b26dbe
-0.0062828238038678,0.0643503294564767,-0.0409077247974337,-0.9792318276390428,-0.2940749353357231,0.898785706928971,-0.0945982367722806,-0.1161703183608232,-13.341951596541223,21.69822183885504,7.830395167435159,4.364933995508816,0.384722372309934,0.582998939718246,-1.0,12.017888888888889,0.03,179.62617661312302,6.2743718067005165,70.1324582886817,1525.0,1837.0,1000.0,1528.0,1475.0,1021.47,138.0,292.98999999999995,1637228890.8893042,1637228892.1216152,33d66da6-b0b6-44ef-b1a1-150284b26dbe
-0.0101178603073878,0.0534067791449133,-0.042948512088882,-0.9887646383322104,-0.2954993776240847,0.9185498393668378,-0.091174096938628,-0.1132803439673826,-13.388612929036974,21.765768957982413,7.872542704005359,4.4311797162848094,0.3446795734651154,0.5814369899101067,-1.0,12.021,0.03,179.6266820471216,6.280766808470286,69.98170690678063,1525.0,1837.0,1000.0,1528.0,1475.0,1021.47,138.0,292.98999999999995,1637228892.229491,1637228893.3503687,33d66da6-b0b6-44ef-b1a1-150284b26dbe
-0.0638494612998996,0.0827995937560064,0.0509687917303316,0.6157052603694341,-0.0280466558871848,-0.6618002316902476,-0.4271370257848492,-0.4522565201016388,-13.676468525644497,23.35385722407865,-3.6023809579927435,-2.726138883951118,0.3670960316585403,0.5680639392682173,-1.0,12.048666666666668,0.04,179.62037398796812,5.71639534470065,69.86360307020232,1525.0,1334.0,1000.0,1528.0,1475.0,1021.47,138.0,292.98999999999995,1637228894.262046,1637228895.3997023,2c7dbdd3-1a10-4b8c-a8e1-0d6a397cb2ee
-0.0674878152682865,0.0731243448387821,0.0470110341515789,0.6096568606825501,-0.0295801226234256,-0.6467274375299696,-0.4284458692041837,-0.4554138515298173,-14.001652159468614,23.40861602712726,-3.618283438946035,-2.678624886382852,0.333745194232999,0.5759148989263221,-1.0,12.04811111111111,0.04,179.66483548382527,5.740618705455838,70.12555903871008,1525.0,1334.0,1000.0,1528.0,1475.0,1021.47,138.0,292.98999999999995,1637228895.5072854,1637228896.6248195,2c7dbdd3-1a10-4b8c-a8e1-0d6a397cb2ee
-0.0751140594542887,0.0633154174929195,0.0300492159147171,0.6146270673832671,-0.0432153210544704,-0.6414679570888485,-0.4433959401325672,-0.4736773950112504,-14.034174131474826,23.38100971956329,-3.708572031388,-2.679076054294802,0.2962984651062955,0.6376110136819385,-1.0,12.048666666666666,0.0311111111111111,179.69756575032798,5.757340526363844,70.40524238375366,1525.0,1334.0,1000.0,1528.0,1475.0,1021.47,138.0,292.98999999999995,1637228896.7340724,1637228897.7449155,2c7dbdd3-1a10-4b8c-a8e1-0d6a397cb2ee
-0.0881060676809709,0.0783208191268032,0.0651310332659374,1.0678423178308687,0.0287392770150685,-1.095515687084658,-0.5461327567013431,-0.5661297385342628,-14.353824501998332,25.16023619415273,-7.11503675194173,-4.70888686215901,0.3314853387955679,0.6380924113922405,-1.0,12.038111111111112,0.03,179.70656945747385,5.620265033024036,70.90909481408681,1525.0,1234.0,1000.0,1528.0,1475.0,1021.47,138.0,292.98999999999995,1637228899.791465,1637228900.8167408,12e63eab-0b7c-4890-984b-44f5569dbf40
-0.0879143158538537,0.0871277062229819,0.0805396616097001,1.061541901217818,0.0406689796483984,-1.0974469033077356,-0.5330251463575048,-0.5550492191883291,-14.403672377345975,25.26300355932163,-6.8789403874704895,-4.69755331952966,0.3645310987136209,0.5834439715777586,-1.0,12.036444444444443,0.03,179.7217916724041,5.59197453177745,71.074880201261,1525.0,1234.0,1000.0,1528.0,1475.0,1021.47,138.0,292.98999999999995,1637228900.9247272,1637228902.0458603,12e63eab-0b7c-4890-984b-44f5569dbf40
-0.0930505255927939,0.0793069713458045,0.0704316014430433,1.064801682000985,0.0322866857466506,-1.093214663610889,-0.5397364619586389,-0.5741011379114546,-14.20939831437964,25.19458368247088,-7.004817548312705,-4.696275329103563,0.3338959037408013,0.6172635159950929,-1.0,12.035666666666666,0.03,179.71325090030197,5.594635127618517,71.24740622623605,1525.0,1234.0,1000.0,1528.0,1475.0,1021.47,138.0,292.98999999999995,1637228902.1534033,1637228903.3867066,12e63eab-0b7c-4890-984b-44f5569dbf40
-0.0961048583205404,0.0856484779152859,0.092277612175253,1.2573205038713793,0.0646242605988336,-1.282816277667482,-0.5839626628602751,-0.6055621430119164,-14.621029108319345,26.67792946699324,-7.974480937577795,-5.546051477172118,0.3468948222292186,0.606599804618598,-1.0,12.032000000000002,0.03,179.67996966520622,5.484534470336418,71.41357789855331,1525.0,1133.0,1000.0,1528.0,1475.0,1021.47,138.0,292.98999999999995,1637228904.2971313,1637228905.4349997,36e580c4-c542-4dfa-9f3e-a779f9e2e83a
-0.0939298447032916,0.089494471524318,0.0996715622528687,1.247684153137557,0.0688247211546866,-1.2784306357576047,-0.5746199634835306,-0.5955000998067712,-14.430798299754295,26.68769850271226,-8.013435160241242,-5.513936630600285,0.361973823717219,0.5779527996848539,-1.0,12.035,0.03,179.68291120000876,5.473246871254935,71.53808314020374,1525.0,1133.0,1000.0,1528.0,1475.0,1021.47,138.0,292.98999999999995,1637228905.5426998,1637228906.550648,36e580c4-c542-4dfa-9f3e-a779f9e2e83a
-0.0918041386938976,0.0917708395299407,0.0994409122077495,1.243692428255516,0.0688291040501299,-1.2758310269311042,-0.5750735937037352,-0.5946596789657344,-14.592378806371864,26.65640236835196,-7.8508340232192735,-5.499364975744314,0.3706903991147876,0.5792767270962726,-1.0,12.036222222222223,0.03,179.69245221536937,5.501098058528654,71.68190946919633,1525.0,1133.0,1000.0,1528.0,1475.0,1021.47,138.0,292.98999999999995,1637228906.6587732,1637228907.8929622,36e580c4-c542-4dfa-9f3e-a779f9e2e83a
-0.097104707172248,0.093332247193227,0.0962907037839307,1.2800704875433828,0.061967128239282,-1.3121543328363363,-0.5966456801163498,-0.6210392598373052,-14.610909666689958,27.552169268848576,-8.140619801217566,-5.657322516988761,0.3745827155642633,0.6233497026739402,-1.0,12.026444444444444,0.03,179.67806024787825,5.484432349521953,71.82918124917023,1525.0,1033.0,1000.0,1528.0,1475.0,1021.47,138.0,292.98999999999995,1637228908.8027773,1637228909.8339937,d3a0f898-25e4-4134-8c43-727686598b54
-0.0920369802120891,0.0919078051106089,0.0985780289912925,1.2582929593480738,0.0630217632107288,-1.2901028529894976,-0.5869074240289675,-0.619368279083222,-14.597021215771385,27.409894114901,-8.007162927839195,-5.559446130098034,0.3707829389318401,0.6048232029720175,-1.0,12.026666666666667,0.03,179.6634648925318,5.465427822475085,71.87211657720285,1525.0,1033.0,1000.0,1528.0,1475.0,1021.47,138.0,292.98999999999995,1637228909.9479349,1637228911.05565,d3a0f898-25e4-4134-8c43-727686598b54
-0.0934645831085647,0.0932469070947774,0.1038417217889677,1.264403731658816,0.0681505976337457,-1.2976833783555082,-0.5834685330222917,-0.6100567226109465,-14.53996053883292,27.42990876268771,-8.06534636209482,-5.589850763555591,0.3754988650300148,0.5859315425398195,-1.0,12.026222222222222,0.03,179.66348917764887,5.487366247793558,71.92828805293703,1525.0,1033.0,1000.0,1528.0,1475.0,1021.47,138.0,292.98999999999995,1637228911.1638858,1637228912.283314,d3a0f898-25e4-4134-8c43-727686598b54
-0.0526456759354841,0.0711849121643167,0.0171108986782847,0.1470090591703192,-0.1045967250788016,-0.1961171366433218,-0.3289737719351877,-0.3563531977086724,-13.810681279519978,22.20773064193152,-0.1142358337180559,-0.6312182290682073,0.3491091835569362,0.5784976833430832,-1.0,12.052,0.04,179.6352152301247,5.796422916226528,71.92076422011131,1525.0,1435.0,1000.0,1528.0,1475.0,1021.47,138.0,292.98999999999995,1637228914.3333256,1637228915.4662373,4b851ac0-faac-450f-a589-fb287edf457b
-0.0474886475359776,0.071296676070641,0.0151385942035439,0.150872584335986,-0.1060660919820743,-0.2002502105557994,-0.3326575989354399,-0.3571799218897768,-13.863560962674905,22.237710672816,-0.2022655874928408,-0.6491610812970989,0.3500826332546438,0.5883064236056886,-1.0,12.053555555555556,0.04,179.63793819887377,5.797869445942624,71.89731390396094,1525.0,1435.0,1000.0,1528.0,1475.0,1021.47,138.0,292.98999999999995,1637228915.5753255,1637228916.699807,4b851ac0-faac-450f-a589-fb287edf457b
-0.0451810512480312,0.074814500167459,0.0161110498932231,0.1494333500112336,-0.1054185186413658,-0.2034721892755158,-0.3320828912286417,-0.3512717733538599,-13.84993812079344,22.166905710893484,-0.3518740052089348,-0.6535926815651972,0.3647438171926993,0.5855211945420891,-1.0,12.050666666666665,0.04,179.63942110883357,5.811727994632317,71.92766574681264,1525.0,1435.0,1000.0,1528.0,1475.0,1021.47,138.0,292.98999999999995,1637228916.8075037,1637228917.9277031,4b851ac0-faac-450f-a589-fb287edf457b
0.0080711698517893,0.106385067348883,0.1843869663847135,0.1222867715628916,0.0438191881331367,-0.2172372320638133,-0.1571504239860323,-0.1812015830406712,-12.6209169490926,22.034078171316622,-0.1485326649506313,-0.6151389814981126,0.4866595879573843,-0.0914083024821673,-1.0,12.051111111111112,0.04,179.6166538116002,5.800259016082874,71.91697801858139,1525.0,1435.0,1000.0,1439.0,1475.0,1021.47,138.0,292.98999999999995,1637228918.8387668,1637228919.98217,4f5c50a4-578e-4679-90c5-d65b7c2316fb
-0.001434241954963,0.1005914231548639,0.1707041048442095,0.1279023604565427,0.032519527236442,-0.215826486390599,-0.1720385843918203,-0.2013218295866637,-12.800228288406332,22.11364246179892,-0.1298860892345153,-0.6248774025707098,0.4644762868829341,-0.0369524868261836,-1.0,12.049444444444443,0.04,179.61906866292676,5.802633028570015,71.90372062140241,1525.0,1435.0,1000.0,1439.0,1475.0,1021.47,138.0,292.98999999999995,1637228920.098694,1637228921.2046807,4f5c50a4-578e-4679-90c5-d65b7c2316fb
-0.0012841276718809,0.0919269803018699,0.1692413124385766,0.1316097448293878,0.0324291299504335,-0.210493045988721,-0.171428265688682,-0.1958059509422444,-12.747955867241274,22.16866911704696,-0.0974939495117998,-0.620931983536007,0.4307740377916897,-0.036660613306398,-1.0,12.05111111111111,0.04,179.6171637990582,5.812775148009446,71.88078939962895,1525.0,1435.0,1000.0,1439.0,1475.0,1021.47,138.0,292.98999999999995,1637228921.312535,1637228922.4346857,4f5c50a4-578e-4679-90c5-d65b7c2316fb
0.0596337825274122,0.1257322777749263,0.3512587046666368,0.1190790375482665,0.1959200161354349,-0.2413398908348928,0.0118119740066365,-0.0154058278455462,-11.582760363622294,22.12567208651714,-0.0136791070042689,-0.6526046483197654,0.5616556417527616,-0.7634146264113615,-1.0,12.049,0.04,179.59140943242784,5.817553007629477,71.84645252085147,1525.0,1435.0,1000.0,1351.0,1475.0,1021.47,138.0,292.98999999999995,1637228923.2320452,1637228924.2823248,c643851c-d4ee-47ad-a099-a80dee7da232
0.0593647821049514,0.125601338678174,0.3572923122162306,0.1243549518183225,0.2011652499935302,-0.2468081054836197,0.0167410915770646,-0.0072552797918227,-11.450375661130954,22.191977837443915,-0.0778836381426813,-0.6759972400284168,0.5605306423644438,-0.7857960810262222,-1.0,12.047333333333333,0.04,179.59297885811714,5.807151530729063,71.86782114712483,1525.0,1435.0,1000.0,1351.0,1475.0,1021.47,138.0,292.98999999999995,1637228924.3906462,1637228925.505808,c643851c-d4ee-47ad-a099-a80dee7da232
0.0660503462651508,0.1232734716267714,0.3486947090778071,0.1161337296644254,0.1923961656719079,-0.2368035900307362,0.0103524686917563,-0.01377538952687,-11.50315379250801,22.204737537682053,-0.1136572208493577,-0.6353464823377339,0.5529577192072554,-0.7534831118640162,-1.0,12.048444444444446,0.04,179.60341083370946,5.80798139871322,71.88241194901178,1525.0,1435.0,1000.0,1351.0,1475.0,1021.47,138.0,292.98999999999995,1637228925.614484,1637228926.725653,c643851c-d4ee-47ad-a099-a80dee7da232
0.1274366774631204,0.1593496581505115,0.5412233818850809,0.1144523401477687,0.3647569360959632,-0.2791182913267714,0.1997682010643949,0.1741419405649819,-10.2403901482613,22.35862804941953,0.1377049916431805,-0.7153579503171977,0.689514921357666,-1.5148452042980762,-1.0,12.046666666666663,0.04,179.59155058967067,5.814081279392602,71.85813745670154,1525.0,1435.0,1000.0,1262.0,1475.0,1021.47,138.0,292.98999999999995,1637228927.7475593,1637228928.885702,0fcb0769-1972-484f-8b22-add6515c86c9
0.1243138621668554,0.1638695223415181,0.5450584179258129,0.1111788627246611,0.3665785782456494,-0.2803509817630578,0.2031512508646137,0.1729503401720564,-10.152432451092404,22.380765004208808,0.1905486236134338,-0.7103534002749421,0.7060227967931199,-1.5267255064345406,-1.0,12.047888888888888,0.0322222222222222,179.5827821445962,5.804175987276269,71.8287289388652,1525.0,1435.0,1000.0,1262.0,1475.0,1021.47,138.0,292.98999999999995,1637228928.9937885,1637228930.1091163,0fcb0769-1972-484f-8b22-add6515c86c9
0.1212091263356081,0.1624828827841585,0.5389826251025633,0.1120050391142011,0.3618697017448141,-0.279457966028371,0.1967878299956071,0.1754474967168766,-10.275963730403042,22.35926416143297,0.185532381743191,-0.7107183739233587,0.7012535807317455,-1.5032148950966828,-1.0,12.049,0.04,179.601530254958,5.801481145625614,71.8330031194658,1525.0,1435.0,1000.0,1262.0,1475.0,1021.47,138.0,292.98999999999995,1637228930.2182257,1637228931.3433712,0fcb0769-1972-484f-8b22-add6515c86c9
0.1715943811161805,0.18789328525563,0.6878998136679977,0.1120965321620917,0.4932443415523824,-0.311894160688722,0.3419932573436515,0.3181612469176219,-9.20590514057997,22.711291458870107,0.2482788470814696,-0.773515864519248,0.7978635684852288,-2.088116212315545,-1.0,12.037888888888888,0.03,179.57984060979362,5.804489464500051,71.77931176131024,1525.0,1435.0,1000.0,1173.0,1475.0,1021.47,138.0,292.98999999999995,1637228933.2772105,1637228934.3026855,4445fb8b-8750-476b-97dc-4a52920738d3
0.1698461523971572,0.1871103899922085,0.6882466104976815,0.1133856522207542,0.4929884898595811,-0.3125006444499883,0.3420809153065467,0.3137980715011447,-9.13819334309906,22.77177270163552,0.2223637634325148,-0.7773384945134774,0.7945419650471415,-2.08846270993497,-1.0,12.039666666666667,0.03,179.56215800894242,5.803828880857198,71.74485573367727,1525.0,1435.0,1000.0,1173.0,1475.0,1021.47,138.0,292.98999999999995,1637228934.41045,1637228935.4349277,4445fb8b-8750-476b-97dc-4a52920738d3
0.1698593011190619,0.1884910030471191,0.6901531712665872,0.1177904653271033,0.4956313775748899,-0.3184307074617361,0.342067766634385,0.3215689505576218,-9.214910099289002,22.75877947782,0.1561708331446664,-0.8006406855283185,0.8004280706768409,-2.094578550203921,-1.0,12.040555555555557,0.03,179.56250558968017,5.80019597912866,71.70529148345501,1525.0,1435.0,1000.0,1173.0,1475.0,1021.47,138.0,292.98999999999995,1637228935.542409,1637228936.6676228,4445fb8b-8750-476b-97dc-4a52920738d3
-0.1258400887772242,0.0299993604298229,-0.202992809659364,0.172238119304718,-0.3019641542150443,-0.1675598094513208,-0.5569941307756658,-0.5778129064283378,-15.50353899593579,22.53377040869128,-0.2088715724809758,-0.6336222454823495,0.1904045995526437,1.4657838561601075,-1.0,12.05,0.0388888888888888,179.63280645007737,5.811340381396921,71.80278788039749,1525.0,1435.0,1000.0,1567.6666666666667,1475.0,1021.47,138.0,292.98999999999995,1637228938.2109144,1637228939.180621,ece22667-5e84-4122-a1e5-726a2bb90cde
-0.1244156466196623,0.0295062843338486,-0.2034584927140328,0.1736077751459827,-0.3037310105465138,-0.1673269678838556,-0.55699413077794,-0.5754707942775155,-15.311291901015949,22.598530624766667,-0.06884076784275,-0.6356634180003254,0.1857564397568726,1.46908286796137,-1.0,12.051333333333332,0.04,179.65803109759216,5.808696529005693,71.83217514875642,1525.0,1435.0,1000.0,1617.0,1475.0,1021.47,138.0,292.98999999999995,1637228939.288869,1637228940.3544445,ece22667-5e84-4122-a1e5-726a2bb90cde
-0.1281411108132664,0.0290816910124187,-0.2059375700471722,0.1731831817821452,-0.3063470536090897,-0.1672858782414453,-0.5586651113970976,-0.5861678099009556,-15.2192220746346,22.568705891809326,-0.1937579741459746,-0.6349080256624354,0.1845140575406484,1.4782497326914956,-1.0,12.050666666666668,0.04,179.64831401513294,5.81553269459123,71.79990933511729,1525.0,1435.0,1000.0,1617.0,1475.0,1021.47,138.0,292.98999999999995,1637228940.4631329,1637228941.582834,ece22667-5e84-4122-a1e5-726a2bb90cde
-0.1929000886080119,0.0018978568853659,-0.4029899879958185,0.2172997952892811,-0.4835126219021942,-0.1711784404550259,-0.7745065186423346,-0.7995416479045909,-16.872364515099104,23.08121729627794,-0.3454139999136841,-0.7504421236071898,0.0776877311837653,2.290989199890526,-1.0,12.048,0.04,179.663167399848,5.807419141335293,71.81173466930031,1525.0,1435.0,1000.0,1706.0,1475.0,1021.47,138.0,292.98999999999995,1637228943.190582,1637228944.246205,f700cfaa-7ae6-4360-a9cc-acce7663c7ef
-0.2019069464130357,-0.0056363461790597,-0.4145213969694656,0.2236243178824665,-0.4925063323942189,-0.1694691098226364,-0.7862351609735109,-0.8103761788760566,-16.976605103653178,23.13843131292874,-0.4135924246169357,-0.761125851539865,0.0492631982252629,2.334607901463093,-1.0,12.045555555555556,0.04,179.64827910527717,5.819442456140501,71.73723096583382,1525.0,1435.0,1000.0,1706.0,1475.0,1021.47,138.0,292.98999999999995,1637228944.3548725,1637228945.4700649,f700cfaa-7ae6-4360-a9cc-acce7663c7ef
-0.189441981228451,-0.0014945067964343,-0.4058958504611837,0.211303990034528,-0.4871679603627515,-0.1622899211408084,-0.7733362841587078,-0.7988447666982178,-16.66979614327612,23.044728963712952,-0.3465666365916644,-0.7172281603130283,0.0640941684458758,2.297954711459947,-1.0,12.045,0.04,179.64483517211568,5.821831694257666,71.70480805784375,1525.0,1435.0,1000.0,1706.0,1475.0,1021.47,138.0,292.98999999999995,1637228945.5788171,1637228946.7039974,f700cfaa-7ae6-4360-a9cc-acce7663c7ef
-0.2614573984985655,-0.0373510023461061,-0.6003388214178211,0.2903933937924209,-0.6593501904117274,-0.1920980180685783,-0.9953126929003574,-1.0248052380103958,-18.271248622104405,23.91072298227049,-0.8301340793493427,-0.9674416486766052,-0.0768185166841713,3.107764855439993,-1.0,12.041999999999998,0.0366666666666666,179.65311791484916,5.798753196530232,71.65859272118972,1525.0,1435.0,1000.0,1795.0,1475.0,1021.47,138.0,292.98999999999995,1637228948.842893,1637228949.8688972,cdbad395-0ed6-4455-a63c-607554f0b947
-0.2618606252581728,-0.0327719687332072,-0.5963032661385158,0.2944935953061747,-0.6575542970627254,-0.1997878147479868,-0.9934899537948316,-1.0130075625629882,-18.078453807922013,23.995834410594902,-0.7283103224282921,-0.9930922616868528,-0.0621589187424637,3.09805620825885,-1.0,12.042,0.03,179.6579506531419,5.78679666579691,71.60818971966458,1525.0,1435.0,1000.0,1795.0,1475.0,1021.47,138.0,292.98999999999995,1637228949.977193,1637228951.0036175,cdbad395-0ed6-4455-a63c-607554f0b947
-0.259847230870798,-0.0320049614228976,-0.5993165099100767,0.2920830011588264,-0.6598142299278121,-0.1981031378256148,-0.9966538607028488,-1.0226362495688168,-18.22216304564886,23.95601656693886,-0.7200831338290742,-0.9843538827306748,-0.0582328568368022,3.109745548792882,-1.0,12.044222222222224,0.03,179.671988968616,5.792818663347006,71.58302047257308,1525.0,1435.0,1000.0,1795.0,1475.0,1021.47,138.0,292.98999999999995,1637228951.111851,1637228952.1263494,cdbad395-0ed6-4455-a63c-607554f0b947
-0.3048130389061532,-0.05231695849257858,-0.7217226995200896,0.36403101851990366,-0.769414136794334,-0.23846690035104934,-1.1449876944997284,-1.1566297793923501,-19.126259331520224,24.83084178999036,-0.9169917551934086,-1.238135922729427,-0.14287443219285964,3.633977538182002,-1.0,12.035333333333334,0.030000000000000002,179.68146775336416,5.775745704311045,71.50954660985144,1525.0,1435.0,1000.0,1883.0,1475.0,1021.4699999999999,138.0,292.98999999999995,1637228953.2355337,1637228954.2958777,92bfd9f2-ac76-40d0-a5ac-f74db812db94
-0.30652510899948937,-0.05301548300494894,-0.7179424471864726,0.36940006907414924,-0.7632369855065759,-0.24354832421198078,-1.1441658997319955,-1.1582459732490848,-19.461827061809217,24.835750248889457,-1.0143094737273985,-1.261629482413703,-0.14267804738463694,3.61882968575488,-1.0,12.0212,0.030000000000000006,179.67039647206553,5.764675902886719,71.38332881210309,1525.0,1435.0,1000.0,1883.0,1475.0,1021.4699999999999,138.0,292.98999999999995,1637228954.4050167,1637228955.5097904,92bfd9f2-ac76-40d0-a5ac-f74db812db94
-0.3139212517226105,-0.05409751117741071,-0.7280368148748094,0.3653732811540292,-0.7731396016586937,-0.23711094093456508,-1.1506443765529453,-1.1788182200691135,-19.278774614730672,24.70672903935143,-0.8403629541618042,-1.2393184329606808,-0.1497199281517329,3.6555611809951203,-1.0,12.026111111111112,0.030000000000000002,179.69243400153155,5.779551258043603,71.32207309533273,1525.0,1435.0,1000.0,1883.0,1475.0,1021.4699999999999,138.0,292.98999999999995,1637228955.6187508,1637228956.7379405,92bfd9f2-ac76-40d0-a5ac-f74db812db94
