raw_voltage_G-,raw_voltage_G0,raw_voltage_G1,raw_voltage_G2,raw_voltage_G3,raw_voltage_G4,raw_voltage_G5,raw_voltage_G6,load_x,load_y,load_z,load_l,load_m,load_n,rpm,voltage,current,roll,pitch,yaw,aileron1_pwm,elevator_pwm,throttle_pwm,rudder_pwm,aileron2_pwm,pbaro,pdiff,Tt,sample_start_time,sample_end_time,uid
0.0485625803220524,0.1749872925070672,-0.0079110706743251,-0.0618075782472272,-0.1172030383507669,0.1761312290236288,-0.2203414204290479,-0.2452582026853339,-13.002639541085378,15.85959618761956,40.29696263204724,0.6398327746983155,0.3985645458762424,0.5460023969321632,-1.0,12.050888888888888,0.04,178.7921953372663,-6.1490745002657015,94.89642927558684,1525.0,1435.0,1000.0,1528.0,1475.0,1021.47,138.0,292.98999999999995,1637228984.2737198,1637228985.2988403,9fd0702b-3920-4976-a8b9-ba41de2613ca
0.0306157055634586,0.1767305904233463,-0.0041050708997131,-0.0644795029924946,-0.1144719444034415,0.1753472380511388,-0.2165524040647014,-0.2353577814422927,-12.958687616258109,15.86686704230268,40.107602021576426,0.6443279017593265,0.4070405648979938,0.5316479872739733,-1.0,12.051555555555556,0.04,178.84992561395106,-6.0961879186354695,95.64875715773584,1525.0,1435.0,1000.0,1528.0,1475.0,1021.47,138.0,292.98999999999995,1637228985.406475,1637228986.435289,9fd0702b-3920-4976-a8b9-ba41de2613ca
0.0349273822325702,0.1698593011485661,-0.0104882151935521,-0.0597300841421395,-0.1195698038238548,0.1774723960057333,-0.2223137250786605,-0.2471516152574182,-12.932095544913922,15.936162804908584,40.02664532241258,0.6385319029445188,0.3808101202298378,0.554581468506664,-1.0,12.04988888888889,0.04,178.91334467930454,-6.0574587539029885,96.30115481886811,1525.0,1435.0,1000.0,1528.0,1475.0,1021.47,138.0,292.98999999999995,1637228986.543565,1637228987.6077795,9fd0702b-3920-4976-a8b9-ba41de2613ca
0.1478615329885549,0.3757678726492001,0.0126403419118465,-0.1521654241218095,-0.1419751837494962,0.0870225166507536,-0.2378160396955921,-0.262982647553279,-12.591197146886946,15.17427704677884,43.78369229054043,0.6406619367513308,1.1302151221143275,0.6055981802743802,-1.0,12.04922222222222,0.0377777777777777,178.96901072104015,-6.020156244933395,97.02978422132692,1627.0,1435.0,1000.0,1528.0,1556.0,1021.47,138.0,292.98999999999995,1637228988.190343,1637228989.3051715,1d524d28-f347-4651-8745-bb1edd7b1a41
0.1435882068257441,0.377279972608244,0.0072362276721866,-0.1534276990787587,-0.1487599115227866,0.0860495131397139,-0.2447717008252364,-0.2622463206489723,-12.57781905905052,15.286009396686584,43.641837527126725,0.6417785711445042,1.1368637006282198,0.6320443281964966,-1.0,12.041666666666666,0.04,179.04415039100934,-6.0018094556172255,97.33980347211418,1627.0,1435.0,1000.0,1528.0,1556.0,1021.47,138.0,292.98999999999995,1637228989.426021,1637228990.4187744,1d524d28-f347-4651-8745-bb1edd7b1a41
0.159988632343855,0.3860032743633428,0.0105794266662761,-0.1573808834968515,-0.1468762177131018,0.0822969895700074,-0.2423900714736309,-0.2617844010465717,-12.56234828993396,15.193330929385418,43.82892538629367,0.6418532678603163,1.1685108234953263,0.622864173652515,-1.0,12.044222222222224,0.04,179.1162073689332,-6.006998217520451,97.61652555069762,1627.0,1435.0,1000.0,1528.0,1556.0,1021.47,138.0,292.98999999999995,1637228990.5266316,1637228991.6474037,1d524d28-f347-4651-8745-bb1edd7b1a41
0.2777290086280649,0.598201060189706,0.0537765862349975,-0.255299972776033,-0.1548904916306018,-0.0134324275052647,-0.2428224064097721,-0.2625454536537781,-12.25370973320606,14.812202274418764,47.124775354272494,0.6479230813760011,1.9477739742014115,0.6053511304667082,-1.0,12.039333333333335,0.03,179.22264751913883,-5.996077788538724,98.2051520122792,1729.0,1435.0,1000.0,1528.0,1636.0,1021.47,138.0,292.98999999999995,1637228993.8990448,1637228995.0368354,b23400d7-f3ad-42e2-9870-cbcaa57c9062
0.2812944965564916,0.6088810876835091,0.0567805154778927,-0.2651390338620218,-0.1561889254701405,-0.0161027086251775,-0.2398014930508761,-0.2677293275119089,-12.001186200469192,14.773068398465613,46.96722816113924,0.6641092667948125,1.9888407764420493,0.5999002863704506,-1.0,12.034777777777778,0.03,179.27366447877938,-5.992620953908789,98.30285331489682,1729.0,1435.0,1000.0,1528.0,1636.0,1021.47,138.0,292.98999999999995,1637228995.1448596,1637228996.2656791,b23400d7-f3ad-42e2-9870-cbcaa57c9062
0.2833062469503642,0.5980202656334871,0.0563203111052605,-0.265046992971174,-0.1549529479311818,-0.003006606899003,-0.2366458055948869,-0.2619307516885465,-12.040114155989206,14.8440899654446,47.33769530138546,0.6938176890000183,1.94505886978458,0.5935039088002333,-1.0,12.03722222222222,0.03,179.32525365649042,-6.00133233844458,98.38676522449003,1729.0,1435.0,1000.0,1528.0,1636.0,1021.47,138.0,292.98999999999995,1637228996.3741825,1637228997.4926214,b23400d7-f3ad-42e2-9870-cbcaa57c9062
0.2929047946200274,0.6107219049762403,0.0804481685960647,-0.2694649555853673,-0.1360188239394668,-0.0122106944821453,-0.2196182420811202,-0.2490450277335768,-12.25443681456973,15.1502614736654,47.37602946862634,0.6862299967607518,1.995953623920072,0.5118590894970904,-1.0,12.036666666666664,0.03,179.37010826767977,-6.007818741426368,98.42622626296485,1830.0,1435.0,1000.0,1528.0,1717.0,1021.47,138.0,292.98999999999995,1637228998.200159,1637228999.3449814,0ee66b30-c821-4193-99ba-f9a9aec8b1ae
0.2946667198197055,0.6158893421027282,0.0780156598073991,-0.266782621185082,-0.1387406042545626,-0.0193898828232614,-0.2245227063082873,-0.2489924330123152,-12.273991212972978,15.128495028417536,47.39845819148381,0.6637750297350329,2.0147894409318026,0.5265406135860844,-1.0,12.031333333333334,0.03,179.4014724963485,-6.004123846244737,98.34407730108737,1830.0,1435.0,1000.0,1528.0,1717.0,1021.47,138.0,292.98999999999995,1637228999.4617348,1637229000.56685,0ee66b30-c821-4193-99ba-f9a9aec8b1ae
0.2970411550556909,0.6235259945657933,0.0779921017319764,-0.2701470442399951,-0.1410158767288979,-0.0214175213725214,-0.225975637397913,-0.2539714066181455,-12.223149491879818,15.146625538122672,47.72713063225952,0.6670049703233728,2.0405717164756108,0.5331266068903683,-1.0,12.027222222222225,0.03,179.437602679238,-6.005682552331577,98.29164421555892,1830.0,1435.0,1000.0,1528.0,1717.0,1021.47,138.0,292.98999999999995,1637229000.674765,1637229001.794443,0ee66b30-c821-4193-99ba-f9a9aec8b1ae
0.2986162592159261,0.6281828240358432,0.0845390566614879,-0.2682021326445579,-0.1352633217306564,-0.0278686006461096,-0.2212229310695346,-0.2467807125245315,-12.206081633902416,15.13394951462715,47.756854958298845,0.6483765832897227,2.0578287770707875,0.5102399496395995,-1.0,12.017333333333331,0.0466666666666666,179.483160041002,-6.01546556508902,98.09064844430344,1932.0,1435.0,1000.0,1528.0,1798.0,1021.47,138.0,292.98999999999995,1637229003.729737,1637229004.7802632,22bb6ab3-117c-4f83-9340-5ccbb9caf024
0.3021499711031127,0.6306345077837782,0.0785947503087274,-0.2650382273337504,-0.1405775868236552,-0.0334841898704021,-0.2291532393384229,-0.2467122296778496,-12.265465062834616,15.10600135748644,47.661511888609965,0.628094260453711,2.067522550497805,0.5370318485350446,-1.0,11.9954,0.066,179.5064746640609,-6.017484426712068,97.8124029299711,1932.0,1435.0,1000.0,1528.0,1798.0,1021.47,138.0,292.98999999999995,1637229004.8881118,1637229005.8908126,22bb6ab3-117c-4f83-9340-5ccbb9caf024
0.2916721044133497,0.6143766943181398,0.0755130246426501,-0.25871041630414,-0.138482013209799,-0.0214175213557964,-0.2273726865336021,-0.249218700572593,-12.375228227148767,15.035358884633265,47.93693531097057,0.6403025896670432,2.0039060191819003,0.5342721841653048,-1.0,11.997,0.06,179.53790780174918,-6.020198411865146,97.55958757595658,1932.0,1435.0,1000.0,1528.0,1798.0,1021.47,138.0,292.98999999999995,1637229005.9994862,1637229007.120694,22bb6ab3-117c-4f83-9340-5ccbb9caf024
-0.1676967749688271,-0.1881320421572985,-0.0306353055352896,0.0974412146486128,-0.0613977771875918,0.3379390762734246,-0.1747368066765428,-0.1979661726125375,-13.619580181336994,17.305104091279162,33.64478219377759,0.6512903349268211,-0.921052087650854,0.3830898071141146,-1.0,12.007444444444443,0.0488888888888888,179.745780814589,-6.0304370551584725,97.22619086437012,1423.0,1435.0,1000.0,1528.0,1394.0,1021.47,138.0,292.98999999999995,1637229008.2363665,1637229009.2603686,c42cbaf8-936a-4d93-9f5b-cd0ca505af74
-0.1671812364512115,-0.1861285094225705,-0.0287517547429361,0.0921242107221071,-0.0610318051226308,0.338662254554994,-0.1739002207985426,-0.1986855156610252,-13.689977398020174,17.39199554853255,33.34062499576375,0.6654951529113816,-0.9095681123048271,0.3785146612673312,-1.0,12.05211111111111,0.04,179.68271388343274,-6.014979815316171,97.42925618294412,1423.0,1435.0,1000.0,1528.0,1394.0,1021.47,138.0,292.98999999999995,1637229009.3689177,1637229010.4896743,c42cbaf8-936a-4d93-9f5b-cd0ca505af74
-0.1714085426502078,-0.1853653370906073,-0.0336211553913801,0.0947429926867798,-0.0644795029896682,0.3363228824913542,-0.1795169060281402,-0.2101013245165193,-13.7824846539868,17.322280887781474,33.41809169406833,0.6535921133104121,-0.9073698982938524,0.3980335277408356,-1.0,12.049333333333331,0.04,179.65631899684018,-5.992344473543011,97.62445388250418,1423.0,1435.0,1000.0,1528.0,1394.0,1021.47,138.0,292.98999999999995,1637229010.5992997,1637229011.7179854,c42cbaf8-936a-4d93-9f5b-cd0ca505af74
-0.2886357572100762,-0.4030951775473152,-0.035760010062184,0.17848484551268,-0.0235185735152903,0.4401175868703741,-0.1398976896323883,-0.1635521962305444,-14.08665696781137,18.396240329258088,28.943660602177648,0.7040781132630823,-1.6926073447223673,0.2561740777919819,-1.0,12.049,0.04,179.67377240689927,-5.981498180572901,97.81599970758803,1321.0,1435.0,1000.0,1528.0,1314.0,1021.47,138.0,292.98999999999995,1637229012.741368,1637229013.8853877,815f9b3b-9aa0-4758-94e3-a2d84b8b7f83
-0.2971840545914085,-0.4193984685280782,-0.046632886465126,0.1870167055282054,-0.0289643253291937,0.4491688198959376,-0.1487681294520276,-0.1739971927859044,-14.346490118661311,18.437621080899216,29.00118222577,0.7047829537709055,-1.7541644109287418,0.2890264787081955,-1.0,12.047444444444444,0.04,179.6489439103564,-5.99244953513337,97.86460712827136,1321.0,1435.0,1000.0,1528.0,1314.0,1021.47,138.0,292.98999999999995,1637229013.9981992,1637229015.1143048,815f9b3b-9aa0-4758-94e3-a2d84b8b7f83
-0.296197902218233,-0.414700547949872,-0.0443455611042678,0.1859894636526907,-0.0274850969680391,0.4459638254585106,-0.145987727860847,-0.1677789544270362,-14.206824350653113,18.32619284297168,29.085524898419493,0.6993570805080346,-1.738010809457356,0.2807569441902649,-1.0,12.04811111111111,0.04,179.63335134739114,-5.987036373056789,97.89013837538889,1321.0,1435.0,1000.0,1528.0,1314.0,1021.47,138.0,292.98999999999995,1637229015.228058,1637229016.4288454,815f9b3b-9aa0-4758-94e3-a2d84b8b7f83
-0.4446582153134981,-0.6874358159712741,-0.0530111001181038,0.2969151467122614,0.0179655639352216,0.5765484467193333,-0.1071048390460441,-0.130798791277709,-14.89908752236228,19.950565976504027,24.28396397744809,0.7517998119300953,-2.7276572308362064,0.135351279416875,-1.0,12.046666666666669,0.0366666666666666,179.6974686098598,-5.989595369833951,97.92003714902566,1220.0,1435.0,1000.0,1528.0,1233.0,1021.47,138.0,292.98999999999995,1637229017.2470462,1637229018.385512,14d34100-a33d-4c07-9ea3-63387076d748
-0.4467357097609145,-0.6924586198446575,-0.0508941599174313,0.3033054126849203,0.0217655372157805,0.5732218268851215,-0.1063553632956205,-0.1363606903015971,-15.017621894861696,20.015552092371312,23.959031773367062,0.7303343256208091,-2.7434284498002968,0.1251032791335982,-1.0,12.041333333333334,0.03,179.68880489435256,-5.999925841226118,97.86252695621414,1220.0,1435.0,1000.0,1528.0,1233.0,1021.47,138.0,292.98999999999995,1637229018.494847,1637229019.609741,14d34100-a33d-4c07-9ea3-63387076d748
-0.4449869327690615,-0.6865811503802398,-0.0459502499718494,0.3003732535929222,0.0253025365222066,0.5701713296485305,-0.1022266724426337,-0.1207926328322857,-14.99205903800809,19.978819729569743,23.99543247416208,0.7301150241604187,-2.721214105831584,0.1084380459938577,-1.0,12.04188888888889,0.03,179.67599449510928,-6.000854746953241,97.80577567331044,1220.0,1435.0,1000.0,1528.0,1233.0,1021.47,138.0,292.98999999999995,1637229019.718295,1637229020.8434346,14d34100-a33d-4c07-9ea3-63387076d748
-0.4459971911542228,-0.7090670733708752,-0.0093234598675809,0.3703725246581613,0.0677881656101092,0.5303209222566748,-0.0801483667765317,-0.1072812509775712,-15.09419768676346,20.71418109330892,24.578922053347764,0.4894047987951778,-2.816282523641745,-0.032447378584861,-1.0,12.039222222222222,0.03,179.67193432710266,-5.9878741147312375,97.70466307065736,1118.0,1435.0,1000.0,1528.0,1152.0,1021.47,138.0,292.98999999999995,1637229022.7940867,1637229023.802344,b0007634-8853-4415-a992-024d75475055
-0.4584199726900822,-0.7170795633610944,-0.0183084025272735,0.3629079007290244,0.0592552096122347,0.5464006805192271,-0.0855995973375035,-0.1166496975856886,-15.166393913883192,20.802988651221657,24.715226121862703,0.5425032371436512,-2.8466803413885,-0.001745981944567,-1.0,12.032666666666666,0.03,179.67233806717363,-6.028605426096048,97.574322570726,1118.0,1435.0,1000.0,1528.0,1152.0,1021.47,138.0,292.98999999999995,1637229023.910777,1637229025.03588,b0007634-8853-4415-a992-024d75475055
-0.4545849353995858,-0.7161755901763964,-0.0128571720606157,0.3673866750865814,0.0652816954022375,0.5414836164578887,-0.0798470424571963,-0.1033366418793533,-15.060428699571014,20.702503106498227,24.772178927123665,0.521018642879279,-2.8447522175606523,-0.0252309898447991,-1.0,12.032333333333334,0.03,179.67668662094516,-6.04213190426922,97.4766941234596,1118.0,1435.0,1000.0,1528.0,1152.0,1021.47,138.0,292.98999999999995,1637229025.1489933,1637229026.372962,b0007634-8853-4415-a992-024d75475055
0.0300267535474444,0.1570212432649911,-0.0092138873581413,-0.0512212337668861,-0.112951626304172,0.1783741773872523,-0.2194423782318601,-0.2506979288060422,-13.153504946060314,15.846797605441102,39.49901480291183,0.6206399254549275,0.3379347033973068,0.5374009002121097,-1.0,12.041222222222224,0.0344444444444444,179.46508432481855,-6.030254774484998,97.41109774558068,1525.0,1435.0,1000.0,1528.0,1475.0,1021.47,138.0,292.98999999999995,1637229027.28243,1637229028.4201548,54b2b409-a21e-4458-83a5-de95ba366ec9
0.0271093865461218,0.1556652840044455,-0.012227130314913,-0.0523032619507751,-0.1162661936925836,0.1827981656408794,-0.2198532750337669,-0.2463150294074808,-12.964847351267627,15.795960839820518,39.783654908764085,0.6326753045094179,0.3289323367339479,0.5469885705350941,-1.0,12.04988888888889,0.04,179.4366919873487,-6.026809513231157,97.52683226542692,1525.0,1435.0,1000.0,1528.0,1475.0,1021.47,138.0,292.98999999999995,1637229028.5291402,1637229029.6489608,54b2b409-a21e-4458-83a5-de95ba366ec9
0.013639642801923,0.1431280024918984,-0.0171809017434859,-0.0464499004740574,-0.1170584026954608,0.1903581178271413,-0.2244569628069321,-0.2467045595892209,-13.312914825009363,15.896811171584764,39.84208982356161,0.6367157679350239,0.2828225308762231,0.5597067190145448,-1.0,12.049333333333331,0.04,179.42151682483276,-6.018735945040987,97.61145223796412,1525.0,1435.0,1000.0,1528.0,1475.0,1021.47,138.0,292.98999999999995,1637229029.757284,1637229030.765529,54b2b409-a21e-4458-83a5-de95ba366ec9
0.0356423426027788,0.1459270311266409,-0.0367302742823036,-0.4126871534540841,-0.1749148619354272,0.5400591745146075,-0.1450289686879509,-0.1717098672142646,-13.132215633517566,15.110050011605663,42.24012904775196,2.242966506916355,0.3146268602928755,0.5530276869771514,-1.0,12.049333333333331,0.04,179.4242413114017,-5.885975803164287,97.72477418321353,1525.0,1535.0,1000.0,1528.0,1475.0,1021.47,138.0,292.98999999999995,1637229031.788059,1637229032.813758,23a3d535-b35f-4d8a-8cb6-1dc192caff88
0.03042395374942,0.1415578290515715,-0.04168842865013,-0.409153440632318,-0.1800099821798305,0.5424697686004339,-0.1490146675326164,-0.1679707063576135,-12.974414764256045,15.19029207202827,42.40046800244328,2.240802286556402,0.2949537048088337,0.5722065961269761,-1.0,12.047666666666666,0.04,179.41228999817395,-5.886619169038607,97.72241473231024,1525.0,1535.0,1000.0,1528.0,1475.0,1021.47,138.0,292.98999999999995,1637229032.92225,1637229033.9497845,23a3d535-b35f-4d8a-8cb6-1dc192caff88
0.0329167274285016,0.1411743254160252,-0.0423047738152812,-0.4057019071140213,-0.1788594711573917,0.5391962914006095,-0.1506171650224433,-0.1685459618813188,-13.112419340092982,15.129904728570864,42.32648688600064,2.225148266343345,0.2946827334586656,0.5735691095197232,-1.0,12.046,0.04,179.38772256663935,-5.885235107094295,97.74281574845116,1525.0,1535.0,1000.0,1528.0,1475.0,1021.47,138.0,292.98999999999995,1637229034.0577252,1637229035.1752388,23a3d535-b35f-4d8a-8cb6-1dc192caff88
0.0573196120106651,0.1440352625038447,-0.0593882180299027,-0.8085748062814546,-0.2411032141485878,0.9238843745492414,-0.061662942570088,-0.0934959379943455,-12.90295893240366,14.587822756160262,44.95398526087146,3.994456416784786,0.3291531102320016,0.5558706560372735,-1.0,12.047222222222224,0.0388888888888888,179.41017871081053,-5.734756221281982,97.71268398947272,1525.0,1636.0,1000.0,1528.0,1475.0,1021.47,138.0,292.98999999999995,1637229037.205075,1637229038.2508266,0858296c-f65c-43fc-b412-97fcbc841cf0
0.0449696990406024,0.1358737573778273,-0.0662600556711683,-0.7995054888199377,-0.2437263793415224,0.9240284623352568,-0.0675612287972891,-0.0876951710254484,-13.014193685826177,14.495574356566747,44.97739339493912,3.97331608430841,0.2975685009595,0.5762935399042854,-1.0,12.043,0.0355555555555555,179.41429807378998,-5.766243820242564,97.60974165503198,1525.0,1636.0,1000.0,1528.0,1475.0,1021.47,138.0,292.98999999999995,1637229038.3594792,1637229039.478975,0858296c-f65c-43fc-b412-97fcbc841cf0
0.0544400475202041,0.1434041251042159,-0.0580864970437799,-0.7849334394938171,-0.2369613743472967,0.8955620851292493,-0.0664885142854566,-0.0844627829940463,-12.828703033373143,14.54545131748539,43.921773448658506,3.877140089123648,0.3325799088122601,0.5540699146569793,-1.0,12.043,0.03,179.41547741978664,-5.775798780572719,97.53756021588327,1525.0,1636.0,1000.0,1528.0,1475.0,1021.47,138.0,292.98999999999995,1637229039.5873892,1637229040.710748,0858296c-f65c-43fc-b412-97fcbc841cf0
0.0618033174118149,0.139525259809418,-0.0689473205876456,-1.0616084629073177,-0.286084909769322,1.1663463194676702,-0.0130522110216173,-0.0421634255537841,-12.865894612745878,15.21428895937474,45.81245428709973,5.113915159639479,0.334925423984647,0.5591714044954016,-1.0,12.042222222222222,0.0388888888888888,179.4123522287864,-5.696747167188246,97.3714917553135,1525.0,1737.0,1000.0,1528.0,1475.0,1021.47,138.0,292.98999999999995,1637229042.7350104,1637229043.7831218,a7ccfac0-7302-437f-942e-5b5541f56a40
0.0648981917756142,0.1488854877017341,-0.0664244143861809,-1.066670714479391,-0.2849941156917344,1.161430898679656,-0.0118436266697517,-0.036018053559771,-12.882038469756653,15.108105204267616,45.77055726481464,5.113695666008593,0.3712989735684333,0.553587338248393,-1.0,12.032666666666668,0.03,179.4156777720023,-5.707052784280934,97.20109371371986,1525.0,1737.0,1000.0,1528.0,1475.0,1021.47,138.0,292.98999999999995,1637229043.8911302,1637229045.011761,a7ccfac0-7302-437f-942e-5b5541f56a40
0.0681672863616164,0.1436802477162614,-0.0654629159295516,-1.0559808170753768,-0.2814565680475344,1.155209374096466,-0.0138674302047495,-0.038810507791436,-13.099684265719416,15.19885321965233,45.55654847131777,5.076107064227329,0.3539596945663667,0.5493125125541131,-1.0,12.032111111111112,0.03,179.42372525266438,-5.7218261040007175,97.04665630639668,1525.0,1737.0,1000.0,1528.0,1475.0,1021.47,138.0,292.98999999999995,1637229045.1252632,1637229046.1254923,a7ccfac0-7302-437f-942e-5b5541f56a40
0.0694558585997044,0.1438511807523049,-0.063332827131462,-1.1474958116878144,-0.2990232288842776,1.2472239494444737,0.0036729308768151,-0.0261483130787949,-13.036961760294515,16.123384691019147,46.744762407652914,5.495767383677066,0.3550439231036953,0.5459202177296711,-1.0,12.025222222222222,0.03,179.44225327915288,-5.711431931608165,96.7859001744531,1525.0,1837.0,1000.0,1528.0,1475.0,1021.47,138.0,292.98999999999995,1637229047.6895344,1637229048.8999956,d2f2dc1e-8e19-4440-b7c5-4764d31255f5
0.0647475296221913,0.1345451912141538,-0.0713688722887279,-1.1613413981383411,-0.3077577994326974,1.275523230278468,0.0040854712458797,-0.020102651874469,-12.878814837733644,16.152148902183527,47.62796985298864,5.590602832677128,0.312389367448438,0.5682807148466152,-1.0,12.010444444444444,0.03,179.45136171586606,-5.744287181086304,96.51299920725532,1525.0,1837.0,1000.0,1528.0,1475.0,1021.47,138.0,292.98999999999995,1637229049.0090196,1637229050.128692,d2f2dc1e-8e19-4440-b7c5-4764d31255f5
0.0702124564991095,0.1428179124075064,-0.0620278189356287,-1.177927943872244,-0.3011697537435575,1.283837041530658,0.0131936828152579,-0.0067759000406942,-13.138798843405,16.186450792617535,47.86275843223459,5.647299330888249,0.3458111928300118,0.5345973470662642,-1.0,12.010555555555555,0.0388888888888888,179.47246244694196,-5.769628937886213,96.3019228356948,1525.0,1837.0,1000.0,1528.0,1475.0,1021.47,138.0,292.98999999999995,1637229050.238403,1637229051.2456672,d2f2dc1e-8e19-4440-b7c5-4764d31255f5
0.0038833100620445,0.1582358540406263,0.0277481940582317,0.4107434019044196,-0.0348658986661037,-0.2701881338732053,-0.3093186594265694,-0.3305143614658529,-12.81305145776648,17.168775778521596,36.15545736414456,-1.4191761059227386,0.3152023356378119,0.5078038519400744,-1.0,12.009,0.03,179.4279903263461,-6.221886973002714,95.9845527835408,1525.0,1334.0,1000.0,1528.0,1475.0,1021.47,138.0,292.98999999999995,1637229053.1914968,1637229054.14389,d0a0299e-602f-4e95-9b47-a9018bff0d4f
0.0040279457274895,0.1606683627704225,0.0258810791756684,0.4116506618686542,-0.0357994561269482,-0.275158341777298,-0.3134999454541419,-0.3443467920089824,-13.005671508787689,17.14060394608382,35.88473561873369,-1.43281122189179,0.3278578936723898,0.5173710524510258,-1.0,12.049666666666669,0.04,179.36699218359843,-6.230913637173318,96.34717663349568,1525.0,1334.0,1000.0,1528.0,1475.0,1021.47,138.0,292.98999999999995,1637229054.2518036,1637229055.4564178,d0a0299e-602f-4e95-9b47-a9018bff0d4f
0.0114816130135145,0.1675949861517302,0.0263149861600178,0.4056822499907748,-0.0374424953426023,-0.2749408403504838,-0.313428175477291,-0.3326581469432232,-12.9619648055091,17.120157605543515,36.100999740342615,-1.4189166532151285,0.3523728538314486,0.5200450518553793,-1.0,12.049666666666669,0.04,179.3359922316855,-6.19226814225817,96.63578172341512,1525.0,1334.0,1000.0,1528.0,1475.0,1021.47,138.0,292.98999999999995,1637229055.564107,1637229056.570823,d0a0299e-602f-4e95-9b47-a9018bff0d4f
-0.007201041077772,0.1642448080376943,0.0642621236184149,0.8350649389365163,0.0364526310327983,-0.6847534810311633,-0.4004654377781921,-0.4333897803122922,-13.202616882256606,19.0211221334256,33.375537908336696,-3.2944668776823143,0.3152383104896436,0.4901605962346799,-1.0,12.049,0.04,179.31908979021944,-6.284591524678016,96.91535730325182,1525.0,1234.0,1000.0,1528.0,1475.0,1021.47,138.0,292.98999999999995,1637229057.188825,1637229058.3181016,37befeee-1264-4b00-a202-17b544919980
-0.0038585328545656,0.1680469725564372,0.0640079154866981,0.8151819205554919,0.0338754865444906,-0.6737162420260182,-0.3967169628870713,-0.4220419051670749,-13.168365935649884,18.90359843761104,32.8863699837483,-3.225665981609215,0.3360217188984704,0.4883482286386895,-1.0,12.043,0.04,179.29312596445448,-6.266239660151839,97.06819189284974,1525.0,1234.0,1000.0,1528.0,1475.0,1021.47,138.0,292.98999999999995,1637229058.4256966,1637229059.5505342,37befeee-1264-4b00-a202-17b544919980
-0.0111982448136177,0.1642053619483812,0.0571355302714453,0.8010098187505891,0.0266568522637368,-0.6596000156598651,-0.4002287611912634,-0.4236334454606761,-13.2852840327571,18.914728944687173,32.46357479618857,-3.162370809663597,0.327497489328939,0.5112763948148867,-1.0,12.044555555555556,0.04,179.2845411755777,-6.237341129773515,97.21586058270542,1525.0,1234.0,1000.0,1528.0,1475.0,1021.47,138.0,292.98999999999995,1637229059.6585643,1637229060.774827,37befeee-1264-4b00-a202-17b544919980
-0.021572566430659,0.1733174081422878,0.0798301798761432,1.086270762587188,0.0666551863208553,-0.944571843468664,-0.4714158183731953,-0.4966218755446849,-13.579604182922449,20.75645251219793,30.357786968104747,-4.433364134722043,0.3487680989911606,0.5268891360519938,-1.0,12.040888888888889,0.0377777777777777,179.3020036925557,-6.304079003017447,97.39398736279988,1525.0,1133.0,1000.0,1528.0,1475.0,1021.47,138.0,292.98999999999995,1637229061.7819817,1637229062.8276663,a6bb3cd0-30a0-4067-9bb0-6472e2b2c5ac
-0.0254382832148512,0.1616545149485132,0.0783180798210253,1.0802618087803804,0.0668261193717506,-0.928635614773192,-0.4673134241942528,-0.4951360724641152,-13.588622207198886,20.741975191282737,30.222400304652165,-4.384195958675088,0.3069326406988151,0.5212213286180473,-1.0,12.035333333333334,0.03,179.29400933558713,-6.288392667246736,97.43970637237425,1525.0,1133.0,1000.0,1528.0,1475.0,1021.47,138.0,292.98999999999995,1637229062.9359772,1637229064.0580752,a6bb3cd0-30a0-4067-9bb0-6472e2b2c5ac
-0.0243622815384826,0.1645543502455845,0.0805259650029963,1.0875927543440744,0.0702398495772734,-0.9344577509316204,-0.4667885719440979,-0.4908808246312069,-13.641354759127957,20.676612800490823,30.769570786256946,-4.414078572435947,0.3125687193476468,0.5139916796587586,-1.0,12.033444444444443,0.03,179.2950202035843,-6.280973042237725,97.4650759716814,1525.0,1133.0,1000.0,1528.0,1475.0,1021.47,138.0,292.98999999999995,1637229064.1658535,1637229065.2858078,a6bb3cd0-30a0-4067-9bb0-6472e2b2c5ac
-0.0340868384129789,0.1683346002774768,0.0903874870877015,1.255361896190181,0.0864565748090211,-1.0944336593917363,-0.5150552566940035,-0.5419416089434893,-13.817381942252226,22.24357778432877,30.3505324858862,-5.1412886459792935,0.3117025286836494,0.5477542462996915,-1.0,12.036888888888887,0.03,179.30641751257932,-6.306872123501161,97.5707511407,1525.0,1088.5555555555557,1000.0,1528.0,1475.0,1021.47,138.0,292.98999999999995,1637229067.3139756,1637229068.2604468,a6be4f99-29b6-4c8e-b9bd-6089cd36f3cc
-0.0251429854166183,0.1773332389671679,0.0916749634636568,1.2467878513664965,0.0835529043121138,-1.096899044012842,-0.5154935471128026,-0.5482831175532284,-13.702519851508749,22.330466130350533,30.1328368664617,-5.12682453215499,0.3477081011799602,0.5513294935730666,-1.0,12.028555555555554,0.03,179.33412683113218,-6.345732295056471,97.52950438721224,1525.0,1033.0,1000.0,1528.0,1475.0,1021.47,138.0,292.98999999999995,1637229068.369627,1637229069.4741218,a6be4f99-29b6-4c8e-b9bd-6089cd36f3cc
-0.025977379772881,0.1718579028995745,0.0893761331687028,1.2314718112345182,0.0830121642415093,-1.0764796506881709,-0.5100335492115051,-0.5349897814586106,-13.774043934825134,22.091747098639257,30.28334804305628,-5.048099169580163,0.3280804653313518,0.5468891164577286,-1.0,12.029,0.03,179.33598767822605,-6.360366497103785,97.52161172417132,1525.0,1033.0,1000.0,1528.0,1475.0,1021.47,138.0,292.98999999999995,1637229069.5825894,1637229070.8147647,a6be4f99-29b6-4c8e-b9bd-6089cd36f3cc
0.0174264673906723,0.1534102826693488,-0.0049789113522985,-0.0136833484640974,-0.1053429136284032,0.1458497825373185,-0.2245358549865048,-0.2445087272396092,-13.108351401840642,16.016147434926946,39.28087971802903,0.4641984662517753,0.3216547756044256,0.5280634670548254,-1.0,12.034555555555556,0.0322222222222222,179.35745572169728,-5.997350338158461,97.57654390002608,1525.0,1435.0,1000.0,1528.0,1475.0,1021.47,138.0,292.98999999999995,1637229071.827563,1637229072.777293,c2e04861-375d-40ae-9d4c-8a4a9dec2a04
0.0183846786390661,0.1534327450196739,-0.0060636788088909,-0.012802385790115,-0.1065142433790673,0.1461187829444806,-0.2253455956115072,-0.2527524127569793,-13.057677864184578,16.012616265896536,39.42995914130296,0.4627875592958393,0.3198817873454814,0.5325480082596914,-1.0,12.052,0.04,179.351088467571,-5.997924975254258,97.6690481875952,1525.0,1435.0,1000.0,1528.0,1475.0,1021.47,138.0,292.98999999999995,1637229072.8867817,1637229073.9888144,c2e04861-375d-40ae-9d4c-8a4a9dec2a04
0.0235406112023125,0.1444560207695966,-0.0053207774661246,-0.0093048325154182,-0.1039360030502833,0.1518455878546823,-0.2215511006206761,-0.2463363959807013,-12.983409731667306,16.000112083829926,39.46874865412543,0.4677644990545455,0.2849604317982786,0.5216774039968903,-1.0,12.051,0.04,179.34042730118654,-5.991091465853398,97.73013056934263,1525.0,1435.0,1000.0,1528.0,1475.0,1021.47,138.0,292.98999999999995,1637229074.097947,1637229075.2190695,c2e04861-375d-40ae-9d4c-8a4a9dec2a04
0.0724537613227351,0.1757367681550138,0.1512407478417662,-0.0279365355598076,0.0349668283421406,0.1280595969652659,-0.062412418291261,-0.0893935443562636,-11.869000134100732,15.931987200131177,39.21600065056701,0.464207545388938,0.4088528069776256,-0.1034310185955254,-1.0,12.050555555555556,0.04,179.36200310986473,-5.978135498203399,97.7880171814684,1525.0,1435.0,1000.0,1439.0,1475.0,1021.47,138.0,292.98999999999995,1637229076.2208607,1637229077.2920392,2fb1d1a1-9136-4253-a164-8add7c0c247b
0.0654718036536544,0.1739222481481058,0.1462047973224192,-0.0241891570334814,0.0318768847068231,0.1252589247078975,-0.0692497406280706,-0.0941796700194714,-12.07503833318282,15.937631149819849,39.011110720319984,0.4491111757207079,0.4045409365409569,-0.0832450413739774,-1.0,12.051222222222224,0.04,179.36377592340926,-5.983323880651671,97.8238992008181,1525.0,1435.0,1000.0,1439.0,1475.0,1021.47,138.0,292.98999999999995,1637229077.4217608,1637229078.4955795,2fb1d1a1-9136-4253-a164-8add7c0c247b
0.0737291848577853,0.175237117721674,0.1429833668312921,-0.0296458661373023,0.027695599265749,0.1303869161239359,-0.0702753389671516,-0.0965332867139383,-11.953787877879636,15.88312213086097,39.19248168587849,0.4725116493379913,0.4074735214016241,-0.0712243545278653,-1.0,12.047111111111112,0.04,179.36728512282284,-5.977630775682858,97.85222930767549,1525.0,1435.0,1000.0,1439.0,1475.0,1021.47,138.0,292.98999999999995,1637229078.6036785,1637229079.7239406,2fb1d1a1-9136-4253-a164-8add7c0c247b
0.1275325533523879,0.2018774710094761,0.3376514486080856,-0.0417843045670329,0.2020144365947019,0.1043168870332698,0.1271216566485171,0.1023445825117696,-10.6083263587784,16.05588541212595,39.10845746751113,0.4528124728046814,0.5124512519588454,-0.8511896443532168,-1.0,12.048111111111112,0.04,179.3714636807751,-5.975904160778922,97.83808474481432,1525.0,1435.0,1000.0,1351.0,1475.0,1021.47,138.0,292.98999999999995,1637229080.839054,1637229081.97919,b993dbc9-4880-4ea4-ae6a-83d8f9fe1227
0.1321072038472428,0.2088901087166525,0.3393635183096178,-0.0447564578786668,0.2026170851459866,0.0997696296429191,0.1272997119033666,0.1000709538119908,-10.636149121928122,16.001177542929835,39.05786451315859,0.4489991424646493,0.5398717777332706,-0.8538436168084499,-1.0,12.048444444444446,0.04,179.38021239419197,-5.974757969658829,97.84913674980127,1525.0,1435.0,1000.0,1351.0,1475.0,1021.47,138.0,292.98999999999995,1637229082.0873196,1637229083.204974,b993dbc9-4880-4ea4-ae6a-83d8f9fe1227
0.1277243051783006,0.203822382251035,0.3313784251882773,-0.0415788562332551,0.1966590823816832,0.1025089412996659,0.1190680803209975,0.0906888112927203,-10.792848186787005,16.04183418984253,39.09524780536496,0.4477858450133129,0.5207457190291986,-0.8237828290679975,-1.0,12.04811111111111,0.04,179.35791106764196,-5.980480150363484,97.87100018533452,1525.0,1435.0,1000.0,1351.0,1475.0,1021.47,138.0,292.98999999999995,1637229083.3132885,1637229084.3318207,b993dbc9-4880-4ea4-ae6a-83d8f9fe1227
0.190167967447589,0.2278693237180126,0.5263067773862431,-0.0426271697524593,0.372416472508244,0.0695539681069077,0.3142334957323178,0.2832202746915409,-9.466335642583465,16.300795746799025,39.114400172200526,0.3881899621139947,0.61386877306583,-1.603004633537101,-1.0,12.044777777777778,0.04,179.3620031098647,-5.9881467056837385,97.84481020441704,1525.0,1435.0,1000.0,1262.0,1475.0,1021.47,138.0,292.98999999999995,1637229085.1883886,1637229086.285568,54c085d4-939c-4810-8b81-f516fd00f5bc
0.1909476176940224,0.2305306702834846,0.5273487693285982,-0.0436470366007178,0.3713038906126726,0.0684456004420944,0.3141070659868237,0.2817557964998517,-9.373091516230131,16.41457222390846,39.19563911472374,0.3888658906512718,0.622664016815036,-1.602283424303347,-1.0,12.049,0.04,179.36991095110378,-5.983695509347137,97.83408604851022,1525.0,1435.0,1000.0,1262.0,1475.0,1021.47,138.0,292.98999999999995,1637229086.4210365,1637229087.5058892,54c085d4-939c-4810-8b81-f516fd00f5bc
0.1870440986470279,0.2291473179316852,0.5263489206434517,-0.0428389396312024,0.3711806215923267,0.0688291040860472,0.3147781973086245,0.2887136478968607,-9.290753457246844,16.310901953192957,39.16281606687826,0.3872039919259896,0.617019108440779,-1.6018146367611583,-1.0,12.047888888888888,0.04,179.36691629260767,-5.985496687149512,97.84511908074953,1525.0,1435.0,1000.0,1262.0,1475.0,1021.47,138.0,292.98999999999995,1637229087.6138954,1637229088.735572,54c085d4-939c-4810-8b81-f516fd00f5bc
0.246542494325296,0.2641223002611539,0.6834341881390658,-0.0428866036731245,0.5082541248240213,0.0278665323091821,0.4632329928964924,0.4387764198950492,-8.343365389537093,16.783980392759837,39.3705733490639,0.3067310425811964,0.7496220892794239,-2.209013258803587,-1.0,12.044666666666668,0.0322222222222222,179.3749577019905,-5.984438007828159,97.7671494357342,1525.0,1435.0,1000.0,1173.0,1475.0,1021.47,138.0,292.98999999999995,1637229090.8749597,1637229092.105964,4248ad93-2fa5-4388-a4d7-8d0aec7bc9c8
0.2352011965319095,0.2460077807122348,0.6740388977244481,-0.0233624327291008,0.506420429724482,0.0266984897824186,0.455003553348455,0.435979035039742,-8.517435691405241,16.71673826059001,39.17116530361785,0.2590315605554317,0.681680407682509,-2.1843879668789614,-1.0,12.040555555555557,0.03,179.37363871657078,-5.990241581620426,97.74632570677464,1525.0,1435.0,1000.0,1173.0,1475.0,1021.47,138.0,292.98999999999995,1637229092.2142026,1637229093.3324554,4248ad93-2fa5-4388-a4d7-8d0aec7bc9c8
0.2300375941939882,0.2462680153137368,0.6764220986873545,-0.0249101439199186,0.5079133544763779,0.0299308776292458,0.4587427135189967,0.4401975747282816,-8.404582325158094,16.720102621266346,39.48705817457534,0.2700345578088945,0.6793996423955443,-2.194452719722352,-1.0,12.041111111111112,0.03,179.35770160850743,-5.99289297567886,97.74219951360604,1525.0,1435.0,1000.0,1173.0,1475.0,1021.47,138.0,292.98999999999995,1637229093.4407012,1637229094.4699242,4248ad93-2fa5-4388-a4d7-8d0aec7bc9c8
-0.0449903951351096,0.1331349935835447,-0.2110847373056756,0.0248554808576965,-0.2939609799448526,0.1381972415214864,-0.4487474607277728,-0.4722836326757179,-14.46604336933043,16.422744238444363,38.75968237945664,0.3517342037139973,0.2420348136132169,1.3811757290844495,-1.0,12.042,0.0311111111111111,179.3844319332792,-5.981019166125484,97.89150972559224,1525.0,1435.0,1000.0,1617.0,1475.0,1021.47,138.0,292.98999999999995,1637229095.2675772,1637229096.309552,824ca067-e616-44c0-9426-960253e200b3
-0.0597563815419817,0.1074161442470735,-0.2236022974660527,0.0389640320075789,-0.2983394964275283,0.1517403982745214,-0.4569785464580759,-0.4761362015956132,-14.733615990938272,16.446771649438944,38.87063658756856,0.3497610376547143,0.1439537168609332,1.4128927830071931,-1.0,12.05,0.04,179.38668134224588,-5.983047922036454,97.88668988876792,1525.0,1435.0,1000.0,1617.0,1475.0,1021.47,138.0,292.98999999999995,1637229096.4176652,1637229097.5438366,824ca067-e616-44c0-9426-960253e200b3
-0.0519066096040251,0.111926146987493,-0.220656989185664,0.0355322222811487,-0.2963934891032056,0.1499390269425715,-0.4532969106655069,-0.4757154432646853,-14.62434588475422,16.342200523243136,38.81973545090601,0.3529547696052826,0.1611541903498633,1.4015487683198733,-1.0,12.049333333333331,0.04,179.38840862119596,-5.982844059862478,97.88910246336476,1525.0,1435.0,1000.0,1617.0,1475.0,1021.47,138.0,292.98999999999995,1637229097.6517663,1637229098.7707207,824ca067-e616-44c0-9426-960253e200b3
-0.1226597476655175,0.0830779078328465,-0.4273545272107754,0.0805007633657396,-0.4843409899675003,0.1479141277720496,-0.6782580225450198,-0.7101173265509197,-16.081597924687436,16.943268855044522,38.73886769152176,0.2399125022830366,0.0453566366378603,2.255112056732916,-1.0,12.051333333333332,0.04,179.38260447822125,-5.983520770340871,97.92854604691168,1525.0,1435.0,1000.0,1686.2222222222222,1475.0,1021.47,138.0,292.98999999999995,1637229100.705073,1637229101.7320907,88ee073b-5281-48e7-bd2f-d4d15568f532
-0.1196618447350016,0.0874038288502137,-0.4219504118807508,0.0782260389388119,-0.479936175615762,0.1433646790064342,-0.6736954231923726,-0.6932606912052477,-16.060868388575702,16.900111637718073,38.43587713429659,0.2347656351807819,0.0647420771367697,2.2353583265858,-1.0,12.043666666666669,0.04,179.38898539272589,-5.984878981916449,97.87151093170245,1525.0,1435.0,1000.0,1706.0,1475.0,1021.47,138.0,292.98999999999995,1637229101.8398197,1637229103.072335,88ee073b-5281-48e7-bd2f-d4d15568f532
-0.1199779613562863,0.0871003130992232,-0.4195491307354804,0.0768141976902139,-0.4781704148439298,0.1451874169718346,-0.6696757557202627,-0.7010956734383651,-15.92184585121402,16.870098399000366,38.492206545623695,0.2420459047409329,0.0624460423314757,2.2240968189242616,-1.0,12.048,0.04,179.3920088897985,-5.988375611884672,97.8444542756703,1525.0,1435.0,1000.0,1706.0,1475.0,1021.47,138.0,292.98999999999995,1637229103.1805966,1637229104.3000004,88ee073b-5281-48e7-bd2f-d4d15568f532
-0.1670119469788257,0.0769237701717892,-0.5934817740829804,0.1382843516214585,-0.6387078256177939,0.1071794677275879,-0.8743024323500999,-0.8936830735146194,-17.2810669664691,17.741877303058622,38.2577329607646,0.0143722304164343,0.0173962764789309,2.9688572806736544,-1.0,12.045,0.031,179.40389068687864,-6.001087106194254,97.7774508029314,1525.0,1435.0,1000.0,1795.0,1475.0,1021.47,138.0,292.98999999999995,1637229106.2349498,1637229107.4748447,86faa565-3a30-4e69-b584-224f87262dad
-0.179694961319908,0.0653227851135658,-0.6060689155191666,0.1498990329751838,-0.6455424107980466,0.112028049361847,-0.8845337670591101,-0.903530904417288,-17.40995179801042,17.62248891263724,38.76547874672863,-0.0023343701795432,-0.0319323920376786,3.009264248535652,-1.0,12.044,0.0399999999999999,179.4048496454381,-6.008376967095408,97.72743947480964,1525.0,1435.0,1000.0,1795.0,1475.0,1021.47,138.0,292.98999999999995,1637229107.5826845,1637229108.6307497,86faa565-3a30-4e69-b584-224f87262dad
-0.1806060564690092,0.064196380138604,-0.6121463544731137,0.1528974835032694,-0.6525654606424325,0.1119787417725722,-0.8921085158837196,-0.9249145318492618,-17.364411134848936,17.786704702361885,38.939197018697286,-0.0083723345508334,-0.0387707474915698,3.037998403300782,-1.0,12.041888888888888,0.04,179.3908978456935,-6.02070000388232,97.69923686481675,1525.0,1435.0,1000.0,1795.0,1475.0,1021.47,138.0,292.98999999999995,1637229108.739333,1637229109.7178442,86faa565-3a30-4e69-b584-224f87262dad
-0.21370132813523626,0.05301998834894357,-0.7325227141333697,0.20718844832641056,-0.7618706166417081,0.0779367675899526,-1.035758109407275,-1.0569801194780477,-18.31244471848476,18.439123968664425,38.630914635308415,-0.209531642037865,-0.08555129877677806,3.553246750377321,-1.0,12.040333333333333,0.030000000000000002,179.409129897318,-6.025933826061319,97.658434073625,1525.0,1435.0,1000.0,1883.0,1475.0,1021.4699999999999,138.0,292.98999999999995,1637229111.7649612,1637229112.8980515,c59438bf-39b5-444d-9729-1ba196ad2215
-0.21616890040379108,0.05283152369529095,-0.7303789275224121,0.2090133777055564,-0.7602100448155896,0.07541714869518135,-1.0342235456952298,-1.0530563263804043,-18.25639258225439,18.481104168248166,38.4988088365417,-0.21891796082320078,-0.08557209996390484,3.545706725115807,-1.0,12.034444444444444,0.030000000000000002,179.40249095344473,-6.024249140929787,97.52929037461823,1525.0,1435.0,1000.0,1883.0,1475.0,1021.4699999999999,138.0,292.98999999999995,1637229113.0061963,1637229114.1305645,c59438bf-39b5-444d-9729-1ba196ad2215
-0.22351025663037652,0.051434474707215204,-0.7281463875001215,0.20660278349727357,-0.7591554092904439,0.07914261261588072,-1.0306761345302222,-1.0581103599576693,-18.14051796091962,18.535386436956507,38.53921685275003,-0.20457285711606418,-0.09155090291268135,3.5361018859770694,-1.0,12.036999999999999,0.030000000000000002,179.3979010663225,-6.03817921687829,97.45226253679844,1525.0,1435.0,1000.0,1883.0,1475.0,1021.4699999999999,138.0,292.98999999999995,1637229114.2382047,1637229115.359937,c59438bf-39b5-444d-9729-1ba196ad2215
