raw_voltage_G-,raw_voltage_G0,raw_voltage_G1,raw_voltage_G2,raw_voltage_G3,raw_voltage_G4,raw_voltage_G5,raw_voltage_G6,load_x,load_y,load_z,load_l,load_m,load_n,rpm,voltage,current,roll,pitch,yaw,aileron1_pwm,elevator_pwm,throttle_pwm,rudder_pwm,aileron2_pwm,pbaro,pdiff,Tt,sample_start_time,sample_end_time,uid
-0.0806365121146813,0.0382145563397878,-0.002204536402315,0.2731949001374793,-0.0956128778685472,-0.3923526906238002,-0.3871589545614787,-0.4196362413188823,-14.299304168106657,21.605896074207934,-16.363512702804808,-1.3646176649666977,0.3561547068116845,0.6495378440251602,-1.0,12.049444444444443,0.04,178.1665955438876,10.04189599459804,65.01084852864672,1525.0,1435.0,1000.0,1528.0,1475.0,1021.47,138.0,293.25,1637229473.745433,1637229474.7909567,107e32d5-4f17-40a5-951d-d441a9ae4741
-0.0693828712217562,0.0522288751055804,0.0126184274107621,0.2567869717287166,-0.0833533615741685,-0.3874033012602371,-0.3696114682579758,-0.393470877994396,-14.28653189595678,21.32729464486442,-15.72820869841612,-1.3174845572196638,0.4059509796015187,0.5902219099003404,-1.0,12.05011111111111,0.04,178.32239064103578,10.077699182181078,63.62771397224172,1525.0,1435.0,1000.0,1528.0,1475.0,1021.47,138.0,293.25,1637229474.8991785,1637229476.110925,107e32d5-4f17-40a5-951d-d441a9ae4741
-0.0797161033295534,0.0438684957361153,-0.0034799599667225,0.2624787133104129,-0.099688973938338,-0.384082159092798,-0.3851077575704638,-0.4097747167922134,-14.063047804312482,21.52469805297421,-15.800691394285169,-1.322252720980028,0.3719371414416051,0.6554902309647868,-1.0,12.053,0.04,178.52899172087012,10.127520763853136,62.55117294730025,1525.0,1435.0,1000.0,1528.0,1475.0,1021.47,138.0,293.25,1637229476.219699,1637229477.3408177,107e32d5-4f17-40a5-951d-d441a9ae4741
0.0522836613554057,0.2723462614334334,0.0156590634511854,0.162787494231253,-0.1332636240175778,-0.4834983774838354,-0.4170837496404482,-0.4370944263325649,-14.14971496446435,21.26230666719523,-11.20746612452541,-1.3208731401990157,1.202254430197525,0.7539556743674612,-1.0,12.0458,0.0399999999999999,178.91103243259755,10.26903710389568,60.64536438772127,1627.0,1435.0,1000.0,1528.0,1556.0,1021.47,138.0,293.25,1637229479.2751377,1637229480.4980614,8a3d0e50-8185-4c0a-9fb8-3185a8e53a4c
0.0473665967430671,0.2711957505723356,0.01311150352706,0.1632668737641831,-0.1351537492246538,-0.4854021996002682,-0.4212201112142703,-0.4380531857320291,-14.301076852343355,21.311575489393164,-11.60089223629622,-1.3261717940923197,1.2022778548705255,0.76507602199058,-1.0,12.047999999999998,0.04,179.05145565778164,10.313437943878451,60.12813601848156,1627.0,1435.0,1000.0,1528.0,1556.0,1021.47,138.0,293.25,1637229480.6069682,1637229481.753275,8a3d0e50-8185-4c0a-9fb8-3185a8e53a4c
0.0519417952266314,0.2752197992496413,0.0097344799976694,0.1601292662164218,-0.1395689721605137,-0.4856690086472972,-0.4260659546649733,-0.449891397772431,-14.373798207808424,21.35339812749683,-11.520861784772274,-1.3196084304026303,1.217348810662365,0.7830966733878441,-1.0,12.049,0.04,179.21761442863044,10.348988129870984,59.65222740986277,1627.0,1435.0,1000.0,1528.0,1556.0,1021.47,138.0,293.25,1637229481.8629808,1637229482.9876068,8a3d0e50-8185-4c0a-9fb8-3185a8e53a4c
0.1941937019411953,0.5321288678309912,0.0323277753951108,0.0454216854400631,-0.1771200080698722,-0.5991247580399017,-0.4626659068172357,-0.4885250159278403,-14.568041718432148,21.166943589808533,-6.933824580317405,-1.3152840607959393,2.1571861207485106,0.8920464803948747,-1.0,12.048222222222222,0.0388888888888888,179.41542126045346,10.428978941698205,59.000349602017295,1729.0,1435.0,1000.0,1528.0,1636.0,1021.47,138.0,293.25,1637229484.6790762,1637229485.645147,b2386fb5-86c3-40ae-b696-3f60c099fc54
0.1986286474353691,0.5377860938652838,0.0426851130749687,0.041159864245343,-0.1707313847239701,-0.6018246246058353,-0.451548133666645,-0.4742296402871185,-14.211121126360837,21.19093168986188,-7.006998786941804,-1.3108946503729613,2.17770823109116,0.8541811221234393,-1.0,12.045666666666667,0.0366666666666666,179.51669626982678,10.454876932028649,58.83960944791003,1729.0,1435.0,1000.0,1528.0,1636.0,1021.47,138.0,293.25,1637229485.7531805,1637229486.8704672,b2386fb5-86c3-40ae-b696-3f60c099fc54
0.1862360016969211,0.5331835027464739,0.0352725355199739,0.0410935729524605,-0.1741067649218013,-0.5978235845332045,-0.4580501654899371,-0.4833751086294169,-14.541449372644202,21.050806446339475,-7.138035279616456,-1.303239413030648,2.163480938849103,0.8772243718934054,-1.0,12.045,0.0322222222222222,179.62124825218189,10.48022452294847,58.66902699120877,1729.0,1435.0,1000.0,1528.0,1636.0,1021.47,138.0,293.25,1637229486.9790027,1637229488.1048496,b2386fb5-86c3-40ae-b696-3f60c099fc54
0.324311001417376,0.7785025400403724,0.0566528635501439,-0.06601351762359,-0.2147581546841632,-0.7048348350653963,-0.4965648976301535,-0.530299530731929,-14.56519033024428,21.33240860157436,-2.2730495779198114,-1.2984056978309515,3.055173618500714,0.9937600257428216,-1.0,12.0422,0.038,179.6738224949532,10.529028425406946,58.530595752750585,1830.0,1435.0,1000.0,1528.0,1717.0,1021.47,138.0,293.25,1637229488.6783524,1637229489.7482758,d497ced5-23b4-4929-9c31-34dd3952d8bc
0.3325700256992636,0.7895008755592202,0.0683908142213641,-0.0702868440831358,-0.2055129766927287,-0.7138745673239749,-0.4869088213804431,-0.5155620297213933,-14.516271782932272,21.252828745642177,-2.50235583679766,-1.3090346069936734,3.099379077575937,0.9524562306367894,-1.0,12.0338,0.03,179.76556286380915,10.60648072153814,58.44799144492845,1830.0,1435.0,1000.0,1528.0,1717.0,1021.47,138.0,293.25,1637229489.8648024,1637229490.8639245,d497ced5-23b4-4929-9c31-34dd3952d8bc
0.3378158072923396,0.7910074968625835,0.0688291040907783,-0.0718345552800518,-0.2048007555773439,-0.7162029832373312,-0.4858952757936151,-0.506535995267431,-14.483801987167544,21.14464660012184,-2.8191946545083035,-1.3115051012526509,3.10782465161459,0.9492346139448689,-1.0,12.03677777777778,0.03,179.86946339789944,10.689801098803756,58.3690632966996,1830.0,1435.0,1000.0,1528.0,1717.0,1021.47,138.0,293.25,1637229490.975936,1637229492.092187,d497ced5-23b4-4929-9c31-34dd3952d8bc
0.3450338931369083,0.7713118474757893,0.1418865464181921,-0.0925026632265009,-0.1387696409882237,-0.6881387237957851,-0.4049622928394438,-0.4276027090703608,-14.311262274623235,21.737674952307984,-3.6932486807571694,-1.1943022229698534,3.047665712787397,0.6405612895456692,-1.0,12.033,0.03,179.97944613955465,10.785132515506824,58.29824637756509,1932.0,1435.0,1000.0,1528.0,1798.0,1021.47,138.0,293.25,1637229493.679015,1637229494.6102784,d681042e-6952-4962-bf33-13e2c718b8bd
0.3370186676257136,0.7614716928471037,0.1421287015563742,-0.0897880051776402,-0.1357558500225017,-0.682820621912972,-0.4013464006461062,-0.4264209696670018,-14.301787290748996,21.664149991425383,-3.936676356167272,-1.1889847238712583,3.012529453803873,0.629504664624264,-1.0,12.020888888888887,0.03,99.99827550380344,10.828460674280446,58.19527596345779,1932.0,1435.0,1000.0,1528.0,1798.0,1021.47,138.0,293.25,1637229494.7181418,1637229495.7695744,d681042e-6952-4962-bf33-13e2c718b8bd
0.3262104400431868,0.7535167323756212,0.1294928048061424,-0.0845811212744366,-0.147970989695771,-0.6781659816394009,-0.4140480437913221,-0.4409371336036851,-14.253169920635024,21.86788782436433,-3.8017680329655614,-1.1895031827455549,2.97971505253034,0.6806744393107903,-1.0,12.02,0.03,-179.98364841344147,10.860493834600984,58.07534400777538,1932.0,1435.0,1000.0,1528.0,1798.0,1021.47,138.0,293.25,1637229495.8768046,1637229496.9239051,d681042e-6952-4962-bf33-13e2c718b8bd
-0.2114572837625085,-0.2088275442235367,0.0027295119551977,0.3273516372130829,-0.0406885798378748,-0.2298928537244489,-0.3105108080792011,-0.3427799055336248,-14.084294262474415,21.80734062546915,-20.276780483263224,-1.1206475338976123,-0.5435936090686534,0.4240037820707742,-1.0,12.032333333333334,0.0333333333333333,-179.73533973207776,10.8875130668883,58.015879527087606,1423.0,1435.0,1000.0,1528.0,1394.0,1021.47,138.0,293.25,1637229498.7317612,1637229499.8695724,190c218a-23c1-4d0b-8140-453c3c1a6d81
-0.2208394273845896,-0.217278321735172,-0.0034750292099723,0.3282693065719582,-0.0458247894929548,-0.2202504753702266,-0.3139623413759884,-0.3369040811607721,-14.039428264069244,21.87531414891928,-20.00142204451942,-1.1008417214067925,-0.5785523749481314,0.4437485542059398,-1.0,12.052555555555555,0.04,-179.71324179338308,10.906245714460706,58.085919322476535,1423.0,1435.0,1000.0,1528.0,1394.0,1021.47,138.0,293.25,1637229499.977219,1637229501.0981495,190c218a-23c1-4d0b-8140-453c3c1a6d81
-0.2018696917546747,-0.2032667408576192,0.009796936299458,0.3178188331024701,-0.0389491168424276,-0.2211133586071874,-0.3014025952304518,-0.3266453569154872,-13.752388919670317,21.94942290136063,-19.44373819679681,-1.0778215100130313,-0.5308454538324624,0.4009707410080154,-1.0,12.047,0.04,-179.70048755347293,10.92804568615288,58.075944210648686,1423.0,1435.0,1000.0,1528.0,1394.0,1021.47,138.0,293.25,1637229501.2063515,1637229502.2342756,190c218a-23c1-4d0b-8140-453c3c1a6d81
-0.297375806436971,-0.3757064379492187,0.0166589122389992,0.4029155453485706,0.0071671970022202,-0.1537673738267942,-0.261833232042525,-0.2799400851986247,-13.97349764123626,22.4508071184369,-22.573724768628523,-1.11538824536106,-1.1583269260425837,0.2475726244903962,-1.0,12.05,0.04,-179.69280890302602,10.916095511290033,58.30825943488834,1321.0,1435.0,1000.0,1528.0,1314.0,1021.47,138.0,293.25,1637229504.3752568,1637229505.4022896,c9a96587-665f-4d81-a604-4002b507fd3b
-0.3067020685256862,-0.392194906197009,0.0024763995415008,0.4094811270876537,-0.0037034878049114,-0.1438160016132794,-0.273356970127512,-0.30110072333601,-14.002288010186328,22.57770816865259,-22.696541984019728,-1.1077355492601983,-1.2205817170029791,0.2959355858703265,-1.0,12.045555555555556,0.0388888888888888,-179.69003888186262,10.914174900040924,58.34039547493325,1321.0,1435.0,1000.0,1528.0,1314.0,1021.47,138.0,293.25,1637229505.5105476,1637229506.6307285,c9a96587-665f-4d81-a604-4002b507fd3b
-0.2997179183348891,-0.380555020614248,0.0160836567600655,0.4079147888079354,0.0073315556979121,-0.1560410028127476,-0.2616140871115134,-0.2827615765817257,-13.833631411129328,22.454296692323982,-22.919824273691944,-1.131764737935138,-1.175086449384554,0.2468862744832057,-1.0,12.041999999999998,0.04,-179.69031512506905,10.908556025947464,58.4134716688632,1321.0,1435.0,1000.0,1528.0,1314.0,1021.47,138.0,293.25,1637229506.7437525,1637229507.969363,c9a96587-665f-4d81-a604-4002b507fd3b
-0.3401260596225505,-0.4612387250566988,0.0349010848436539,0.4367252234980552,0.0403709425031584,-0.1160985479512265,-0.2289406687584298,-0.2569868413180776,-14.095673610019793,23.04813023245877,-24.51523391571348,-1.1025106370410682,-1.4640488361944235,0.1175279421661105,-1.0,12.04,0.0344444444444444,-179.72828035211563,10.90044176121349,58.43900974616989,1220.0,1435.0,1000.0,1528.0,1233.0,1021.47,138.0,293.25,1637229508.8793275,1637229510.0176003,0566cac7-61fd-4717-a4cf-cd253561c430
-0.3508882694195148,-0.4643368873549616,0.0303691675243926,0.4386909534333789,0.0358340944366697,-0.1149787172678345,-0.2335087454608746,-0.2600252863371046,-14.05289142422369,23.129039783777056,-24.56646791432662,-1.104104364668841,-1.476045495285365,0.1359555718380944,-1.0,12.03788888888889,0.03,-179.7375739628463,10.884752721826231,58.466774465146,1220.0,1435.0,1000.0,1528.0,1233.0,1021.47,138.0,293.25,1637229510.1267922,1637229511.2459056,0566cac7-61fd-4717-a4cf-cd253561c430
-0.3345345756503286,-0.4592965526035731,0.0335193759713005,0.435622924554552,0.0386692820396782,-0.1171838632595043,-0.2314131718394834,-0.2589021684316644,-14.160551855973074,23.069451280701585,-24.55801465725409,-1.1024299067272196,-1.4558776665456783,0.125360282157193,-1.0,12.035666666666666,0.03,-179.76641557498155,10.887235021270838,58.46345271647964,1220.0,1435.0,1000.0,1528.0,1233.0,1021.47,138.0,293.25,1637229511.3541825,1637229512.4804037,0566cac7-61fd-4717-a4cf-cd253561c430
-0.3758642223785298,-0.5424845403504421,0.0671416880594498,0.4738702871913434,0.0858259852856982,-0.0861721136382803,-0.1843928813671211,-0.2112030756916801,-14.151063702370836,23.71482247511559,-26.42614533063155,-1.1133596484691728,-1.753959806875091,-0.0642701089949084,-1.0,12.03677777777778,0.03,-179.82075656001814,10.868909908318908,58.56061822870234,1118.0,1435.0,1000.0,1528.0,1152.0,1021.47,138.0,293.25,1637229514.204251,1637229515.2298806,eaeafd87-8408-4248-8425-804d1f63cd1c
-0.3956267166522874,-0.5614055197036237,0.0552421179655708,0.4798134973689303,0.0785021615313398,-0.0759818735139077,-0.1928606425756557,-0.2167255287690708,-14.256409860302352,23.777161785153226,-26.91334024964261,-1.1041771989408171,-1.821346421263124,-0.0290418162835449,-1.0,12.028,0.03,-179.84631664571214,10.841970503867518,58.55285609816557,1118.0,1435.0,1000.0,1528.0,1152.0,1021.47,138.0,293.25,1637229515.3378298,1637229516.5709724,eaeafd87-8408-4248-8425-804d1f63cd1c
-0.3831984569964068,-0.5485022619940338,0.068308634846049,0.4754799065929534,0.0877851410193816,-0.084312120892703,-0.1826808113811353,-0.1982401038319139,-14.178560310048796,23.78432683032969,-26.778626429662456,-1.112362073120738,-1.7733342981138656,-0.072225779792369,-1.0,12.029,0.03,-179.8557923948207,10.858370072655934,58.56149552855573,1118.0,1435.0,1000.0,1528.0,1152.0,1021.47,138.0,293.25,1637229516.6792176,1637229517.800147,eaeafd87-8408-4248-8425-804d1f63cd1c
-0.0747245292877348,0.0463256583570291,0.0001545588964712,0.2309963532424572,-0.1007342953379703,-0.3619413941019733,-0.3760214588673918,-0.3999356553620166,-14.088350242049508,21.563723655856904,-16.38314626677143,-1.2011488777374617,0.3906015858217272,0.638188857884795,-1.0,12.036,0.0333333333333333,179.95456603713797,10.8443772917763,58.60389734292317,1525.0,1435.0,1000.0,1528.0,1475.0,1021.47,138.0,293.25,1637229519.7346258,1637229520.8124752,3318eac9-21a9-438a-8811-42785da40ece
-0.0694787471123689,0.0599263410361612,0.0072904660338195,0.2233399773493011,-0.094707809233381,-0.3683376881102946,-0.3698717029299455,-0.388772957682026,-14.15883284469814,21.31510212599585,-16.34575037202594,-1.1995736358796758,0.4431706604297185,0.6131816414242234,-1.0,12.05,0.04,179.96114123257897,10.846230549771096,58.675930794639854,1525.0,1435.0,1000.0,1528.0,1475.0,1021.47,138.0,293.25,1637229520.9211075,1637229521.9980934,3318eac9-21a9-438a-8811-42785da40ece
-0.0721632727251135,0.0531739376647542,0.0007435109227177,0.2307909048544025,-0.1000220742494563,-0.3673241426007516,-0.3769391284615233,-0.4113311941350617,-14.16192439841508,21.445158407532592,-16.220887849606353,-1.2135490190058886,0.4154300652021045,0.6387754480494342,-1.0,12.047888888888888,0.04,179.94992302632215,10.824191995776667,58.77002423955585,1525.0,1435.0,1000.0,1528.0,1475.0,1021.47,138.0,293.25,1637229522.1069362,1637229523.2272174,3318eac9-21a9-438a-8811-42785da40ece
-0.053618131618041,0.0533245997946271,-0.024855357653494,-0.148261356808558,-0.1643685109318451,-0.001023345229904,-0.2998411873243385,-0.3235773273878889,-14.079803512357245,20.668698967762733,-13.54153040834648,0.4586733623939769,0.436700277564712,0.6523904204226922,-1.0,12.048444444444446,0.04,179.9048043144849,10.9290243953427,58.91812474914904,1525.0,1535.0,1000.0,1528.0,1475.0,1021.47,138.0,293.25,1637229525.263787,1637229526.2882996,71508e68-0eda-4619-989c-89258d693e35
-0.056480712493123,0.0439287605854635,-0.026266103221852,-0.1429607882247584,-0.1640671866236114,0.0068521761008229,-0.2985811037686314,-0.3304530007942489,-14.019405611662457,20.72385548748734,-13.038708817313289,0.464819875259042,0.3958350795653724,0.6517472811602233,-1.0,12.05,0.04,179.8934343262465,10.934999008455428,58.88578532124885,1525.0,1535.0,1000.0,1528.0,1475.0,1021.47,138.0,293.25,1637229526.396053,1637229527.6308258,71508e68-0eda-4619-989c-89258d693e35
-0.0559465466719923,0.0485581974141529,-0.0182536162413051,-0.1453987758049607,-0.159999308393284,0.0027021188420794,-0.293472286673363,-0.3193724831811036,-13.925257679944602,20.951904105675315,-13.255580421379053,0.4629171964287152,0.4152660389439188,0.6282160672989302,-1.0,12.051666666666668,0.04,179.86318265950263,10.92793583394373,58.89941913774211,1525.0,1535.0,1000.0,1528.0,1475.0,1021.47,138.0,293.25,1637229527.7391803,1637229528.8556015,71508e68-0eda-4619-989c-89258d693e35
-0.0457015204621991,0.0381762059760599,-0.0479203630226569,-0.5449411557958952,-0.2302626607055186,0.4009021514096741,-0.2135254642961829,-0.2408911916829045,-13.914707792322837,20.385683717893887,-10.197911171880223,2.254257530384003,0.3964544464134227,0.6503219852509738,-1.0,12.049666666666669,0.04,179.84323547148657,11.044615386352625,58.860698795337306,1525.0,1636.0,1000.0,1528.0,1475.0,1021.47,138.0,293.25,1637229529.7695606,1637229530.9069417,98c6bbbc-e2f1-416e-9d5b-b136eefe0a1d
-0.0434963744566157,0.0416688284283216,-0.0439072712095564,-0.5523099063991956,-0.2282492663562191,0.4039290906319142,-0.208567309563419,-0.2305913787232693,-13.84777095876594,20.38325234843312,-10.2115048751607,2.2778967977070628,0.4103622406094094,0.6354366610604844,-1.0,12.04611111111111,0.04,179.8175827987838,11.038098247519573,58.7487026656968,1525.0,1636.0,1000.0,1528.0,1475.0,1021.47,138.0,293.25,1637229531.016012,1637229532.135865,98c6bbbc-e2f1-416e-9d5b-b136eefe0a1d
-0.0397835112471082,0.0374519319419411,-0.0473440118214228,-0.5516491843603499,-0.2307814864040186,0.4066541576867865,-0.2125705401452472,-0.2360409658268406,-13.996407996917227,20.476650750334045,-10.353883894775016,2.282880466608746,0.396562596930974,0.6484224968529054,-1.0,12.047333333333333,0.04,179.78984464165447,11.051294172996036,58.6281240239092,1525.0,1636.0,1000.0,1528.0,1475.0,1021.47,138.0,293.25,1637229532.2447803,1637229533.569491,98c6bbbc-e2f1-416e-9d5b-b136eefe0a1d
-0.0220064734029597,0.0402526042495543,-0.0622151878678769,-0.9260584684437484,-0.2908973333106991,0.7669284012730867,-0.1314299286696164,-0.1586345834158132,-13.767432513420347,20.318443417179505,-7.505800171569364,3.935820411280718,0.425356054868619,0.6363446179690989,-1.0,12.047,0.0377777777777777,179.76000885754007,11.168024382641278,58.50485884104806,1525.0,1737.0,1000.0,1528.0,1475.0,1021.47,138.0,293.25,1637229534.1875088,1637229535.3011866,366bf83f-2bdd-4b1c-8812-6f80df303f6a
-0.0251566819638536,0.03834056465669,-0.0610142735546946,-0.920966632889117,-0.289472891020609,0.7645457481661596,-0.1318528784142652,-0.1569860657424217,-13.807018777492049,20.424072455103296,-7.442398352445028,3.919730543177096,0.4173540060282338,0.6332013636245227,-1.0,12.038333333333334,0.03,179.74011631103735,11.18539298451819,58.35465918664995,1525.0,1737.0,1000.0,1528.0,1475.0,1021.47,138.0,293.25,1637229535.410155,1637229536.5298488,366bf83f-2bdd-4b1c-8812-6f80df303f6a
-0.0302901522516376,0.0347301518144838,-0.073707148839162,-0.9260847659307428,-0.2991941617942715,0.773463302692091,-0.141015328867357,-0.1654324597953117,-13.944877582287964,20.21739736817507,-7.428510116224966,3.949245457764442,0.4044873884421323,0.6763155160824581,-1.0,12.04,0.03,179.73186088906056,11.177812328313122,58.23806330405839,1525.0,1737.0,1000.0,1528.0,1475.0,1021.47,138.0,293.25,1637229536.6384914,1637229537.8674843,366bf83f-2bdd-4b1c-8812-6f80df303f6a
-0.020102651710898,0.0325743134765744,-0.057234023233341,-1.0368806797209216,-0.3060320327540138,0.8821443896501036,-0.1017752339172013,-0.1321268098799835,-13.573919038942142,21.10438733403849,-6.581299590999979,4.450416804518604,0.4009680245992215,0.6071626990627789,-1.0,12.037666666666668,0.03,179.68978388813363,11.214634352447357,58.04792146230395,1525.0,1837.0,1000.0,1528.0,1475.0,1021.47,138.0,293.25,1637229538.7837,1637229539.8061,da7fbabc-f22b-4a0a-8449-acd231310e07
-0.0291149875239922,0.0297528223870036,-0.0660546073190854,-0.9907369439903928,-0.3075523509814057,0.8393700408671182,-0.1222789833204138,-0.1469053975860294,-13.721812774416,21.08330707665451,-7.126111538804575,4.249467927063319,0.3900203105811488,0.6496498335947312,-1.0,12.026333333333334,0.03,179.67195709439986,11.211595202857913,57.88382389076466,1525.0,1837.0,1000.0,1528.0,1475.0,1021.47,138.0,293.25,1637229539.9139235,1637229540.9426277,da7fbabc-f22b-4a0a-8449-acd231310e07
-0.0169366394129356,0.0324721160766963,-0.0594170440521522,-1.0162884170837876,-0.3042609621320323,0.8618387164749847,-0.1097234526389446,-0.134238187018938,-13.747672743237764,21.050675368685862,-6.823807064991853,4.357745263006677,0.401289194757391,0.6187693922552181,-1.0,12.027666666666669,0.03,179.6949915279208,11.20666646246184,57.78694524648711,1525.0,1837.0,1000.0,1528.0,1475.0,1021.47,138.0,293.25,1637229541.05083,1637229542.0554602,da7fbabc-f22b-4a0a-8449-acd231310e07
-0.0994742118992215,0.0471063621983076,0.029876091406725,0.7125125270638084,-0.0229926256242349,-0.8264055427351374,-0.4790196017010464,-0.5061387949551374,-14.282325519808666,22.727915283376987,-19.562068978294658,-3.322451232023849,0.365696304264514,0.6376549785162092,-1.0,12.023,0.03,179.67916370288418,10.702118396334493,57.662506029998646,1525.0,1334.0,1000.0,1528.0,1475.0,1021.47,138.0,293.25,1637229542.6787431,1637229543.698244,0a8e977a-dc91-4874-80cb-08f509a08e99
-0.0822012070269328,0.0653271680062284,0.0442761053295442,0.6968064109199835,-0.0148667311407843,-0.82974421742085,-0.4658802158984903,-0.4919935333990987,-14.12258007934842,22.69326612910511,-19.44919261452812,-3.293938793773021,0.4347504004199057,0.5906028699825795,-1.0,12.049333333333331,0.0366666666666666,179.7261235301577,10.656590916648124,57.93722989879489,1525.0,1334.0,1000.0,1528.0,1475.0,1021.47,138.0,293.25,1637229543.8060246,1637229545.015278,0a8e977a-dc91-4874-80cb-08f509a08e99
-0.0844079966528184,0.0548312212503318,0.0360395428132893,0.6942139265629219,-0.0196917549278599,-0.8175575615694793,-0.4698976914559362,-0.5012902119636318,-14.26462904066468,22.605730524029383,-19.563410146610128,-3.261785862029212,0.397197464960566,0.6126048497914409,-1.0,12.045,0.0311111111111111,179.77149116444474,10.660671290631038,58.1317961853117,1525.0,1334.0,1000.0,1528.0,1475.0,1021.47,138.0,293.25,1637229545.1281817,1637229546.2683585,0a8e977a-dc91-4874-80cb-08f509a08e99
-0.1170847001046831,0.0479314428901047,0.0505348847525927,1.0322427726765715,0.0255786591593128,-1.13556993267026,-0.5541474372090437,-0.5710698149218484,-14.714383679969137,24.11415173112396,-21.765849953064823,-4.728768579883159,0.3533484454001392,0.6492288883347619,-1.0,12.042222222222222,0.03,179.82219848884293,10.568852583299863,58.4142708009961,1525.0,1234.0,1000.0,1528.0,1475.0,1021.47,138.0,293.25,1637229547.3836296,1637229548.4089682,b4715d0c-97d5-458d-917d-b84d7b336a2c
-0.1066512089966149,0.0644462053517631,0.0608987966716689,1.0297658872036082,0.0312183541478043,-1.1510415771931672,-0.5474750198525585,-0.5683759746003548,-14.454072928341494,24.072189486967066,-21.924359755620628,-4.757604536888824,0.4158125611121671,0.619872436452599,-1.0,12.033555555555555,0.03,179.83322089634353,10.544218747148308,58.59619744299885,1525.0,1234.0,1000.0,1528.0,1475.0,1021.47,138.0,293.25,1637229548.5169203,1637229549.6385577,b4715d0c-97d5-458d-917d-b84d7b336a2c
-0.1105684250042,0.0541463933244661,0.0567213463049804,1.0340529097359,0.0293008359143963,-1.1410704746708606,-0.5502006357585393,-0.576388464148879,-14.594977219631891,24.19838003284792,-21.40801273342305,-4.744228706358144,0.3728124068798452,0.6314284305363703,-1.0,12.036333333333332,0.03,179.84788758922124,10.541419982272153,58.75421159271736,1525.0,1234.0,1000.0,1528.0,1475.0,1021.47,138.0,293.25,1637229549.747307,1637229550.8732555,b4715d0c-97d5-458d-917d-b84d7b336a2c
-0.1249739183539038,0.057082935468235,0.0770295075789301,1.2336018994484608,0.0609355034616204,-1.340058632071563,-0.5945139470957597,-0.613053615289076,-14.655715212163432,25.543343099560285,-23.271967340455987,-5.631915861967746,0.3775177836122287,0.6226328929281413,-1.0,12.037333333333333,0.03,179.83527147091434,10.472615312758125,59.03056635890544,1525.0,1133.0,1000.0,1528.0,1475.0,1021.47,138.0,293.25,1637229552.6823776,1637229553.8482275,00fe975e-bbc1-4600-a459-787264bf38f9
-0.1078565062385799,0.0689112834396296,0.0856347813286316,1.217148497818885,0.0652132126133591,-1.334918034725044,-0.584962511974179,-0.6139855294528848,-14.601209732792498,25.497889617697364,-22.97746580995849,-5.583047859900343,0.4214558675784021,0.5932364613475961,-1.0,12.02211111111111,0.03,179.81763136901793,10.457749880348285,59.143489876453245,1525.0,1133.0,1000.0,1528.0,1475.0,1021.47,138.0,293.25,1637229553.9570472,1637229555.0743375,00fe975e-bbc1-4600-a459-787264bf38f9
-0.1131532396996282,0.0651693836462467,0.0818024842321951,1.230840673327184,0.0636835809273443,-1.3452918181466489,-0.5931070362326064,-0.6111207562339911,-14.763747156297269,25.610518922046204,-23.22746796193672,-5.636811188255201,0.4088607940363974,0.6112945714925321,-1.0,12.025,0.03,179.82830771360057,10.485941201556294,59.25133780453785,1525.0,1133.0,1000.0,1528.0,1475.0,1021.47,138.0,293.25,1637229555.1818998,1637229556.1930995,00fe975e-bbc1-4600-a459-787264bf38f9
-0.1180741395581632,0.0674731447990849,0.071801257273495,1.2496093412263949,0.0500100326134532,-1.361229149125495,-0.6155058474620488,-0.6385982536405782,-14.869972726942938,26.326109743831168,-22.84830424349733,-5.710709302056827,0.4119599057903498,0.676052466383247,-1.0,12.024666666666668,0.03,179.79045935867978,10.44471901777676,59.35530694408377,1525.0,1033.0,1000.0,1528.0,1475.0,1021.47,138.0,293.25,1637229558.2373664,1637229559.2821674,66a6cc71-2611-47b3-82d6-ddd2f54ac314
-0.1049939253185599,0.0771977013398049,0.0910586184431686,1.2449114216950443,0.0643092397330803,-1.3674473928025586,-0.5982892677839252,-0.6271753196451061,-14.673482622958176,26.43730410363221,-22.854678579713465,-5.712291269534106,0.4488998064700857,0.6070320493520563,-1.0,12.022,0.03,179.78858333338778,10.44681190157494,59.41353658348786,1525.0,1033.0,1000.0,1528.0,1475.0,1021.47,138.0,293.25,1637229559.391597,1637229560.492089,66a6cc71-2611-47b3-82d6-ddd2f54ac314
-0.1144582478671592,0.0717464710474207,0.0831420076800469,1.245253835670347,0.0587895266491173,-1.3627905583563162,-0.6040692173415131,-0.6289284798022243,-14.733821675398042,26.347278615257142,-22.95841580287917,-5.703637036436548,0.4292553077541454,0.6327625689039436,-1.0,12.018400000000002,0.03,179.77916860063584,10.442895641859582,59.4172772504233,1525.0,1033.0,1000.0,1528.0,1475.0,1021.47,138.0,293.25,1637229560.6004531,1637229561.7203066,66a6cc71-2611-47b3-82d6-ddd2f54ac314
-0.0756695918687902,0.0434630776014473,-0.0073511553608385,0.2120403170356125,-0.1083221892297166,-0.3353563692945641,-0.3779526739894934,-0.3986070885966934,-14.32619922893152,21.548229258162777,-15.519436895059334,-1.0991070994252414,0.3757513785979247,0.6620502279838251,-1.0,12.033,0.0333333333333333,179.7697502251163,10.757763947502584,59.47044344292269,1525.0,1435.0,1000.0,1528.0,1475.0,1021.47,138.0,293.25,1637229562.7430935,1637229563.8810234,ae92bce7-e098-4c55-93e4-37084340889f
-0.0703279337967107,0.0495306530710119,0.0056194858461108,0.2025622988827187,-0.0972964589559366,-0.3345893619487339,-0.3630097258330476,-0.3935119677349663,-14.223539786129654,21.406350465007137,-15.697229104682489,-1.0762747899636278,0.4013444554513901,0.6086071335709233,-1.0,12.049555555555555,0.04,179.73837233606926,10.750870199627794,59.4523396470726,1525.0,1435.0,1000.0,1528.0,1475.0,1021.47,138.0,293.25,1637229563.9897597,1637229564.9975288,ae92bce7-e098-4c55-93e4-37084340889f
-0.0789019798609167,0.0463530514691924,-0.0064471824830424,0.209917350526604,-0.1068018711465752,-0.3382052539984849,-0.3773089356302161,-0.4074002809043067,-14.408667427712048,21.431320283012,-15.791819912909128,-1.10153495515567,0.3899050581218866,0.6577679491497234,-1.0,12.05,0.04,179.71855719837717,10.748163642305435,59.42337053807286,1525.0,1435.0,1000.0,1528.0,1475.0,1021.47,138.0,293.25,1637229565.1050632,1637229566.1341927,ae92bce7-e098-4c55-93e4-37084340889f
-0.0243074953069888,0.0757184730179889,0.153953214217302,0.1913722109469167,0.0348890318830861,-0.3567367009977517,-0.2128954225806504,-0.2344948982530131,-13.167993624919571,21.443424115612327,-15.519914561181825,-1.0926093260868062,0.5013042072366872,0.0166833868078413,-1.0,12.050333333333334,0.04,179.68236023141571,10.745554984361188,59.29355975725715,1525.0,1435.0,1000.0,1439.0,1475.0,1021.47,138.0,293.25,1637229568.2651422,1637229569.320967,01361a8b-a0b1-4557-9035-586f5a94bc6e
-0.0128160823743875,0.0815532069280706,0.1585826508850565,0.1848937390133027,0.0375735573911173,-0.3577502464488072,-0.2085673095864822,-0.229564136386474,-13.141242667618128,21.41744397878183,-15.664596430910697,-1.080224360401785,0.5253716615023261,0.0010287324013045,-1.0,12.049333333333331,0.04,179.67716018072758,10.73792822437922,59.25724819489963,1525.0,1435.0,1000.0,1439.0,1475.0,1021.47,138.0,293.25,1637229569.4290583,1637229570.5272777,01361a8b-a0b1-4557-9035-586f5a94bc6e
-0.018582333673544,0.0836624769408949,0.1580210919773499,0.180743681906827,0.0368202466473769,-0.3565175559613924,-0.2069785086677536,-0.2301530884743593,-13.02405141913944,21.26922279799136,-15.733667148792293,-1.069055385404743,0.5335382749411227,0.0008223245191505,-1.0,12.04811111111111,0.04,179.67854139675975,10.743971423974866,59.24398852099091,1525.0,1435.0,1000.0,1439.0,1475.0,1021.47,138.0,293.25,1637229570.6358602,1637229571.6652148,01361a8b-a0b1-4557-9035-586f5a94bc6e
0.0410415260258272,0.1070611294539496,0.3314041747326693,0.1676503202240115,0.1909103630558119,-0.3709203117059844,-0.0306320183709468,-0.0600850992225336,-11.854817076667066,21.558222146686493,-14.899644875200766,-1.0606142422534774,0.6182385137340168,-0.6918822258841183,-1.0,12.047444444444444,0.04,179.62195403839613,10.746871408459969,59.07362690707282,1525.0,1435.0,1000.0,1351.0,1475.0,1021.47,138.0,293.25,1637229573.6898625,1637229574.9410808,372a70ac-1d7d-49e2-bbe9-9b3a8758ee16
0.0432110609130592,0.1074292929511792,0.3322062451494062,0.1765914333446255,0.1939871578627324,-0.3780600550922025,-0.0315918732447559,-0.0591646905520077,-11.95535100173861,21.477089378358897,-14.69211938727336,-1.0973425861977004,0.617440240562464,-0.6954209797444009,-1.0,12.04622222222222,0.04,179.61792422678582,10.750192208488931,59.00203514092247,1525.0,1435.0,1000.0,1351.0,1475.0,1021.47,138.0,293.25,1637229575.0489872,1637229576.0587263,372a70ac-1d7d-49e2-bbe9-9b3a8758ee16
0.0377412032325459,0.1102562625933131,0.3375972102305141,0.1744350472051657,0.197182290910627,-0.3822676386724363,-0.0263586919739274,-0.0563640180782423,-11.75849275473164,21.49590592895041,-15.13887738852551,-1.1015122606195005,0.6312169609633299,-0.7147492918723696,-1.0,12.048,0.04,179.63849068528663,10.74812996567828,58.98364599494707,1525.0,1435.0,1000.0,1351.0,1475.0,1021.47,138.0,293.25,1637229576.1660452,1637229577.271004,372a70ac-1d7d-49e2-bbe9-9b3a8758ee16
0.0999476848983723,0.1443245338113675,0.5351421104404751,0.1792781501883823,0.3738925399896806,-0.4340674859946356,0.16530766092795,0.1348054255034786,-10.426977797263064,21.79148064925021,-15.635141983828657,-1.2164513267717068,0.7658999528200061,-1.493327888356055,-1.0,12.043444444444445,0.04,179.62089156452524,10.7328410615399,58.90831507968109,1525.0,1435.0,1000.0,1262.0,1475.0,1021.47,138.0,293.25,1637229578.210049,1637229579.3350267,6a263d7a-22b6-4aa7-9aa8-793a64dcae13
0.1016460581239275,0.13664076463749,0.5280746868614324,0.1790727017976644,0.3687974205723158,-0.4273287777157404,0.1593907477863862,0.1350382669368521,-10.582550404964977,21.841496652622656,-15.823995803925593,-1.200973872328101,0.7394341644051966,-1.4696572747153176,-1.0,12.045333333333334,0.0355555555555555,179.6207488894626,10.75235538631732,58.88911314119446,1525.0,1435.0,1000.0,1262.0,1475.0,1021.47,138.0,293.25,1637229579.4430535,1637229580.47835,6a263d7a-22b6-4aa7-9aa8-793a64dcae13
0.1063439776539321,0.1495429224911928,0.5318001504549011,0.1706767117061851,0.3708656007688972,-0.4336154994384825,0.1615548039966198,0.1375310406308411,-10.648213642094738,21.66374393431654,-15.994369173330236,-1.197214731571008,0.7910667499721947,-1.4793593006923187,-1.0,12.044,0.03,179.6341390958754,10.7427161869874,58.86342404081615,1525.0,1435.0,1000.0,1262.0,1475.0,1021.47,138.0,293.25,1637229580.5871725,1637229581.698056,6a263d7a-22b6-4aa7-9aa8-793a64dcae13
0.1498442467454872,0.1658829163746328,0.6569729873854983,0.1809080405709579,0.4826295096010128,-0.457502303136104,0.2837007077954026,0.2533491355196308,-9.734675461982292,22.06064872401308,-14.8328905446715,-1.264462040466512,0.8422740332889905,-1.9719389057682013,-1.0,12.043222222222225,0.0377777777777777,179.64562595623957,10.737175101159488,58.849680182386265,1525.0,1435.0,1000.0,1173.0,1475.0,1021.47,138.0,293.25,1637229582.7012942,1637229583.838214,4ac9d858-0192-4926-931d-91ec69e1d060
0.1450082659915073,0.1637057115056792,0.6525084575830239,0.1821401829565407,0.4785775200706153,-0.4517979590346349,0.2790986643924629,0.250303021097644,-9.83401338529918,22.15721214211102,-14.199863326605575,-1.2539542981531833,0.8287676836083127,-1.953250884961216,-1.0,12.037666666666668,0.03,179.6300000012384,10.73657015509925,58.817308880269934,1525.0,1435.0,1000.0,1173.0,1475.0,1021.47,138.0,293.25,1637229583.947259,1637229585.1826556,4ac9d858-0192-4926-931d-91ec69e1d060
0.1447978868396682,0.1735803820493681,0.6552302374405525,0.1703852489486442,0.4780252748690672,-0.4532048697799984,0.2824252843372288,0.2586655914835672,-9.68131331523506,22.051278470053468,-14.539250071385812,-1.231143518834004,0.8693489382374422,-1.960181833881241,-1.0,12.040333333333333,0.03,179.63770900808163,10.738540380083585,58.81223404971662,1525.0,1435.0,1000.0,1173.0,1475.0,1021.47,138.0,293.25,1637229585.312987,1637229586.2953246,4ac9d858-0192-4926-931d-91ec69e1d060
-0.1369069088898438,0.0203021968666025,-0.1924327619719268,0.2324892780325761,-0.2795291880677166,-0.3166194742393738,-0.5737313304058497,-0.5990562755485742,-15.549254070800156,22.046333027219177,-14.871261201174836,-1.1095568104244908,0.2775532666183049,1.4235053257308614,-1.0,12.042555555555555,0.0322222222222222,179.74333560686617,10.745626511619994,59.00288056655974,1525.0,1435.0,1000.0,1617.0,1475.0,1021.47,138.0,293.25,1637229587.206238,1637229588.3465836,193bfc6e-6b19-4504-9e1f-5a88572d6fea
-0.1390572687432523,0.0139469936024897,-0.1958979916201014,0.2389266602638492,-0.2801455332814903,-0.316756439793926,-0.5769363260822421,-0.6023160575766439,-15.653994197460394,22.02118482818818,-14.958030664257462,-1.1247915582774837,0.2542150677600691,1.432733687230107,-1.0,12.050777777777776,0.04,179.74163261303306,10.750449478947669,58.98267686699485,1525.0,1435.0,1000.0,1617.0,1475.0,1021.47,138.0,293.25,1637229588.4582703,1637229589.572499,193bfc6e-6b19-4504-9e1f-5a88572d6fea
-0.1341539004067527,0.0166452156877075,-0.1953501292319991,0.2369132662655278,-0.2797483330426573,-0.3178384680363345,-0.5764843395086564,-0.6022201816661394,-15.673131881758602,21.96241308783821,-14.994895892357158,-1.1230591316687388,0.265078855215905,1.4310699307693635,-1.0,12.049,0.04,179.76057955779072,10.759585046690042,58.98635378549803,1525.0,1435.0,1000.0,1617.0,1475.0,1021.47,138.0,293.25,1637229589.6809957,1637229590.7087214,193bfc6e-6b19-4504-9e1f-5a88572d6fea
-0.2169633008749335,-0.0275946694306822,-0.4044829131629226,0.2923158426517233,-0.4660900472618449,-0.3158387702011985,-0.8004916414383217,-0.8252002452206225,-17.05755284868705,22.54220308836709,-15.287380851242268,-1.250853606748481,0.0914739530202118,2.2823978598041483,-1.0,12.0462,0.0399999999999999,179.77621249476306,10.75072919416693,58.98489349105349,1525.0,1435.0,1000.0,1706.0,1475.0,1021.47,138.0,293.25,1637229592.8485034,1637229593.874031,684b8c9b-3631-42a6-bac0-db505fbfe518
-0.2034721893044185,-0.0186371198811118,-0.4002643722875977,0.2883986271225446,-0.463117893342691,-0.322714443712601,-0.7984782464297725,-0.8187491630678613,-17.127010376156523,22.463590013977168,-15.504456100503576,-1.2578485312697767,0.1282341385838295,2.2704597410052934,-1.0,12.048,0.04,179.7517686137614,10.743055135124962,58.93509321577707,1525.0,1435.0,1000.0,1706.0,1475.0,1021.47,138.0,293.25,1637229593.9824998,1637229595.2152908,684b8c9b-3631-42a6-bac0-db505fbfe518
-0.2132652296777396,-0.0252799509638151,-0.417412467150803,0.3193802406649161,-0.4751708678078132,-0.3510663247326999,-0.8248715273778545,-0.8565105941413012,-17.3112144310623,22.60349054690205,-16.572233933049024,-1.3916352998346058,0.109187697314637,2.345605101083979,-1.0,12.045,0.04,179.7665400362064,10.744624276223034,58.91930485405565,1525.0,1435.0,1000.0,1706.0,1475.0,1021.47,138.0,293.25,1637229595.3227794,1637229596.4428768,684b8c9b-3631-42a6-bac0-db505fbfe518
-0.2935544660804672,-0.0632194195539606,-0.6228472053284918,0.388479373755237,-0.6606908099798515,-0.3728712498509193,-1.0559052119700405,-1.0884208650184253,-18.765932425119583,23.579788717516227,-17.594975483020562,-1.601157171686273,-0.0352621998498955,3.2004175617224546,-1.0,12.041111111111112,0.03,179.7726674748018,10.716360099663875,58.86479159646996,1525.0,1435.0,1000.0,1795.0,1475.0,1021.47,138.0,293.25,1637229598.2653468,1637229599.4221704,1fe408c5-95b4-49a2-8ff2-0980ca230618
-0.2904179536949967,-0.0583845341716682,-0.6176699046078372,0.3920815683209838,-0.6561298545414102,-0.3812809386129077,-1.0500019913608525,-1.076285705760992,-18.46694057531188,23.40354631649236,-17.6022936088561,-1.6289417324407225,-0.0192980534772893,3.179630926196489,-1.0,12.041,0.03,179.79523897327897,10.697325690539389,58.90191746915851,1525.0,1435.0,1000.0,1795.0,1475.0,1021.47,138.0,293.25,1637229599.5539353,1637229600.7442086,1fe408c5-95b4-49a2-8ff2-0980ca230618
-0.290253594971972,-0.0640959993265199,-0.6166289657179631,0.3887943945764898,-0.652870072258104,-0.3715426834226479,-1.0458519312611327,-1.0784634600156402,-18.62220815498371,23.322173050615536,-17.4220943860573,-1.6001805485004652,-0.0407483443713186,3.167322329018701,-1.0,12.039555555555555,0.03,179.81059172071335,10.720289165983925,58.89670451700199,1525.0,1435.0,1000.0,1795.0,1475.0,1021.47,138.0,293.25,1637229600.8518116,1637229601.9730308,1fe408c5-95b4-49a2-8ff2-0980ca230618
-0.3331309520792133,-0.07980814419156836,-0.756374458642853,0.4647319441437985,-0.7807784496612675,-0.4198203226858888,-1.216920981045734,-1.2449408771208383,-19.627643040557665,24.372186914663935,-17.736848862018384,-1.880517364880165,-0.10796340783317313,3.772779182335027,-1.0,12.036,0.030000000000000002,179.81634729345396,10.695127507991506,58.849177025117406,1525.0,1435.0,1000.0,1883.0,1475.0,1021.4699999999999,138.0,293.25,1637229602.8836806,1637229604.0212986,f34ae873-46b7-4a17-ab7a-7032194f4360
-0.3386298473529839,-0.08524348675689626,-0.7550738331028772,0.46604297860429544,-0.7767691914310418,-0.41396093374094245,-1.2125528712595326,-1.2440686790504234,-19.686254216204258,24.236262597966398,-17.465747753164564,-1.8711304926379035,-0.13041844277581263,3.7590772544276425,-1.0,12.02988888888889,0.030000000000000002,179.80274611008676,10.697216786967623,58.84061120898829,1525.0,1435.0,1000.0,1883.0,1475.0,1021.4699999999999,138.0,293.25,1637229604.1299171,1637229605.2469409,f34ae873-46b7-4a17-ab7a-7032194f4360
-0.3388215992211758,-0.08197000910404363,-0.7599498100305097,0.45774286482110343,-0.782836769567047,-0.4131939263156463,-1.2178397471621742,-1.2366451382834722,-19.750781509921282,24.2324758986135,-18.025673748827852,-1.851073531808204,-0.11200884651965048,3.7810054106335493,-1.0,12.029,0.030000000000000002,179.81308094521086,10.71309280278341,58.76709560622172,1525.0,1435.0,1000.0,1883.0,1475.0,1021.4699999999999,138.0,293.25,1637229605.3554528,1637229606.3660343,f34ae873-46b7-4a17-ab7a-7032194f4360
