raw_voltage_G-,raw_voltage_G0,raw_voltage_G1,raw_voltage_G2,raw_voltage_G3,raw_voltage_G4,raw_voltage_G5,raw_voltage_G6,load_x,load_y,load_z,load_l,load_m,load_n,rpm,voltage,current,roll,pitch,yaw,aileron1_pwm,elevator_pwm,throttle_pwm,rudder_pwm,aileron2_pwm,pbaro,pdiff,Tt,sample_start_time,sample_end_time,uid
-0.1756227001333469,-0.0420845331323463,-0.3925762185209811,-0.0832136566892949,-0.4749133724379859,0.3419231309991886,-0.6520263639032396,-0.6790600935366574,-20.697577208683747,22.686368882654943,27.65102654347975,1.0808886575701433,-0.2706776843490482,2.119712651120904,4395.387369791667,11.95355555555556,0.1655555555555555,179.63582235805086,-4.288704950450587,100.4582507989084,1553.0,1435.0,1200.0,1528.0,1471.0,995.0,110.0,294.54999999999995,1649347255.1169603,1649347256.0852454,c16a1290-f9de-468f-bf10-0ad6eca8b773
-0.1793306328532339,-0.044517042027075,-0.3752462335030974,-0.0777963935812355,-0.4663009742865094,0.338241496297442,-0.64528108027349,-0.6632816519142107,-20.74424052868768,23.76321177084991,27.57800040321009,1.0683618237291086,-0.278373661159573,2.073931308856197,4411.439453125,11.952666666666667,0.1677777777777778,179.71619698856395,-4.303190548451584,100.3718754677545,1553.0,1435.0,1200.0,1528.0,1471.0,995.0,110.0,294.54999999999995,1649347256.1947289,1649347257.3182774,c16a1290-f9de-468f-bf10-0ad6eca8b773
-0.1765694063932998,-0.0450166924965596,-0.3745756498729566,-0.0790981145503895,-0.4632241786418888,0.3406871536346537,-0.6428485706313302,-0.6738269102428502,-20.885135746518223,23.569109099826164,27.700633870554444,1.0754891918481162,-0.2801378405310857,2.0654453714754406,4411.439453125,11.952555555555556,0.17,179.76729742829437,-4.318843444754482,100.31307664591958,1553.0,1435.0,1200.0,1528.0,1471.0,995.0,110.0,294.54999999999995,1649347257.4272888,1649347258.4373062,c16a1290-f9de-468f-bf10-0ad6eca8b773
0.0294838219401415,0.3381626041418971,-0.3609667468000429,-0.3495010816507959,-0.541314305981869,0.2210077274796968,-0.6794414056179078,-0.6998218929701356,-20.069916960060866,21.49406979489824,28.594834539515578,1.403991233488867,1.1774422303143668,2.2520336590089403,4382.1220703125,11.946333333333332,0.1666666666666666,179.7140523091646,-4.288503032983248,100.26715652521968,1658.0,1435.0,1200.0,1528.0,1551.0,995.0,110.0,294.54999999999995,1649347259.453954,1649347260.5981076,ca1262ea-cb7b-4444-914a-a9f84ad0d49a
0.0318637359763876,0.3419625770900001,-0.3561806204959778,-0.3512630072614959,-0.5377115621703817,0.2196665605243147,-0.6736691257981957,-0.7009526810960429,-19.906518154866376,21.413088759410456,28.74349410975885,1.404759356828282,1.1897393488945485,2.2331856025941352,4370.948893229167,11.936666666666667,0.1633333333333333,179.72616906475218,-4.266051489703377,100.21071639537814,1658.0,1435.0,1200.0,1528.0,1551.0,995.0,110.0,294.54999999999995,1649347260.730276,1649347261.8255427,ca1262ea-cb7b-4444-914a-a9f84ad0d49a
0.0335993638705154,0.3365453146180231,-0.3449516319610787,-0.3515128325355722,-0.530611264208194,0.2241371170432482,-0.6662927044447966,-0.6827022843148906,-19.990549726917248,22.00213807279557,28.656790200662986,1.4197767261266443,1.1715371370501833,2.1966254502751985,4368.71875,11.938444444444446,0.1677777777777778,179.7105825730662,-4.249782595714708,100.11164829601664,1658.0,1435.0,1200.0,1528.0,1551.0,995.0,110.0,294.54999999999995,1649347261.937651,1649347263.0538886,ca1262ea-cb7b-4444-914a-a9f84ad0d49a
0.2286208222368981,0.6910341338283296,-0.3341039557576417,-0.6222577052241498,-0.6132902913620744,0.1368034797536496,-0.708460589484794,-0.7390444695551455,-19.754160440705004,21.09249667821724,30.064807712770424,1.8291139397031468,2.5209401542894514,2.3975325792535456,4380.877170138889,11.932,0.16,179.45483904106354,-4.176410284625098,99.92494431614443,1767.0,1435.0,1200.0,1528.0,1630.0,995.0,110.0,294.54999999999995,1649347264.983153,1649347266.2802846,6fb4016f-06c0-4e7f-a9ad-429e228ef18f
0.2444124056276857,0.7037489218623851,-0.3331441007898021,-0.6294237471145807,-0.6184577307118114,0.1249170586220022,-0.712760214870236,-0.7301296501916031,-19.59071330198777,21.30070535953657,29.19232134896858,1.819939629762599,2.576150999813511,2.4096581237494954,4389.600911458333,11.910666666666666,0.1533333333333333,179.42271742030687,-4.140349826583324,99.76389225006508,1767.0,1435.0,1200.0,1528.0,1630.0,995.0,110.0,294.54999999999995,1649347266.3926976,1649347267.5604172,6fb4016f-06c0-4e7f-a9ad-429e228ef18f
0.2427030752076346,0.7040776392365266,-0.3327496398635709,-0.6287400146767557,-0.6150653659687104,0.1272575265010731,-0.7087893070631036,-0.739005023713886,-19.585835630172102,20.969304717242835,29.680803124555425,1.8215597094654523,2.572955169494061,2.399720334431893,4393.35009765625,11.908888888888889,0.1522222222222222,179.3842346167032,-4.11385457415546,99.68273973689652,1767.0,1435.0,1200.0,1528.0,1630.0,995.0,110.0,294.54999999999995,1649347267.691251,1649347268.783048,6fb4016f-06c0-4e7f-a9ad-429e228ef18f
0.3470774195219627,0.8816902117450072,-0.2955914185410994,-0.793388055030249,-0.6409814551282687,0.0850239148354553,-0.7067118122459175,-0.7229636075812412,-19.39913735219303,21.756937407710183,27.005593643208964,2.104799863877303,3.2841399022763023,2.397491975503254,4400.1162109375,11.880444444444445,0.1444444444444445,179.19551041865648,-4.05569503905411,99.50293880154548,1886.0,1435.0,1200.0,1528.0,1710.0,995.0,110.0,294.54999999999995,1649347270.1018226,1649347271.2403562,bc0de732-dac0-4e03-bff0-de9f2e1a1738
0.3500753220501951,0.8865683776489756,-0.2910814150870096,-0.7870503806080081,-0.6348015657261159,0.0757014892322916,-0.7028460939994977,-0.7200182985500791,-19.37650396083578,21.52866864978455,27.22419047328146,2.068312473596764,3.2998401140551192,2.378486805733759,4394.852864583333,11.849666666666668,0.14,179.15564032774137,-4.038764280762117,99.31459178172292,1886.0,1435.0,1200.0,1528.0,1710.0,995.0,110.0,294.54999999999995,1649347271.3492134,1649347272.469738,bc0de732-dac0-4e03-bff0-de9f2e1a1738
0.3558870453906817,0.8932873608640555,-0.2811409993535067,-0.7955049961701702,-0.6293580036516393,0.0771872919262644,-0.6941548024111185,-0.7184536030156886,-19.29730859619701,21.69912914075564,27.333740112428224,2.092405109257372,3.325182929596993,2.346026849185898,4386.356987847223,11.855777777777778,0.14,179.11071437902066,-4.003685567549793,99.17276290360762,1886.0,1435.0,1200.0,1528.0,1710.0,995.0,110.0,294.54999999999995,1649347272.5787575,1649347273.6275032,bc0de732-dac0-4e03-bff0-de9f2e1a1738
-0.4461571669609244,-0.4813562351367456,-0.4140348950847949,0.2429660490987473,-0.3843319843275918,0.4597617373891422,-0.6117255960057401,-0.6369842501950247,-21.264245360039904,24.304135317004047,25.972174490227204,0.6190092436974935,-1.9408159132908325,1.914488291715826,4392.349880642361,11.893,0.1533333333333333,179.81541383426736,-4.083347866250683,98.93625773776712,1449.0,1435.0,1200.0,1528.0,1386.0,995.0,110.0,294.54999999999995,1649347274.6100578,1649347275.7492812,9bb571fb-b801-415d-9cf0-8125068ed4e5
-0.4445135796419795,-0.4837624471442566,-0.4203068244881687,0.2406518787008139,-0.3910246720173226,0.4610371608235821,-0.6165643178267611,-0.6449392142152628,-21.1202435348986,24.298495011833985,25.47221216408832,0.6267385913842933,-1.946541505946995,1.9381290366211552,4393.600423177083,11.954666666666666,0.1688888888888889,179.77990292186257,-4.06951839329683,98.87300411477356,1449.0,1435.0,1200.0,1528.0,1386.0,995.0,110.0,294.54999999999995,1649347275.8578415,1649347276.9735787,9bb571fb-b801-415d-9cf0-8125068ed4e5
-0.4517979589305945,-0.4826053615928476,-0.4079601961866375,0.2469369551953269,-0.3771133487312355,0.4594724661044311,-0.6054931119699081,-0.6294105984172755,-21.314347720649447,24.27253315972861,26.32469136718668,0.6095257791267594,-1.9483749689263297,1.88786083564337,4395.60302734375,11.955,0.17,179.73317228538116,-4.043599532943925,98.79729070891403,1449.0,1435.0,1200.0,1528.0,1386.0,995.0,110.0,294.54999999999995,1649347277.081094,1649347278.204341,9bb571fb-b801-415d-9cf0-8125068ed4e5
-0.6460568537012594,-0.8498748813422792,-0.4197545791439755,0.5336311062316359,-0.3015609274833649,0.5453465934933345,-0.5763292944519063,-0.6016273948688189,-21.70895959549423,26.460042232726902,24.948540675173653,0.1692806216595302,-3.3468779999275373,1.7144691029455468,4328.281629774306,11.945777777777778,0.1655555555555555,179.79815774078432,-4.043089592917767,98.58064621536012,1342.0,1435.0,1200.0,1528.0,1293.0,995.0,110.0,294.54999999999995,1649347279.9347613,1649347281.0716715,786b9576-e99a-4f23-9004-1b933a9f94b7
-0.639337867560912,-0.8447994820646378,-0.4247510847657459,0.5294629699099682,-0.3039802879380129,0.5441763596357112,-0.5772365547600574,-0.5994315615908059,-21.62321332738579,25.9707690692692,24.92621976674077,0.1726006051408803,-3.32806309094776,1.726673758641692,4302.211100260417,11.918666666666669,0.16,179.78319203740293,-4.026115481897293,98.40248528431978,1342.0,1435.0,1200.0,1528.0,1293.0,995.0,110.0,294.54999999999995,1649347281.1805503,1649347282.512771,786b9576-e99a-4f23-9004-1b933a9f94b7
-0.6479765640355414,-0.8426562434885383,-0.4261842929666066,0.5226256484979787,-0.3082667635576326,0.5463458943156081,-0.580550027225804,-0.6119228274470798,-21.674539315011927,26.182130851851507,24.61777099110465,0.1941539350799629,-3.316173049358519,1.738825094435687,4292.1513671875,11.907111111111112,0.1555555555555555,179.74364675992834,-4.016178647587917,98.22148603022436,1342.0,1435.0,1200.0,1528.0,1293.0,995.0,110.0,294.54999999999995,1649347282.6213105,1649347283.734809,786b9576-e99a-4f23-9004-1b933a9f94b7
-0.8784075669913796,-1.243428774921664,-0.4518374050767088,0.80107556222398,-0.2438907381111774,0.6651837995283546,-0.560734936002341,-0.590345809667835,-22.507858626544685,28.954294227291346,22.088489570666123,-0.1506392107341247,-4.826861123994202,1.6065582895322068,4273.604817708333,11.880333333333333,0.1433333333333333,179.86014550205172,-4.005040079439572,97.79416586954125,1227.0,1435.0,1200.0,1528.0,1189.0,995.0,110.0,294.54999999999995,1649347286.0763218,1649347287.2160952,f63a1aa5-c494-471f-86cb-4ac66b541315
-0.8859417740147157,-1.260206525932278,-0.4617383756559078,0.8096748087921871,-0.2511751167114892,0.670232898394474,-0.5701888514299517,-0.5963153192424627,-22.57274276820173,29.19591893818405,21.51823313142072,-0.1577058108761007,-4.885956810886298,1.6405328011453466,4275.499728732639,11.822555555555557,0.1211111111111111,179.8389400414085,-4.023249174039349,97.43475903868544,1227.0,1435.0,1200.0,1528.0,1189.0,995.0,110.0,294.54999999999995,1649347287.3244402,1649347288.4458983,f63a1aa5-c494-471f-86cb-4ac66b541315
-0.893844144737558,-1.27230333716737,-0.4681417922811817,0.8291348774680314,-0.2495972729775578,0.6711007122624524,-0.5738310414561494,-0.603888970622687,-22.702552238160493,28.9321354248812,22.468669048799484,-0.2016342024081547,-4.941638504897474,1.6523628863315305,4300.290744357639,11.830333333333336,0.13,179.83117791087182,-4.011245353732398,97.22192351395864,1227.0,1435.0,1200.0,1528.0,1189.0,995.0,110.0,294.54999999999995,1649347288.553972,1649347289.6686966,f63a1aa5-c494-471f-86cb-4ac66b541315
-0.1930315756030987,-0.0457793169010622,-0.3834510215167601,-0.0786905049547649,-0.4617120782072302,0.3410684658044334,-0.6400215999388191,-0.6709604942991996,-20.777837173044325,22.390720799724264,27.692299668401443,1.0672256540057086,-0.2843165342172861,2.0719171511944108,4317.132541232639,11.907,0.1577777777777777,179.37570598715956,-3.8872554593412096,96.8577788085486,1553.0,1435.0,1200.0,1528.0,1471.0,995.0,110.0,294.54999999999995,1649347291.6079483,1649347292.7463858,26ff18d3-1101-4795-aac2-151bfc322d81
-0.1913485423175981,-0.0404409460490222,-0.3949166868613982,-0.0887755554941273,-0.4723362273173144,0.3423438892370404,-0.6478187795617113,-0.67340615195994,-20.6771940816023,22.014511443572875,27.22711815884033,1.0897527616059417,-0.2603753896239842,2.113244317428244,4333.623914930556,11.959888888888887,0.17,179.32015833536957,-3.869958953905536,97.00340982530189,1553.0,1435.0,1200.0,1528.0,1471.0,995.0,110.0,294.54999999999995,1649347292.8547676,1649347293.9733732,26ff18d3-1101-4795-aac2-151bfc322d81
-0.1936495644002026,-0.0482644205822048,-0.3891838541674646,-0.0796635085285461,-0.4687860784820422,0.3456705091624708,-0.646254084166593,-0.6690144857172462,-20.754808106402283,22.58562461712213,27.82437952212413,1.0808011482810116,-0.2952111264490365,2.09805357725908,4347.304036458333,11.965666666666667,0.1766666666666666,179.28937846732987,-3.867203304598522,97.0936616682647,1553.0,1435.0,1200.0,1528.0,1471.0,995.0,110.0,294.54999999999995,1649347294.0825264,1649347295.2000077,26ff18d3-1101-4795-aac2-151bfc322d81
-0.2045629832878213,-0.0571266421766978,-0.4237254862640522,-0.3288707738141363,-0.5255753121631589,0.5934971145606511,-0.611791339493516,-0.6367607221182401,-20.888615816991365,22.062949412125544,29.20392118677083,2.19481888709068,-0.3112455016383236,2.172228268198603,4379.88037109375,11.967,0.17,179.25947589914352,-3.7538429395350352,97.277739819856,1553.0,1522.0,1200.0,1528.0,1471.0,995.0,110.0,294.54999999999995,1649347296.9095662,1649347297.871176,a9816663-144b-45c2-a2e6-1d7f4d21f78b
-0.1795278632698952,-0.0559301107754411,-0.4282617874095626,-0.3348139854832487,-0.5306244129066063,0.5963372326766107,-0.6135795627715085,-0.6303310075109909,-20.72337813120907,21.92715193153738,28.972877688874743,2.2135276925019416,-0.305437704200672,2.187772944467474,4376.650499131944,11.956555555555555,0.17,179.24962373072077,-3.749959455241321,97.3091822162452,1553.0,1522.0,1200.0,1528.0,1471.0,995.0,110.0,294.54999999999995,1649347297.9837005,1649347299.2984836,a9816663-144b-45c2-a2e6-1d7f4d21f78b
-0.1748863730766933,-0.055417311592359,-0.4246853413160711,-0.3286603946664011,-0.5281787547481489,0.5954299727216751,-0.6144342283423354,-0.635840313137041,-20.908356096178704,22.234541019709567,29.72817748352367,2.199851053500367,-0.3094250679574126,2.181709411655231,4376.650933159723,11.95588888888889,0.17,179.25905546305464,-3.7348168784195335,97.34723244120144,1553.0,1522.0,1200.0,1528.0,1471.0,995.0,110.0,294.54999999999995,1649347299.4069932,1649347300.5302112,a9816663-144b-45c2-a2e6-1d7f4d21f78b
-0.1821313054278835,-0.0621494443426727,-0.4528367062244138,-0.6308701042074308,-0.5871112287125662,0.8939053495348943,-0.5590519023812834,-0.5751459121526775,-20.76126660569864,21.722476707406408,31.769388737087265,3.5478792769700016,-0.3183917729387111,2.2212259298494086,4380.626953125,11.950333333333331,0.1666666666666666,179.214993153809,-3.626655141088074,97.41170942696635,1553.0,1613.0,1200.0,1528.0,1471.0,995.0,110.0,294.54999999999995,1649347302.4633293,1649347303.5996644,c6c3a7a7-24a5-473c-a71a-bab73649ee9a
-0.1839195282538679,-0.0693023353976981,-0.460160531732173,-0.6298971003688928,-0.5896620765743219,0.9021758787891684,-0.5608138281829529,-0.5851783698570825,-20.791204923001025,21.39614058973793,32.045094710607444,3.56177028200456,-0.348040765883029,2.236836951738832,4384.361328125,11.945,0.1544444444444444,179.21867538468152,-3.6297700868045535,97.38568412949888,1553.0,1613.0,1200.0,1528.0,1471.0,995.0,110.0,294.54999999999995,1649347303.708707,1649347304.7848375,c6c3a7a7-24a5-473c-a71a-bab73649ee9a
-0.1815659113977949,-0.0657784846565488,-0.4539017508341599,-0.6315275392975881,-0.5883603552218445,0.8986257310993829,-0.5592359841296393,-0.5742518004707622,-20.744832254413435,21.805654649692563,31.842935581584587,3.560487978055993,-0.3327562058536691,2.2242773593396845,4385.359157986111,11.949666666666666,0.16,179.21506904479975,-3.620821637786322,97.37549272834733,1553.0,1613.0,1200.0,1528.0,1471.0,995.0,110.0,294.54999999999995,1649347304.8935328,1649347305.947621,c6c3a7a7-24a5-473c-a71a-bab73649ee9a
-0.1805797590820811,-0.0758635351230821,-0.4823818337439806,-0.90754509366591,-0.6437032362013443,1.176760086587,-0.5113089729415218,-0.5439703438964393,-20.794408013890443,21.40087126611612,33.92392580251491,4.804326280670026,-0.3565028369904809,2.269666074429884,4396.856011284723,11.936,0.16,179.2103213044167,-3.516761571347061,97.27488783642256,1553.0,1710.0,1200.0,1528.0,1471.0,995.0,110.0,294.54999999999995,1649347307.991578,1649347309.3358967,674580f9-9997-45ea-b3f4-cf2cea201b57
-0.1752545366291876,-0.0811493112549607,-0.4913098007132369,-0.9096751835961696,-0.654117007295476,1.182808486687955,-0.5221303528011114,-0.5424056487568326,-20.9083654179987,21.741398064196304,33.68927377992513,4.824440876293225,-0.3737393844863909,2.310218484103352,4395.60302734375,11.922,0.1475,179.20150466856308,-3.505117758927613,97.17100274614891,1553.0,1710.0,1200.0,1528.0,1471.0,995.0,110.0,294.54999999999995,1649347309.4441147,1649347310.567726,674580f9-9997-45ea-b3f4-cf2cea201b57
-0.1907962970066469,-0.0825430731245673,-0.4876281648376326,-0.9066378331350504,-0.6455966490961567,1.1813489814702862,-0.5123608688623217,-0.5333724922692121,-20.761867850132788,21.173958326510284,33.743063080127165,4.810813666485433,-0.3806306360567147,2.279954498316298,4400.1162109375,11.927375,0.15,179.20518784807297,-3.5001592016727425,97.09750222671676,1553.0,1710.0,1200.0,1528.0,1471.0,995.0,110.0,294.54999999999995,1649347310.6758635,1649347311.80141,674580f9-9997-45ea-b3f4-cf2cea201b57
-0.161606188800558,-0.0736677027615109,-0.4597792196302817,-1.0592416967814913,-0.6447419837891151,1.3213957448130458,-0.4511010780224045,-0.4767147445502974,-20.439534335030345,21.671172841600672,35.2459605658627,5.474838982964584,-0.3423814318946412,2.1554852757868352,4393.601508246527,11.903444444444444,0.1455555555555555,179.20525330405255,-3.455214641872338,96.93095062512695,1553.0,1814.0,1200.0,1528.0,1471.0,995.0,110.0,294.54999999999995,1649347312.938758,1649347314.276149,f1d491b1-06af-434b-9e7d-affaed84de2d
-0.1664317607186608,-0.0774939735276676,-0.4539806431044095,-1.0374674408209406,-0.6387987708451883,1.3032110975340458,-0.4523502043856661,-0.4837230015819119,-20.4138868761306,21.997952651960908,34.991861516241435,5.387285664413053,-0.3569694627248673,2.1405181712301826,4395.102647569444,11.9,0.14,179.2107827216406,-3.460711544914056,96.81159382829088,1553.0,1814.0,1200.0,1528.0,1471.0,995.0,110.0,294.54999999999995,1649347314.38507,1649347315.479532,f1d491b1-06af-434b-9e7d-affaed84de2d
-0.1697189350609083,-0.0747853419823576,-0.4641182902454391,-1.0531538460223602,-0.6441765894721638,1.3147688016802817,-0.4533626541799349,-0.4766095547628175,-20.4769845185172,21.25979313571369,34.92507235728258,5.443201511695004,-0.3444957666051956,2.163458029643282,4392.349880642361,11.887,0.1344444444444444,179.2278673014845,-3.43750922629198,96.69929868814673,1553.0,1814.0,1200.0,1528.0,1471.0,995.0,110.0,294.54999999999995,1649347315.5879776,1649347316.714461,f1d491b1-06af-434b-9e7d-affaed84de2d
-0.1958848429138557,-0.0326306202344418,-0.3478180482485321,0.2669098237091762,-0.4010045344270396,-0.0017311833200016,-0.7102225154760222,-0.7356652531915399,-20.903038145360583,23.96540588771508,25.88255107886997,-0.4708190433355463,-0.2583401811310147,2.041945685569408,4382.1201171875,11.902,0.1466666666666667,179.1966639617163,-3.8545201176285,96.4902637842381,1553.0,1349.0,1200.0,1528.0,1471.0,995.0,110.0,294.54999999999995,1649347318.416808,1649347319.5815194,f4bdeab9-e84b-4ae8-858f-6b1e5a85dddc
-0.1856814536692783,-0.0279891303304363,-0.3510657767941395,0.2627942820092861,-0.4033975976357732,-0.0040453539230015,-0.7111560732971705,-0.732943471873838,-20.800344462234936,23.661156766457456,25.648498373460868,-0.4688998752652533,-0.23928854667529,2.051353433345305,4384.1123046875,11.960666666666668,0.16,179.1825877007468,-3.869305200451854,96.65925101231318,1553.0,1349.0,1200.0,1528.0,1471.0,995.0,110.0,294.54999999999995,1649347319.6894834,1649347320.9129572,f4bdeab9-e84b-4ae8-858f-6b1e5a85dddc
-0.2025643812779643,-0.0268583424175474,-0.3497640556593113,0.2607430854945284,-0.4047782110384764,-0.0069906619366799,-0.7139830441649702,-0.7400569200528355,-20.91166236903205,23.96456211125434,25.11019079944076,-0.4689570950738739,-0.2291483033331064,2.054641728207534,4386.356987847223,11.959111111111111,0.1655555555555555,179.15135400458226,-3.8682864587644,96.811156696184,1553.0,1349.0,1200.0,1528.0,1471.0,995.0,110.0,294.54999999999995,1649347321.020738,1649347322.0738382,f4bdeab9-e84b-4ae8-858f-6b1e5a85dddc
-0.2031823700927047,-0.0151560024606204,-0.3257019374877126,0.528305884753287,-0.3558913491329813,-0.2773804716758608,-0.7659467135478257,-0.7898116088011453,-20.894108643399125,24.48215554354838,23.21480343373409,-1.675779199835761,-0.1999914035455935,2.0301305013680064,4388.601942274306,11.953444444444443,0.1588888888888889,179.10205977043233,-3.969183246412428,97.11180492743,1553.0,1264.0,1200.0,1528.0,1471.0,995.0,110.0,294.54999999999995,1649347323.9669445,1649347325.100023,33a7e0b4-933d-4c4f-b58b-8901623052f3
-0.1961215195281694,-0.0112113935029507,-0.3143151647982002,0.5306857985501507,-0.3509737358961693,-0.2804835643961076,-0.7634616089118219,-0.7851832649010849,-21.047073435019843,25.21720560370904,23.679758925408688,-1.6826839270231035,-0.1877936549424518,2.005118144256959,4390.600043402777,11.945555555555554,0.16,179.09964947256523,-3.955780328258617,97.21042906449544,1553.0,1264.0,1200.0,1528.0,1471.0,995.0,110.0,294.54999999999995,1649347325.209383,1649347326.3331082,33a7e0b4-933d-4c4f-b58b-8901623052f3
-0.2003159540454106,-0.0140909580524751,-0.317957354205586,0.53009410727597,-0.3560359848330413,-0.279707791226473,-0.7682477364167956,-0.8012641280307332,-21.013922100624413,25.41571155482718,23.27671867117143,-1.6785189467712922,-0.1954109531500301,2.0228118858145607,4393.35009765625,11.946333333333332,0.1566666666666666,179.0694509295149,-3.960598315240022,97.29473560724072,1553.0,1264.0,1200.0,1528.0,1471.0,995.0,110.0,294.54999999999995,1649347326.441724,1649347327.564228,33a7e0b4-933d-4c4f-b58b-8901623052f3
-0.2056280278378187,0.001477098629038,-0.2818904751283179,0.8042312490291063,-0.2961568125482566,-0.5560539987293258,-0.8111782494032002,-0.8334390037214214,-21.01736845205473,26.038651295421587,22.0131121124268,-2.9121697296017026,-0.1572527071244188,1.9554621800654683,4393.35009765625,11.949222222222224,0.1588888888888889,179.0239193706878,-4.044891007879488,97.47113359056527,1553.0,1178.0,1200.0,1528.0,1471.0,995.0,110.0,294.54999999999995,1649347328.4727733,1649347329.6110785,1f0b4c16-166e-4d86-a109-da5be967bc5e
-0.1942544044499871,-0.0031380938383217,-0.2798918730275711,0.8036001116709799,-0.3010481282791197,-0.5553308202520519,-0.8179629799368581,-0.8414597117552696,-21.17637465019184,26.979399293853977,21.36194153134261,-2.902968950594829,-0.1674454079738387,1.967080336271346,4389.351128472223,11.929333333333334,0.15,179.0326346920687,-4.042695054629459,97.52275388358252,1553.0,1178.0,1200.0,1528.0,1471.0,995.0,110.0,294.54999999999995,1649347329.7190125,1649347330.845699,1f0b4c16-166e-4d86-a109-da5be967bc5e
-0.2062986113889501,-0.004097948686586,-0.2741458919602428,0.8054146315935411,-0.2978529945956107,-0.5550284001561772,-0.8160169718711245,-0.8380016031957405,-21.27625485130028,27.354079255228427,21.53429919695517,-2.903635376757519,-0.1717189087270814,1.9520445815495355,4391.099609375,11.922333333333333,0.15,179.0149733406949,-4.033544735575758,97.57669492309772,1553.0,1178.0,1200.0,1528.0,1471.0,995.0,110.0,294.54999999999995,1649347330.9550743,1649347332.0641177,1f0b4c16-166e-4d86-a109-da5be967bc5e
-0.2047602138029965,-0.0013104250348426,-0.2377371476079493,0.9009399014805912,-0.2559612427789807,-0.6529599217295419,-0.8050509541612441,-0.8298757045821678,-20.914068795121143,27.65213451062074,20.682937566759847,-3.335346826842297,-0.1657298977259242,1.8298491548107525,4390.849826388889,11.920222222222224,0.14,179.00120519714795,-4.100985169666818,97.63690835300076,1553.0,1088.0,1200.0,1528.0,1471.0,995.0,110.0,294.54999999999995,1649347332.9787755,1649347334.1190288,d102ee04-722e-4006-821b-e7b962a5f7e6
-0.2005000358155302,0.0034006433381843,-0.2399050391729453,0.9126740161941674,-0.2547384138753594,-0.6646217238577559,-0.8077919107198582,-0.8255700527439149,-20.8769051488601,27.323429959032502,21.20192113305079,-3.3902072737516016,-0.1545110284848709,1.836607032604477,4388.352322048611,11.913666666666666,0.14,179.00808092091242,-4.083067638767236,97.666276648612,1553.0,1088.0,1200.0,1528.0,1471.0,995.0,110.0,294.54999999999995,1649347334.2332027,1649347335.3433857,d102ee04-722e-4006-821b-e7b962a5f7e6
-0.2021962177678573,0.0003331620257094,-0.2312942856381647,0.8965745346782448,-0.2565266367214782,-0.6536962490442643,-0.8047616825931647,-0.8369760050219797,-20.89898925891835,28.30907865312652,20.253941969108794,-3.322539274769357,-0.154912944522859,1.8207215118581768,4380.130533854167,11.90322222222222,0.14,179.00731745754516,-4.084894477210868,97.67474760100264,1553.0,1088.0,1200.0,1528.0,1471.0,995.0,110.0,294.54999999999995,1649347335.4514904,1649347336.776787,d102ee04-722e-4006-821b-e7b962a5f7e6
-0.1744656147591577,-0.0431627262641844,-0.3785860029976182,-0.0479225544929882,-0.4578463606208669,0.3062770178796931,-0.6458201770446049,-0.6766012862943743,-20.527977381277296,22.698319749669068,27.13026511941161,0.921957204581172,-0.2747644369595817,2.068118459069624,4371.938422309027,11.917888888888887,0.1366666666666666,179.01843093423471,-3.7925973380219498,97.63856581223934,1553.0,1435.0,1200.0,1528.0,1471.0,995.0,110.0,294.54999999999995,1649347337.4115295,1649347338.6252658,0a40d835-98a5-42be-a6b1-1bd075e851ff
-0.1966869134868595,-0.0488429632323974,-0.3775604044694318,-0.0492242754631008,-0.4613570633229729,0.3103531134550845,-0.6509218729574787,-0.6791915802747122,-20.73588874819517,23.423721341538474,26.72504382624293,0.9387436900242632,-0.2907681779764324,2.0770525198555534,4391.8505859375,11.958000000000002,0.16,179.02668483839176,-3.787330218670746,97.63723088971156,1553.0,1435.0,1200.0,1528.0,1471.0,995.0,110.0,294.54999999999995,1649347338.7347276,1649347339.8537283,0a40d835-98a5-42be-a6b1-1bd075e851ff
-0.1768323802915418,-0.0447405698596795,-0.3825174639327264,-0.0426893731798945,-0.4610414945713164,0.3064479509264343,-0.6513426314335302,-0.6830441503766395,-20.62747161839304,22.7967592172499,27.58251030869133,0.9110153533052412,-0.2848782325352975,2.0860749970524326,4403.134114583333,11.96,0.16,179.04005379532717,-3.79232465220571,97.65037900386385,1553.0,1435.0,1200.0,1528.0,1471.0,995.0,110.0,294.54999999999995,1649347339.9614718,1649347341.0755746,0a40d835-98a5-42be-a6b1-1bd075e851ff
-0.1160459530297329,-0.0052944800706897,-0.1735452059603261,-0.0636878419006245,-0.2721341411636052,0.2776391592139242,-0.4351254083587054,-0.4611072387300086,-19.10975870280793,22.4049842860274,27.866224939809936,0.9022630562150498,-0.1343615237947735,1.2422880899950757,4420.53955078125,11.96,0.15,179.00768173430097,-3.797373347799081,97.65941230849612,1553.0,1435.0,1200.0,1424.0,1471.0,995.0,110.0,294.54999999999995,1649347343.0178292,1649347344.1462831,87cebe35-12d2-4836-8978-7f5422d44fcc
-0.1244874165815893,-0.0162078981868186,-0.1759908636873852,-0.0597958276354091,-0.2743036763343232,0.2867380564800132,-0.4384783266356946,-0.4641445880018722,-19.273857808450405,22.76628427370496,28.123106681522945,0.916161731611455,-0.1770368648075131,1.252163484435633,4423.58251953125,11.969333333333331,0.1633333333333333,179.01594778101648,-3.797012154114847,97.68100557210217,1553.0,1435.0,1200.0,1424.0,1471.0,995.0,110.0,294.54999999999995,1649347344.255195,1649347345.2047846,87cebe35-12d2-4836-8978-7f5422d44fcc
-0.1245137139571591,-0.014182998927595,-0.1726642432399315,-0.0590332032258296,-0.2730676987157345,0.2813865374220993,-0.4372160515298874,-0.4656303913056877,-19.175222075324733,22.89526835521444,27.76003299297676,0.90342832913732,-0.166803285891948,1.243903934824474,4420.53955078125,11.967,0.15,179.0281647127119,-3.796118822289652,97.69561079327738,1553.0,1435.0,1200.0,1424.0,1471.0,995.0,110.0,294.54999999999995,1649347345.320819,1649347346.401781,87cebe35-12d2-4836-8978-7f5422d44fcc
-0.0411246782947378,0.0295232680695071,0.0527307170121892,-0.0632407862137799,-0.0691182536595323,0.2304879370072957,-0.2104535998209964,-0.235567612939125,-17.471436765773525,22.63508615530821,27.79631517848722,0.8089054649783515,-0.0004562835402374,0.342618886604946,4414.84814453125,11.96625,0.1575,179.0053177299382,-3.796141340569573,97.70464371845472,1553.0,1435.0,1200.0,1304.0,1471.0,995.0,110.0,294.54999999999995,1649347348.550994,1649347349.6804912,c1e3f479-92fd-4bcf-bec3-bde964409fa1
-0.0421371279619986,0.0286028593220777,0.0668392680557434,-0.0614525634223831,-0.0577183335420139,0.2281606178933884,-0.1986329207049275,-0.2264161188310992,-17.420187436808376,22.908537749815828,27.667694984697185,0.8021624257926302,-0.0024522726025681,0.2906766593828784,4418.514377170139,11.960666666666668,0.151111111111111,179.02025535365303,-3.8108410104544,97.71864978025776,1553.0,1435.0,1200.0,1304.0,1471.0,995.0,110.0,294.54999999999995,1649347349.78944,1649347350.9100788,c1e3f479-92fd-4bcf-bec3-bde964409fa1
-0.0373772997424987,0.0332706465285831,0.0605278938903116,-0.0725106174456672,-0.0676324509073444,0.2280554283280594,-0.2046550241864042,-0.2223531713025602,-17.217804712909114,22.95081473601456,26.80680980249589,0.8268009506169258,0.0222144485532493,0.3207351574558155,4405.896538628473,11.965,0.1544444444444444,179.0238040163818,-3.8020702886501954,97.7334060245046,1553.0,1435.0,1200.0,1304.0,1471.0,995.0,110.0,294.54999999999995,1649347351.0181286,1649347352.1367462,c1e3f479-92fd-4bcf-bec3-bde964409fa1
0.0045144474769399,0.0537563153404663,0.2483175682018755,-0.0554699064521225,0.10653518158991,0.1863609143076534,-0.0185220688300045,-0.0351420213673543,-16.078059760408962,23.04930774127088,27.39578156091921,0.7053393396318017,0.0955697434596783,-0.4332636172306848,4363.529622395833,11.960666666666668,0.15,178.99538891161473,-3.812018222016973,97.69460220200996,1553.0,1435.0,1200.0,1166.0,1471.0,995.0,110.0,294.54999999999995,1649347354.0733616,1649347355.1042554,b149996b-8d5b-46d6-b6d4-20877db131ce
0.0147178359345716,0.0592787677589974,0.2462795204158737,-0.055206932464678,0.106009233783285,0.1816010864794635,-0.01915320623473,-0.0359966866556844,-16.00763973951347,22.73225932204015,27.51587166414188,0.6919015233244125,0.114552570478424,-0.4278513000809824,4355.39990234375,11.95022222222222,0.1522222222222222,179.0011611803733,-3.7941182883408775,97.68992124569876,1553.0,1435.0,1200.0,1166.0,1471.0,995.0,110.0,294.54999999999995,1649347355.212476,1649347356.339366,b149996b-8d5b-46d6-b6d4-20877db131ce
0.0079725546484497,0.0571355302721022,0.2498165195206089,-0.0570477500075714,0.1023144501966903,0.1787478194943982,-0.0236237630661893,-0.0554830552543093,-16.036417706608084,23.557138279364143,26.557963653512875,0.6951194438480467,0.115672585061977,-0.4232602579768872,4357.61328125,11.952555555555554,0.1555555555555555,178.99993933542177,-3.8109629103583367,97.67677085481677,1553.0,1435.0,1200.0,1166.0,1471.0,995.0,110.0,294.54999999999995,1649347356.4475677,1649347357.7769177,b149996b-8d5b-46d6-b6d4-20877db131ce
-0.2532394622291181,-0.0782697466428972,-0.617274347692452,0.0010957863650194,-0.6759701485351378,0.3062507204834513,-0.9065326434629548,-0.9368009599045636,-22.28018006673592,23.549699672038752,26.729807332661977,0.8041377082631618,-0.4116385375279963,3.055810687194819,4362.048828125,11.952,0.16,179.03678896490388,-3.81510290620088,97.79918150512174,1553.0,1435.0,1200.0,1623.0,1471.0,995.0,110.0,294.54999999999995,1649347359.4425597,1649347360.4922526,13bb0d99-1cd4-4c8c-a558-eec865d89a38
-0.2826288250476499,-0.0758276290619082,-0.6183758042308996,0.0004095256045165,-0.6774185285174367,0.3051811246949742,-0.908911547356258,-0.9326677147955736,-22.354240215947502,23.57524806658948,26.81472045068624,0.8033729937139877,-0.4026924148958249,3.0630188560307325,4365.505099826389,11.95411111111111,0.16,179.04017825655205,-3.8052956557582567,97.7611798503996,1553.0,1435.0,1200.0,1623.0,1471.0,995.0,110.0,294.54999999999995,1649347360.6021516,1649347361.8690307,13bb0d99-1cd4-4c8c-a558-eec865d89a38
-0.2573807963642601,-0.0743357576912737,-0.6224215582899628,0.00249561686373,-0.682147003774773,0.304586904802988,-0.9145123893609638,-0.9370295448148231,-22.36127676232991,23.669115960265778,27.172680784480026,0.7978063204852083,-0.4007315104479603,3.0836086571942163,4381.379557291667,11.954333333333333,0.1566666666666666,179.04486224850288,-3.814820876306401,97.72487132368173,1553.0,1435.0,1200.0,1623.0,1471.0,995.0,110.0,294.54999999999995,1649347361.9772227,1649347363.0918667,13bb0d99-1cd4-4c8c-a558-eec865d89a38
-0.3436893569195182,-0.1129954552980857,-0.8411967375893841,0.0898626349980106,-0.8778947676142659,0.2718668818984538,-1.1673372072113857,-1.183575860792918,-24.29212972920404,24.889237197438824,26.75328792668473,0.5233574642133507,-0.5529509476730348,4.002053155795781,4416.99658203125,11.930777777777775,0.1455555555555555,179.05037041661353,-3.844153123697021,97.69324678891466,1553.0,1435.0,1200.0,1712.0,1471.0,995.0,110.0,294.54999999999995,1649347364.0100317,1649347365.158242,c5f6ed3d-21ac-4dd3-b755-06298e18aac3
-0.3418748365643317,-0.1093795636098107,-0.8363974610237304,0.0910854637246802,-0.8711494828657216,0.2702890384363988,-1.1603420952864472,-1.1843779312128786,-24.26287141418059,24.585627631832303,27.241329583493428,0.5153722692565286,-0.5437731963167258,3.9776459958726,4418.26123046875,11.910444444444444,0.13,179.06210012814816,-3.8459790609351376,97.59279140224174,1553.0,1435.0,1200.0,1712.0,1471.0,995.0,110.0,294.54999999999995,1649347365.2697592,1649347366.3802693,c5f6ed3d-21ac-4dd3-b755-06298e18aac3
-0.3459509331048347,-0.1114439090385674,-0.8375676956005382,0.0948196933992746,-0.8729377065082005,0.2697762393080857,-1.1634188927015174,-1.194515585002424,-24.290139681319104,24.77059740976527,27.35121864895073,0.5069681418288235,-0.552827505975295,3.985900444118968,4418.26123046875,11.913,0.1333333333333333,179.05819933122217,-3.855721472012514,97.5127643524664,1553.0,1435.0,1200.0,1712.0,1471.0,995.0,110.0,294.54999999999995,1649347366.4917734,1649347367.607114,c5f6ed3d-21ac-4dd3-b755-06298e18aac3
-0.3698421184133174,-0.1102736750025267,-0.9262951450861588,0.173107028989335,-0.953328880207736,0.1989836622297141,-1.2834665904207545,-1.2997972860329077,-24.83155951119056,25.458591173009165,26.88976281528788,0.1710873836508081,-0.555768534891253,4.386779945068112,4418.26123046875,11.906222222222222,0.1377777777777778,179.0782573200848,-3.871127011117348,97.31354594821494,1553.0,1435.0,1200.0,1801.0,1471.0,995.0,110.0,294.54999999999995,1649347369.4127016,1649347370.4817536,c9b69e84-aaf8-434e-8a36-6cc5b3ed5441
-0.3737078358013421,-0.1079463556305222,-0.921693098739836,0.1710295350554759,-0.9513302771310328,0.1985892013582071,-1.281586325061563,-1.3063058970202848,-24.886006231548564,25.690915845773752,26.90834652849844,0.1766321094970216,-0.546267549484384,4.375263757094675,4418.26123046875,11.88888888888889,0.13,179.09418835686887,-3.872013465321503,97.23577817323508,1553.0,1435.0,1200.0,1801.0,1471.0,995.0,110.0,294.54999999999995,1649347370.5910976,1649347371.6969793,c9b69e84-aaf8-434e-8a36-6cc5b3ed5441
-0.3776524454276281,-0.1157172355803951,-0.9241124602138782,0.1791422803218796,-0.9506596932502208,0.1993649743592078,-1.2822832066071994,-1.2979038720127858,-24.870062523041494,25.619556028254586,26.98694873822356,0.1595020437283378,-0.5773760064223966,4.377922619176713,4418.26123046875,11.885,0.13,179.08702728297908,-3.8908923927786336,97.16172905680334,1553.0,1435.0,1200.0,1801.0,1471.0,995.0,110.0,294.54999999999995,1649347371.8057797,1649347372.9270852,c9b69e84-aaf8-434e-8a36-6cc5b3ed5441
-0.2028668013118618,-0.0402042695119358,-0.4057249175576606,-0.006556755069071,-0.4495232341703281,0.292168467663594,-0.6551557548749439,-0.6752732675515222,-21.20472062612472,19.7542266246884,30.848059562888075,0.7763261964495685,-0.2986927291027542,2.1137666031957485,7485.9619140625,11.651222222222222,7.633333333333334,179.9018779578805,-4.002285853088633,84.27603456699023,1553.0,1435.0,1350.0,1528.0,1471.0,995.0,110.0,294.54999999999995,1649347378.0909653,1649347379.0713477,7948012e-564b-4d2e-a33f-c85fe6dee9f1
-0.1903623900256831,-0.0423212096816603,-0.4233178767642599,-0.0276078184021894,-0.4682469820062844,0.2953110058501602,-0.6680020357118426,-0.6865022588512585,-21.00420541195235,19.53923331896742,28.13020488619125,0.8282404046806523,-0.2824905712679116,2.1774949716169907,7485.9619140625,11.65277777777778,7.58888888888889,-179.87950074033972,-3.93259700610017,79.03646668107922,1553.0,1435.0,1350.0,1528.0,1471.0,995.0,110.0,294.54999999999995,1649347379.1800747,1649347380.505212,7948012e-564b-4d2e-a33f-c85fe6dee9f1
-0.2015782289458466,-0.0395599833732577,-0.4160860922823543,-0.0354049954857347,-0.4613176173788198,0.2987428153660058,-0.6574699261422827,-0.6800725435362537,-20.91882064761804,19.33515452341185,28.05242727158945,0.8525784739743084,-0.2706342902153754,2.1435032414377195,7492.50537109375,11.651777777777776,7.644444444444446,-179.78914948017896,-3.911354880622084,74.43559357900563,1553.0,1435.0,1350.0,1528.0,1471.0,995.0,110.0,294.54999999999995,1649347380.6137502,1649347381.732087,7948012e-564b-4d2e-a33f-c85fe6dee9f1
0.0220679571988274,0.3495362255819133,-0.3972571555846157,-0.2929616791804327,-0.5426423249541381,0.1760523368192251,-0.7056204701250679,-0.7247386822461513,-20.558839266900875,18.53441424582684,30.985852773085963,1.1541395251945563,1.1930571406009378,2.346700755537725,7499.060546875,11.646666666666668,7.672222222222222,-139.9614755576568,-3.704786765936842,66.84510645499235,1658.0,1435.0,1350.0,1528.0,1551.0,995.0,110.0,294.54999999999995,1649347383.417738,1649347384.3973453,be602d78-958d-468c-948b-01a87c4bf006
0.0294969706356461,0.3514164890094561,-0.4008336016259079,-0.291475876305014,-0.5467315706764037,0.1748032107174363,-0.7112744117850354,-0.7415821690717812,-20.63261229048856,18.629290082924555,31.228247917253785,1.1484333287726105,1.1980750242108884,2.365687440554506,7505.62744140625,11.619888888888887,7.699999999999999,179.93444885330257,-3.629406236935642,64.4205137608627,1658.0,1435.0,1350.0,1528.0,1551.0,995.0,110.0,294.54999999999995,1649347384.5058565,1649347385.8294744,be602d78-958d-468c-948b-01a87c4bf006
0.037057471014366,0.3525078307198772,-0.3941672113697472,-0.2889907724701174,-0.5423662023529187,0.1748952515842992,-0.7075927753984844,-0.7236604894022577,-20.67463234017968,18.90910323491101,31.755037211381733,1.14528404984898,1.1979180960834122,2.346165367387925,7505.62744140625,11.623,7.702222222222222,179.8290210889139,-3.597358420167512,62.25891674181449,1658.0,1435.0,1350.0,1528.0,1551.0,995.0,110.0,294.54999999999995,1649347385.938278,1649347387.056736,be602d78-958d-468c-948b-01a87c4bf006
0.2358657535014991,0.721355024431091,-0.3701839848037618,-0.5577764793140838,-0.6195885192853786,0.0730454525160099,-0.7455530770215191,-0.7731653521156236,-20.31459131834582,18.472112402897604,33.41618064761012,1.521472024799169,2.5986546466972795,2.517748399265426,7502.708821614583,11.591555555555557,7.698888888888888,179.17189921360566,-3.548559754187402,58.282077043069954,1767.0,1435.0,1350.0,1528.0,1630.0,995.0,110.0,294.54999999999995,1649347388.9923785,1649347390.3410866,5b2abaac-48ac-4188-8ea4-115b406f6568
0.2528265593479606,0.7253830765663268,-0.3786901814692261,-0.5605341661160058,-0.6253041584038435,0.0647749225891123,-0.7523281986177027,-0.7733155501927989,-20.297064194773984,18.03865261658821,32.387441225336644,1.505655532138776,2.62254886167846,2.545976944214114,7499.060546875,11.58,7.663333333333333,179.03368350556127,-3.519133449400087,57.02835597814395,1767.0,1435.0,1350.0,1528.0,1630.0,995.0,110.0,294.54999999999995,1649347390.4494526,1649347391.5648563,5b2abaac-48ac-4188-8ea4-115b406f6568
0.2406124326071852,0.7366469566918579,-0.384752743014236,-0.5706753541136439,-0.6348278634921015,0.0588448606846672,-0.7591356860579502,-0.7750850625042928,-20.097039194177807,17.940643215263243,31.73680425569742,1.5142513077051405,2.670008712849877,2.577441378056082,7505.62744140625,11.577,7.689999999999999,178.92608981229577,-3.500507523533462,56.19880673614867,1767.0,1435.0,1350.0,1528.0,1630.0,995.0,110.0,294.54999999999995,1649347391.6735897,1649347392.7947073,5b2abaac-48ac-4188-8ea4-115b406f6568
0.3895082591441508,0.9459741825237408,-0.3228749677310262,-0.789627526885196,-0.6480949027164878,0.0253682798712503,-0.7280916013312058,-0.7529163513008147,-19.673689075509674,18.436356310553936,27.82503187570819,1.938884205566984,3.5176754783292927,2.484949405926524,7509.281955295139,11.545222222222224,7.656666666666666,178.58883328491834,-3.412624522984032,55.130064269419535,1886.0,1435.0,1350.0,1528.0,1710.0,995.0,110.0,294.54999999999995,1649347393.4117508,1649347394.5779202,230a33c4-8d66-4c0d-9eeb-6e6983d65a59
0.3763727126007621,0.952903544919974,-0.3360894094506308,-0.7808047486503225,-0.6606913581433678,0.0156908391811274,-0.7451060212818337,-0.7722712405234823,-19.69109384275889,18.3977385568672,28.453235623209963,1.8964130635422365,3.536295580115725,2.546149397333204,7505.62744140625,11.511111111111113,7.66,178.53513281984388,-3.419966312295626,54.57983143952744,1886.0,1435.0,1350.0,1528.0,1710.0,995.0,110.0,294.54999999999995,1649347394.6852305,1649347395.638387,230a33c4-8d66-4c0d-9eeb-6e6983d65a59
0.3783055708080474,0.9447907999633824,-0.3272403355386825,-0.7776490593406052,-0.6523287843380805,0.0243558302398001,-0.7352970897508725,-0.7520353872315279,-19.68307678881875,18.64382564564288,29.03658256822261,1.910934983787968,3.5008175467052105,2.508504572838304,7505.62744140625,11.504666666666669,7.66,178.4357444605013,-3.426748998448598,54.05829109597369,1886.0,1435.0,1350.0,1528.0,1710.0,995.0,110.0,294.54999999999995,1649347395.7535286,1649347396.897246,230a33c4-8d66-4c0d-9eeb-6e6983d65a59
-0.4335227842452994,-0.4870910910252439,-0.4179087042833215,0.3025134565490707,-0.3580694818457853,0.4373887269232079,-0.6029892960202461,-0.6393631536425262,-21.539769963047338,22.08542027785421,29.83247235056584,0.4199853817156873,-2.0022035039774404,1.8775503422549733,7507.089246961806,11.545555555555556,7.681111111111111,179.0011611803733,-3.552980072377131,52.9908395349977,1449.0,1435.0,1350.0,1528.0,1386.0,995.0,110.0,294.54999999999995,1649347399.0269668,1649347400.1603956,f53379d9-6572-45df-a82e-c485d8cbf29f
-0.4424360851050374,-0.4961485221458304,-0.4486685688851266,0.2786516086527685,-0.3807949846043109,0.439854612979753,-0.6202985489847983,-0.6524865690914357,-21.39508366271108,21.006903636290225,25.62745137367324,0.4700743133224978,-1.9989598349061124,1.96838490955648,7512.20556640625,11.633,7.718888888888888,178.98456078505055,-3.546221932216488,52.63396442759426,1449.0,1435.0,1350.0,1528.0,1386.0,995.0,110.0,294.54999999999995,1649347400.2687275,1649347401.394029,f53379d9-6572-45df-a82e-c485d8cbf29f
-0.4440543865662412,-0.4875335953156638,-0.4226624647768895,0.3113256111237379,-0.3570959724312701,0.4266801261612127,-0.6072120518508571,-0.6294763422118966,-21.676891221693168,21.662976674940804,29.373609384545112,0.3728643602594098,-2.00021925493234,1.888170614092692,7512.20556640625,11.637888888888888,7.720000000000001,178.9269306844736,-3.5416524170820765,52.383791673769615,1449.0,1435.0,1350.0,1528.0,1386.0,995.0,110.0,294.54999999999995,1649347401.5020945,1649347402.5609992,f53379d9-6572-45df-a82e-c485d8cbf29f
-0.6801908816623918,-0.9019305972118328,-0.4613439148927302,0.5995323655337703,-0.2959990283324076,0.5411916058647909,-0.5892676156981523,-0.6225206800701567,-22.100647850821016,23.54773198903079,25.560662187282283,-0.0101898033235684,-3.555571316943789,1.7780696245076422,7512.20556640625,11.621666666666666,7.71,179.0351907006381,-3.568269261106728,51.86540801597729,1342.0,1435.0,1350.0,1528.0,1293.0,995.0,110.0,294.54999999999995,1649347404.5564315,1649347405.7000797,37d18ea6-da49-4b1e-8eb8-4387e5de7ff6
-0.6828732167168092,-0.8993928974695844,-0.4638684651094146,0.6002029489828087,-0.2969325858333572,0.5366421573865333,-0.5919368017886749,-0.622652166295018,-22.16806957160256,23.369262190389144,25.33782666442276,-0.0233039567257426,-3.5438468529479485,1.7866075051723211,7512.20556640625,11.590666666666667,7.695555555555554,179.03220059560147,-3.551041460733644,51.75666077965197,1342.0,1435.0,1350.0,1528.0,1293.0,995.0,110.0,294.54999999999995,1649347405.8317368,1649347406.9237473,37d18ea6-da49-4b1e-8eb8-4387e5de7ff6
-0.6821631868655272,-0.9092412763747862,-0.4694172162962111,0.6048181409251719,-0.3014162919630844,0.5444130361398937,-0.5962101295192421,-0.6193912889186748,-22.15943134307395,23.53743143789623,25.63482354786407,-0.0153622820952976,-3.5843948148579847,1.805567062455076,7513.669867621527,11.586888888888888,7.690000000000001,178.9997663039628,-3.548562955838575,51.65327182673054,1342.0,1435.0,1350.0,1528.0,1293.0,995.0,110.0,294.54999999999995,1649347407.0322485,1649347408.1516037,37d18ea6-da49-4b1e-8eb8-4387e5de7ff6
-0.9303975406626048,-1.3300787616356673,-0.493019131895905,0.9012028754496936,-0.2264818624145412,0.6653941786478073,-0.5680456133555749,-0.5900039430087873,-22.937084399476568,25.987973594660648,23.006804087537176,-0.3978134976675105,-5.171941124931159,1.64199658022412,7518.794921875,11.562666666666669,7.67,179.13783933694447,-3.588853032239815,51.51776504760197,1227.0,1435.0,1350.0,1528.0,1189.0,995.0,110.0,294.54999999999995,1649347409.0643897,1649347410.1974757,37ede2e8-b949-45fa-9b08-7e65deea138e
-0.9294113878591632,-1.3292240955566867,-0.5007111213031278,0.893247914865978,-0.235791140480364,0.6602398902218077,-0.5760137257553227,-0.6018377734500312,-22.823254487275527,25.97701242960667,21.292050705380326,-0.3921231450046085,-5.153851842765692,1.6742053350788706,7512.20556640625,11.505666666666666,7.642222222222222,179.13389148760427,-3.5896205273159256,51.49936945089236,1227.0,1435.0,1350.0,1528.0,1189.0,995.0,110.0,294.54999999999995,1649347410.306363,1649347411.4283917,37ede2e8-b949-45fa-9b08-7e65deea138e
-0.9152370852244696,-1.3266206512800731,-0.5020917346809329,0.9075273978239734,-0.2331219547910069,0.6478669682597921,-0.579261454688592,-0.6029817104277742,-22.910122843711,25.724006207017183,21.75044077177921,-0.4538543792103601,-5.149385134904523,1.678205638638841,7512.20556640625,11.50025,7.65625,179.13579141855837,-3.578742342342737,51.42354785293913,1227.0,1435.0,1350.0,1528.0,1189.0,995.0,110.0,294.54999999999995,1649347411.537152,1649347412.65296,37ede2e8-b949-45fa-9b08-7e65deea138e
-0.1969367387431757,-0.0422028714034475,-0.4338105387213932,-0.0238209938852391,-0.4742033429532032,0.2995974805705234,-0.6765618401798287,-0.6964558253270762,-21.214237422922466,19.24842804529577,29.18239037898089,0.8269422892628355,-0.2910220191457066,2.213601749988386,7512.20556640625,11.603,7.703333333333335,178.68588571956474,-3.505971603721668,51.4614774586519,1553.0,1435.0,1350.0,1528.0,1471.0,995.0,110.0,294.54999999999995,1649347413.5678797,1649347414.9166472,b076e92c-ae35-489f-a314-f4c3b5bf2ce7
-0.19382049748012,-0.0452796664414542,-0.4246590441196074,-0.0169573741612985,-0.4666822867867101,0.2984798414621989,-0.6716836720405028,-0.6958772824285794,-21.34544145469412,19.644567350430044,29.543154272088483,0.8120213621874535,-0.3050888668882351,2.183880210010686,7513.669867621527,11.651444444444444,7.73,178.73350731627792,-3.5042189961533907,51.45062580588056,1553.0,1435.0,1350.0,1528.0,1471.0,995.0,110.0,294.54999999999995,1649347415.0251448,1649347416.139941,b076e92c-ae35-489f-a314-f4c3b5bf2ce7
-0.1894945759950832,-0.0399675929796527,-0.4248694235517967,-0.0322361596957269,-0.4696538930935769,0.3066057352240559,-0.6688041066934401,-0.6942336949330198,-21.22057774856749,19.55825644561276,29.4488723923404,0.8642117105248148,-0.2833471535729719,2.1846130911829262,7518.794921875,11.653555555555556,7.685555555555556,178.74940799666572,-3.522888583055648,51.47276814080488,1553.0,1435.0,1350.0,1528.0,1471.0,995.0,110.0,294.54999999999995,1649347416.2487605,1649347417.3710392,b076e92c-ae35-489f-a314-f4c3b5bf2ce7
-0.1654061622846901,-0.035996686581198,-0.4708372758565912,-0.4005837765485578,-0.5517806714561607,0.6632509413693299,-0.6155518679942183,-0.6447551327613583,-21.240196316762976,18.68234823937627,32.520293933635806,2.488927420111697,-0.2531144123320048,2.28524064596776,7518.794921875,11.652,7.73,178.7651432346936,-3.4154516995498545,51.63328631376413,1553.0,1522.0,1350.0,1528.0,1471.0,995.0,110.0,294.54999999999995,1649347419.5072844,1649347420.6558526,de093242-0263-4053-92ce-2bb6306e3af1
-0.2019666212583687,-0.0458132001070701,-0.4827924780328105,-0.4025221982580454,-0.5598261588170258,0.6658473029051267,-0.6232559951935748,-0.6443192024047065,-21.23405183326671,18.44232148445516,31.196260945178683,2.4967399744660024,-0.2787642301792202,2.320494763969338,7525.396484375,11.64922222222222,7.711111111111112,178.75789868071394,-3.414395154662619,51.71935732204499,1553.0,1522.0,1350.0,1528.0,1471.0,995.0,110.0,294.54999999999995,1649347420.7707455,1649347421.8784606,de093242-0263-4053-92ce-2bb6306e3af1
-0.1909540813519019,-0.0393890503244818,-0.4776877482305755,-0.4049754419417363,-0.5583813188932994,0.6593457789626956,-0.620627266402558,-0.6465565043737779,-21.07579279103585,18.56972114595693,30.873287308729704,2.488791007690012,-0.2522995539783568,2.308184455287681,7525.396484375,11.647,7.713333333333334,178.76569420328664,-3.450837036080856,51.765008788637545,1553.0,1522.0,1350.0,1528.0,1471.0,995.0,110.0,294.54999999999995,1649347421.9869125,1649347423.1013553,de093242-0263-4053-92ce-2bb6306e3af1
-0.162802720245922,-0.0338140029383157,-0.5088764636814639,-0.76489481785085,-0.6271753195048886,1.0110470756536376,-0.5544761548044813,-0.5769867300679242,-20.97077048272641,17.82823732172096,34.67247179189513,4.085190814452568,-0.2234811294393046,2.3534678881959623,7512.20556640625,11.645333333333332,7.731111111111113,178.80751165702512,-3.3440891479075887,51.92142391518038,1553.0,1613.0,1350.0,1528.0,1471.0,995.0,110.0,294.54999999999995,1649347425.0366604,1649347426.071988,fc8ca13f-8f14-4861-94df-84bf3a40a3c9
-0.1664317607055636,-0.0341953151421757,-0.5105989433352012,-0.7664332161960514,-0.6299496953878946,1.015175766055957,-0.5579211142819689,-0.5886101806952231,-21.11343201805058,18.02617650110228,34.98319800848748,4.099142896935828,-0.2265719467233906,2.364697125828165,7517.330620659723,11.62411111111111,7.722222222222222,178.814523984573,-3.376233369949942,51.95547961783701,1553.0,1613.0,1350.0,1528.0,1471.0,995.0,110.0,294.54999999999995,1649347426.1852047,1649347427.3024209,fc8ca13f-8f14-4861-94df-84bf3a40a3c9
-0.1664580581082538,-0.0393890503233295,-0.5120715978241202,-0.7681688447969076,-0.6298576545461101,1.0172927059815022,-0.5571584897383152,-0.5825617789494357,-21.11452238557851,17.93461766686614,34.33226731582685,4.107030502583289,-0.2401559299474208,2.3639684121203657,7512.20556640625,11.625999999999998,7.73,178.87818741891675,-3.3956437003540603,51.98028382926287,1553.0,1613.0,1350.0,1528.0,1471.0,995.0,110.0,294.54999999999995,1649347427.4135826,1649347428.532838,fc8ca13f-8f14-4861-94df-84bf3a40a3c9
-0.1556629776011765,-0.0454243020967304,-0.5650082637582843,-1.126576218134687,-0.7193477145741427,1.3743192484096804,-0.5148459732044843,-0.5348845921943916,-21.23012798526785,17.527176909030853,37.29135915408182,5.712872675209483,-0.2474351150677675,2.498158702107207,7512.20556640625,11.612666666666668,7.713333333333334,178.93011507044665,-3.340251506515491,52.0789345281751,1553.0,1710.0,1350.0,1528.0,1471.0,995.0,110.0,294.54999999999995,1649347430.4644554,1649347431.601325,7725ee0b-09f1-424f-be62-11cc98e52eeb
-0.1563861559721732,-0.044201473298678,-0.5627992820752286,-1.1155444535768928,-0.7148771560306172,1.3683234426701214,-0.5153324751160538,-0.5447724141843895,-21.4040293329524,17.503868786134827,38.06082303153811,5.674504940754536,-0.2496562755163903,2.490969133227092,7512.20556640625,11.6,7.73,178.92595776197183,-3.332978208823074,52.14283208622541,1553.0,1710.0,1350.0,1528.0,1471.0,995.0,110.0,294.54999999999995,1649347431.7091644,1649347433.0496466,7725ee0b-09f1-424f-be62-11cc98e52eeb
-0.1584767988392624,-0.0478568109834227,-0.5661390520882051,-1.1225790115498984,-0.7214120608589815,1.369362189719176,-0.5193165312034904,-0.5441807235325146,-21.276588369360297,17.761997698228296,36.74728782931019,5.694107018304342,-0.2519674219741651,2.5077214111265884,7512.20556640625,11.600333333333332,7.708888888888889,178.93784229112765,-3.331807234551305,52.09444854396486,1553.0,1710.0,1350.0,1528.0,1471.0,995.0,110.0,294.54999999999995,1649347433.1580029,1649347434.2624671,7725ee0b-09f1-424f-be62-11cc98e52eeb
-0.1420014811864414,-0.0407565147766019,-0.5556463897025311,-1.3250691050507866,-0.7388866857780562,1.5610044520121469,-0.4631584354986569,-0.4849721278072825,-21.43596947293479,18.066433307975306,38.72543781480086,6.584296515886465,-0.2161400209248309,2.438899951251523,7512.20556640625,11.585333333333333,7.701111111111111,178.96264194909406,-3.2879125020996565,52.13416912962811,1553.0,1814.0,1350.0,1528.0,1471.0,995.0,110.0,294.54999999999995,1649347436.6077893,1649347437.7626388,1382e668-8b99-47c9-b360-9087a02b05e3
-0.143224310023474,-0.0287517547479018,-0.5585916982540745,-1.3176006384564594,-0.7464340404016088,1.545410096506611,-0.4695355546094965,-0.4862869976372598,-20.902315549556047,18.1278819660052,39.11865837906983,6.532998889322104,-0.1794822500264146,2.4646948013814343,7512.20556640625,11.547,7.699999999999999,178.98225066329127,-3.288769240237736,52.12629088587546,1553.0,1814.0,1350.0,1528.0,1471.0,995.0,110.0,294.54999999999995,1649347437.8755696,1649347438.9843636,1382e668-8b99-47c9-b360-9087a02b05e3
-0.140726057558207,-0.0356548204739865,-0.5547128316189529,-1.320125190448072,-0.7394652283018285,1.5575068984218563,-0.4631584353531387,-0.4834205812095442,-21.2369497608347,18.085468595710864,39.58781188556156,6.565695106940276,-0.2066065739912548,2.4404237281135805,7512.20556640625,11.56077777777778,7.704444444444444,178.9819546884272,-3.2686517480951744,52.10943208172909,1553.0,1814.0,1350.0,1528.0,1471.0,995.0,110.0,294.54999999999995,1649347439.098425,1649347440.2023065,1382e668-8b99-47c9-b360-9087a02b05e3
-0.2110978860026206,-0.0394547937960724,-0.3768766724799341,0.3303128329063236,-0.3890392187908293,-0.0416637749168462,-0.7218854139340395,-0.7527848632498894,-21.29172837954616,20.716405194172623,27.4384917797126,-0.7265071379084099,-0.3046777205561854,2.084850423699846,7505.62744140625,11.595,7.712222222222222,179.0055810716762,-3.805392369339629,52.178700824651735,1553.0,1349.0,1350.0,1528.0,1471.0,995.0,110.0,294.54999999999995,1649347441.1137934,1649347442.2491434,de6cfe7b-9f09-44bc-8776-960d4cf02624
-0.2165808929149802,-0.0350631291168559,-0.3664497544006614,0.3380705631634739,-0.3812420403892891,-0.0386527233879266,-0.7160736878496756,-0.7384133319705757,-21.427802756350733,21.098676442574583,29.551147267968453,-0.7339188555609957,-0.3062552677665176,2.055069763494791,7505.62744140625,11.653555555555554,7.739999999999999,178.9938301106641,-3.838635706371859,52.31931430854974,1553.0,1349.0,1350.0,1528.0,1471.0,995.0,110.0,294.54999999999995,1649347442.3593662,1649347443.4797063,de6cfe7b-9f09-44bc-8776-960d4cf02624
-0.2129280835634233,-0.0354206725378669,-0.3881471301588921,0.3032973210940151,-0.4018647631320358,-0.0368114001142937,-0.7250572853909701,-0.7494582414795328,-20.926403806372875,20.22557326455039,25.10350884381356,-0.6586661204251535,-0.2688347191482372,2.1196131160860943,7505.62744140625,11.650666666666668,7.739999999999999,179.00667845540283,-3.8522714201398816,52.448215156386034,1553.0,1349.0,1350.0,1528.0,1471.0,995.0,110.0,294.54999999999995,1649347443.58789,1649347444.912913,de6cfe7b-9f09-44bc-8776-960d4cf02624
-0.221406464957964,-0.0363254039993819,-0.3360894094545436,0.653113297550305,-0.3237953764360334,-0.3639777989254547,-0.7798448918365082,-0.8127429458408203,-21.49160851783148,22.273346124158685,24.22916922710813,-2.167208663820141,-0.3002133055926455,2.020814125663228,7512.20556640625,11.64622222222222,7.735555555555556,179.0373171661997,-3.9907507545134737,52.66108103750911,1553.0,1264.0,1350.0,1528.0,1471.0,995.0,110.0,294.54999999999995,1649347446.029672,1649347447.1667836,87616126-b86d-41a1-b907-8b09c5e4ea44
-0.2147532239737684,-0.0400464851600346,-0.3359447738919513,0.6582018425004837,-0.3217310308896102,-0.3613217617119147,-0.776781244341024,-0.8041699911644509,-21.3603221301782,22.135783040638287,24.767533516276966,-2.173471520079524,-0.3204900168880483,2.0139452281198515,7512.20556640625,11.622888888888887,7.712222222222222,179.0444478836932,-4.002419658391748,52.74637909604891,1553.0,1264.0,1350.0,1528.0,1471.0,995.0,110.0,294.54999999999995,1649347447.2746537,1649347448.4009848,87616126-b86d-41a1-b907-8b09c5e4ea44
-0.2211829371084014,-0.0343005047224967,-0.3356160564467092,0.6573340286343091,-0.3218888152567432,-0.3661341855997949,-0.7785037243152263,-0.7985949416994614,-21.443199508977923,22.10411976859312,24.765624419427446,-2.1825636580588834,-0.2982084423233689,2.016804502130136,7512.20556640625,11.625333333333334,7.724444444444446,179.00231472343313,-3.9633640201033153,52.87491680549434,1553.0,1264.0,1350.0,1528.0,1471.0,995.0,110.0,294.54999999999995,1649347448.5093005,1649347449.6266594,87616126-b86d-41a1-b907-8b09c5e4ea44
-0.2247593829003941,-0.0262403536915175,-0.2957097574417135,0.9810417529589224,-0.2607473691912056,-0.6916828466235383,-0.8403683697853199,-0.8744235108839077,-21.53650982454036,23.873276786019407,21.880297002788232,-3.631112169609411,-0.2790404630375077,1.9661657671569623,7512.20556640625,11.619999999999996,7.714444444444445,179.0339111785336,-4.093645277629992,53.00070953780333,1553.0,1178.0,1350.0,1528.0,1471.0,995.0,110.0,294.54999999999995,1649347450.540548,1649347451.681549,b11e1111-7240-4dfb-8351-b4b62f6b9165
-0.2206043944350111,-0.0230189230181159,-0.2903187909869176,0.9920472109329,-0.2554615924981488,-0.693918125882665,-0.8399870571890509,-0.8588291483458182,-21.77553310147068,24.11123689027561,23.47159068257283,-3.658981513796817,-0.2803792004023174,1.9535408114192807,7512.20556640625,11.616666666666667,7.7266666666666675,179.0368193213002,-4.094265686479602,53.042854461166975,1553.0,1178.0,1350.0,1528.0,1471.0,995.0,110.0,294.54999999999995,1649347451.789813,1649347452.9063652,b11e1111-7240-4dfb-8351-b4b62f6b9165
-0.2341607017282605,-0.0280811712121714,-0.2797340889243589,1.000081063858597,-0.2416554597328954,-0.6920773076998503,-0.8302307197065862,-0.8477710898280164,-22.09709989313801,24.13409328472056,24.15916952371047,-3.672341052637961,-0.3035014701244258,1.90661071795648,7512.20556640625,11.616333333333332,7.714444444444445,179.01653669510492,-4.102108925512762,53.023795577197966,1553.0,1178.0,1350.0,1528.0,1471.0,995.0,110.0,294.54999999999995,1649347453.0157478,1649347454.129413,b11e1111-7240-4dfb-8351-b4b62f6b9165
-0.2266922414689091,-0.0354312926305692,-0.2501626674569621,1.1430468307278518,-0.205496541248849,-0.8375939933456716,-0.8424327161015738,-0.866757816623563,-21.60126437609417,25.08724804803296,21.218454505130488,-4.314260356795205,-0.3242261237807504,1.8305970139540744,7512.20556640625,11.606333333333334,7.706666666666667,179.0801242384579,-4.167831377300086,53.19512062724399,1553.0,1088.0,1350.0,1528.0,1471.0,995.0,110.0,294.54999999999995,1649347456.070263,1649347457.2049644,f2617699-7144-4785-9d75-ebe2ab8cbf34
-0.2273233789782743,-0.0263060971827618,-0.2568159083899111,1.1403513481339806,-0.2140037484236351,-0.8492437441729217,-0.8524520275219908,-0.8827729367289695,-21.555603218101687,25.047167340208524,20.41707759282761,-4.33506030035366,-0.2833122760143062,1.8655172277293628,7518.062771267361,11.568333333333335,7.672222222222222,179.06123952431275,-4.177261212359197,53.27091258027893,1553.0,1088.0,1350.0,1528.0,1471.0,995.0,110.0,294.54999999999995,1649347457.3144443,1649347458.4304025,f2617699-7144-4785-9d75-ebe2ab8cbf34
