raw_voltage_G-,raw_voltage_G0,raw_voltage_G1,raw_voltage_G2,raw_voltage_G3,raw_voltage_G4,raw_voltage_G5,raw_voltage_G6,load_x,load_y,load_z,load_l,load_m,load_n,rpm,voltage,current,roll,pitch,yaw,aileron1_pwm,elevator_pwm,throttle_pwm,rudder_pwm,aileron2_pwm,pbaro,pdiff,Tt,sample_start_time,sample_end_time,uid
0.0020424925614225,0.1245883412305023,-0.0188244888198548,-0.1018716576269525,-0.1792122945405047,0.1720156872511257,-0.2969983292198631,-0.3240846476276988,-14.561170997930104,22.8929290945584,27.04177506091298,0.7641432697995707,0.3424093057237752,0.7253591742940684,4640.453667534723,11.964777777777776,0.15,179.636010567708,-4.355210312671524,101.98603130700636,1553.0,1435.0,1200.0,1528.0,1471.0,995.0,110.0,294.54999999999995,1649344713.0960262,1649344714.079522,2cb2ce4a-4517-495d-ac17-cd4e4d0cd6db
-0.0157476938372487,0.1218271150744123,-0.0202708454388561,-0.0994260000101417,-0.1801590007494064,0.1725679324631688,-0.2984841321103934,-0.3195614957437029,-14.566242748250149,22.93636998485202,27.04403202643076,0.7600811969243003,0.3316768546330342,0.730404774999747,4649.119791666667,11.965666666666667,0.1566666666666666,179.68322083525112,-4.341122952644635,101.60072363990798,1553.0,1435.0,1200.0,1528.0,1471.0,995.0,110.0,294.54999999999995,1649344714.1886806,1649344715.3031623,2cb2ce4a-4517-495d-ac17-cd4e4d0cd6db
0.0078147703077564,0.1225239959605623,-0.019048016654752,-0.102226672443597,-0.1797513911265749,0.1726205272565412,-0.2968668422209537,-0.3128819571333889,-14.511207567716577,22.9354498472914,26.79275947496172,0.7665594533057402,0.3365504064031608,0.725624302907156,4650.80078125,11.964333333333334,0.15,179.70767594811943,-4.322077681622092,101.1782278695086,1553.0,1435.0,1200.0,1528.0,1471.0,995.0,110.0,294.54999999999995,1649344715.4106357,1649344716.5298889,2cb2ce4a-4517-495d-ac17-cd4e4d0cd6db
0.2198637909263537,0.5303965272650998,0.0158223264239602,-0.3195614953912319,-0.2452450539575224,-0.0194687749485449,-0.3458851895695144,-0.3746939885909883,-13.8679965029545,22.06966137653469,27.800032663176747,0.8216444914516619,1.881794935703209,0.8867614304371032,4660.9169921875,11.93888888888889,0.14,179.4185085059583,-4.295966247880087,100.49958406812569,1658.0,1435.0,1200.0,1528.0,1551.0,995.0,110.0,294.54999999999995,1649344718.4805317,1649344719.6110108,6df5b569-038e-48a0-b6a6-1690fb063ba8
0.2069123256919401,0.5194962590860228,0.0087088816549638,-0.3110937336848749,-0.2490450276399624,-0.015800288598334,-0.3515391299150325,-0.3764822120829633,-13.910403314257763,22.09280176837779,27.86246396174284,0.8105746781049408,1.839165995954864,0.9084877596053867,4665.14501953125,11.938666666666666,0.1466666666666666,179.4035792302525,-4.269302232861481,100.2588783359456,1658.0,1435.0,1200.0,1528.0,1551.0,995.0,110.0,294.54999999999995,1649344719.718824,1649344720.8327255,6df5b569-038e-48a0-b6a6-1690fb063ba8
0.2162610483270698,0.5307252446407975,0.0191883927002166,-0.3189040604500744,-0.2420630690895902,-0.0195608158137261,-0.3425980149454967,-0.3669362561498648,-13.862453510091136,22.080742746587035,27.944162551788203,0.8202214838912097,1.8818438084859923,0.8734070470337335,4665.709147135417,11.934555555555557,0.1411111111111111,179.36632586069942,-4.238896839429391,100.07074836435667,1658.0,1435.0,1200.0,1528.0,1551.0,995.0,110.0,294.54999999999995,1649344720.9427006,1649344722.067814,6df5b569-038e-48a0-b6a6-1690fb063ba8
0.4137281557114957,0.8866209724184465,0.0458408001736932,-0.5206839958205918,-0.3080563843956239,-0.1864835242139189,-0.392747151546629,-0.4069608950850393,-13.350539029376463,21.748817257552272,27.284716361741,0.8995692710256478,3.2454180407452413,1.039222174342669,4663.45263671875,11.904666666666666,0.14,178.99831223257948,-4.17512540271936,99.65622721926826,1767.0,1435.0,1200.0,1528.0,1630.0,995.0,110.0,294.54999999999995,1649344723.996835,1649344725.1331863,24871fc8-32ea-4626-8dc9-ef396309462a
0.4277972595300696,0.8907102166086489,0.0470899263291781,-0.5216832970075554,-0.3078065591152619,-0.188206003586219,-0.3923395418857792,-0.4133380149091945,-13.331584297234366,21.74776341726941,27.4847990176282,0.8980494563047711,3.259049913662756,1.037380781486449,4656.699869791667,11.908888888888889,0.14,178.9619073243033,-4.15072203802042,99.51778156152184,1767.0,1435.0,1200.0,1528.0,1630.0,995.0,110.0,294.54999999999995,1649344725.2409909,1649344726.3087852,24871fc8-32ea-4626-8dc9-ef396309462a
0.4238395022856517,0.8890929271070571,0.0510213865016994,-0.5204473192188985,-0.3045325332730966,-0.1881928548871987,-0.3889997724072164,-0.4121283344854343,-13.318470004286624,21.85275058555904,27.449873994855288,0.8961837073549119,3.2532996533861045,1.022539275594607,4653.326171875,11.906333333333334,0.14,178.92812217302884,-4.142888664816062,99.40130406887586,1767.0,1435.0,1200.0,1528.0,1630.0,995.0,110.0,294.54999999999995,1649344726.4176185,1649344727.3978815,24871fc8-32ea-4626-8dc9-ef396309462a
0.5141184428104899,1.045023304639909,0.0826308521490923,-0.6273068063593038,-0.3241372423896448,-0.2690573458458142,-0.4008730474559485,-0.4176507876332948,-13.272920606731038,22.648815064562584,23.75385774682001,0.9618041312471368,3.885742747712529,1.0354822977105274,4634.874620225694,11.856555555555556,0.13,178.6678479488767,-4.087514898258691,99.10749058025934,1886.0,1435.0,1200.0,1528.0,1710.0,995.0,110.0,294.54999999999995,1649344729.525575,1649344730.6672404,2980d27a-b1f3-404e-b6fc-678782ca9884
0.5147232827829987,1.0434849072700312,0.0887844419148748,-0.6267808582777371,-0.3189566552560265,-0.2700566468913447,-0.3932993969235404,-0.4087096724576499,-13.054788254517874,22.64788175621929,23.518205060202003,0.9587446168980116,3.8808428523717033,1.0088938921445234,4608.022135416667,11.856666666666667,0.1277777777777777,178.61336884223684,-4.054149281867571,98.90856283850252,1886.0,1435.0,1200.0,1528.0,1710.0,995.0,110.0,294.54999999999995,1649344730.7760484,1649344731.8918965,2980d27a-b1f3-404e-b6fc-678782ca9884
0.5125011533155444,1.048376221985284,0.0915062220154746,-0.6303967510556537,-0.3171815809958175,-0.2726995351914725,-0.3910378207150657,-0.4091304308220165,-13.047544503817832,22.586377839079447,23.370448134770115,0.9606701648030428,3.90106324993796,0.9999281433711766,4598.40478515625,11.854,0.12,178.58245388823354,-4.038555959992432,98.77504705951704,1886.0,1435.0,1200.0,1528.0,1710.0,995.0,110.0,294.54999999999995,1649344732.000455,1649344733.128008,2980d27a-b1f3-404e-b6fc-678782ca9884
-0.2424312326158455,-0.3136314324413036,-0.0591515414975846,0.1454816190401513,-0.1180051088883343,0.3652226190511464,-0.2582754135450351,-0.2835998058458088,-15.157343634118776,24.668346980359203,25.82415524746109,0.6496039006177525,-1.319150876762858,0.5881110566001843,4587.741102430556,11.95188888888889,0.1555555555555555,179.49077038955724,-4.046263116992752,98.4339003599523,1449.0,1435.0,1200.0,1528.0,1386.0,995.0,110.0,294.54999999999995,1649344735.0556917,1649344736.1933146,c51e3106-46df-41fd-a7f8-0ee4ddcf3d62
-0.2635743388074097,-0.3038356522667475,-0.0537079810415909,0.142325932011965,-0.1144681093771969,0.3603050070112097,-0.2546858190229643,-0.2797077914115354,-15.158125784218145,24.618379506499405,26.111647872348293,0.6456570733609387,-1.2842204714309966,0.5723456101894706,4600.324544270833,11.95377777777778,0.15,179.5053141390299,-4.025293203012215,98.27022701905148,1449.0,1435.0,1200.0,1528.0,1386.0,995.0,110.0,294.54999999999995,1649344736.3016117,1649344737.420842,c51e3106-46df-41fd-a7f8-0ee4ddcf3d62
-0.2667300263433202,-0.3191012909274957,-0.0593093258579759,0.1474407747393623,-0.1154937077485133,0.3708502606260832,-0.2563162575555854,-0.2849015270386906,-15.274669479645604,24.585754900049448,26.127108735636966,0.6572644515986152,-1.3417734547569102,0.5818505565643831,4606.917860243056,11.955444444444446,0.1544444444444444,179.4831888795785,-3.9998098620826337,98.12758383060512,1449.0,1435.0,1200.0,1528.0,1386.0,995.0,110.0,294.54999999999995,1649344737.5292313,1649344738.856088,c51e3106-46df-41fd-a7f8-0ee4ddcf3d62
-0.5003692548202601,-0.7493136055637233,-0.0975720337203126,0.3784896525586678,-0.055180635060927,0.5785996431447777,-0.2129518523682061,-0.2368561849894981,-15.916648143005215,26.333885659788333,25.98359148789228,0.6122527016286864,-2.98035851134791,0.4387178694717515,4614.08251953125,11.909333333333333,0.14,179.57807690316795,-3.9644849774689743,97.8126688520028,1342.0,1435.0,1200.0,1528.0,1293.0,995.0,110.0,294.54999999999995,1649344740.4797952,1649344741.7234533,f0498909-680d-4814-bb0c-385738618bf5
-0.5068910098295669,-0.7486035756914841,-0.0993865539130231,0.382394815044347,-0.0568110734710237,0.5768114206245041,-0.2166071903066288,-0.2407744969510079,-15.991011751255389,26.40483942074876,26.317767917461754,0.5998210840323405,-2.980725574221274,0.4491267545658732,4637.660590277777,11.915444444444445,0.14,179.5729375652725,-3.96089780006238,97.56717363939477,1342.0,1435.0,1200.0,1528.0,1293.0,995.0,110.0,294.54999999999995,1649344741.8324368,1649344742.9565718,f0498909-680d-4814-bb0c-385738618bf5
-0.4985284368201915,-0.744369693669832,-0.0983215094461343,0.3757547239580428,-0.0562851255900789,0.5781788849058194,-0.2147795213311723,-0.2375004711902587,-16.025473769452294,26.30082411154116,26.24529826208169,0.6172069801862033,-2.963076440595675,0.4447268673577306,4649.680121527777,11.910111111111112,0.14,179.57429601400742,-3.946398019932481,97.38508686740148,1342.0,1435.0,1200.0,1528.0,1293.0,995.0,110.0,294.54999999999995,1649344743.065767,1649344744.181137,f0498909-680d-4814-bb0c-385738618bf5
-0.7519696434684237,-1.1598161469793582,-0.150903149201049,0.5837276341843313,-0.0176279574466772,0.779025200669622,-0.1951090698082097,-0.2180929936105036,-17.055094605691988,28.4870035657276,24.008144424189503,0.6103988702845684,-4.523040224742574,0.3825243048516916,4660.9169921875,11.877222222222224,0.1266666666666666,179.7064799061048,-3.929770208989301,97.06071435352838,1227.0,1435.0,1200.0,1528.0,1189.0,995.0,110.0,294.54999999999995,1649344745.0922325,1649344746.227934,d0e068eb-49da-46af-a81a-8438a04fe38e
-0.7494582414088593,-1.15931649613014,-0.1471952165754118,0.5810453004121241,-0.0149850694309477,0.7818390214009199,-0.1895471707593765,-0.2150950905943655,-16.901286692697536,28.459277942674493,24.16172696096636,0.6228753277049667,-4.523051197371096,0.3663238105095749,4643.522352430556,11.827666666666666,0.11,179.70052549896832,-3.937619377006115,96.73182936134366,1227.0,1435.0,1200.0,1528.0,1189.0,995.0,110.0,294.54999999999995,1649344746.335961,1649344747.4661396,d0e068eb-49da-46af-a81a-8438a04fe38e
-0.7387157520490394,-1.1651019269756997,-0.1545716357655466,0.584437663717349,-0.0212701464050458,0.7813393709909309,-0.1968052517915069,-0.228125449571613,-16.878034437674764,28.508565297052733,23.67215535483944,0.6139933054825889,-4.541460055800708,0.3939083864379543,4650.240451388889,11.814333333333332,0.1044444444444444,179.69338567455594,-3.922263072181549,96.4911426019113,1227.0,1435.0,1200.0,1528.0,1189.0,995.0,110.0,294.54999999999995,1649344747.5821316,1649344748.5283444,d0e068eb-49da-46af-a81a-8438a04fe38e
-0.0170494147901245,0.1164361497206322,-0.021953878601161,-0.0915893766168156,-0.1789624692850392,0.1727520142190898,-0.3005090316197419,-0.3299095214995068,-14.71939138502034,22.93422611468064,27.331538983292127,0.742688074175897,0.3089216506134653,0.7336679282580069,4638.2177734375,11.858555555555556,0.1288888888888889,179.25127967213953,-3.884462718312451,96.1821425671302,1553.0,1435.0,1200.0,1528.0,1471.0,995.0,110.0,294.54999999999995,1649344749.46016,1649344750.5061462,be7dc3b6-5281-4c23-b697-a5eda6470e9c
-0.0154189764262938,0.1169883949522284,-0.0267531528634288,-0.0921416218766597,-0.1851423570851279,0.1733700029216419,-0.3061892692482688,-0.3412042538908423,-14.661148358860988,23.050194695897527,27.38193718376637,0.7458896570507574,0.3098997097597835,0.7568407429381172,4642.405924479167,11.963333333333331,0.16,179.20788065015327,-3.876112148005941,96.30989063081658,1553.0,1435.0,1200.0,1528.0,1471.0,995.0,110.0,294.54999999999995,1649344750.614191,1649344751.75821,be7dc3b6-5281-4c23-b697-a5eda6470e9c
-0.0207836446244355,0.11566037665642,-0.0259773797734839,-0.0922205140588819,-0.1831963498771507,0.1745665342345885,-0.3048218046383971,-0.3291600454193969,-14.74471148078389,22.99300574827904,27.366122357090365,0.7483713154640134,0.3057083626729859,0.7509671146214,4643.24267578125,11.964,0.16,179.16769181707693,-3.8706643606648177,96.4235563622542,1553.0,1435.0,1200.0,1528.0,1471.0,995.0,110.0,294.54999999999995,1649344751.867525,1649344752.986441,be7dc3b6-5281-4c23-b697-a5eda6470e9c
-0.0049131678705661,0.1069296425053137,-0.052406260057367,-0.3655819400040691,-0.2346340548395531,0.4490718482750245,-0.2523322020834053,-0.2789057206569411,-14.64874728766757,22.29680401368061,29.49572282471972,1.976314401019335,0.2853783805237915,0.7822217710395867,4644.5020751953125,11.967,0.1525,179.13336670140302,-3.7680772672087537,96.63500365103218,1553.0,1522.0,1200.0,1528.0,1471.0,995.0,110.0,294.54999999999995,1649344755.1270795,1649344756.2597904,a6f7a9ac-2412-48bb-ad56-b5cf5040b81a
-0.0307503566191531,0.1062590590084226,-0.0528007209700274,-0.3673833117042477,-0.2359883707230361,0.4505050560394177,-0.2527135143285066,-0.2819167725276241,-14.608864745148018,22.3700435105585,29.36624781785529,1.9840637721929684,0.283926562374881,0.7848652828906465,4640.72900390625,11.96988888888889,0.16,179.1146166937665,-3.7738146023956296,96.70324426075724,1553.0,1522.0,1200.0,1528.0,1471.0,995.0,110.0,294.54999999999995,1649344756.3678272,1649344757.4891613,a6f7a9ac-2412-48bb-ad56-b5cf5040b81a
0.0051324362010174,0.1155946331802961,-0.0469101048383986,-0.370276025408814,-0.2317939361393643,0.4438649650053385,-0.2489661354518999,-0.2659805505703306,-14.624071964095291,22.31368547425181,29.381845502833603,1.9755823949973736,0.3196386653989443,0.7669260207154862,4639.333875868056,11.963888888888889,0.15,179.10243163628718,-3.773633792110101,96.7797719769478,1553.0,1522.0,1200.0,1528.0,1471.0,995.0,110.0,294.54999999999995,1649344757.5973797,1649344758.6364548,a6f7a9ac-2412-48bb-ad56-b5cf5040b81a
0.0064604545596596,0.1146084809754381,-0.0648054811243466,-0.6587979448983348,-0.2818247316233375,0.7240242095130989,-0.1892578994137477,-0.2107428713541615,-14.387342629665548,21.93512513535529,31.46545912597157,3.253023098066765,0.3301798002808101,0.7750618950147432,4647.159505208333,11.960666666666665,0.15,179.09747291894976,-3.666806218396517,96.80565763499222,1553.0,1613.0,1200.0,1528.0,1471.0,995.0,110.0,294.54999999999995,1649344759.6303608,1649344760.7758248,6a116f70-a8a2-4cf8-b95f-ac3d2bf313a8
0.0035414439368,0.1073635494744607,-0.0663833247367614,-0.6512900366318718,-0.2811147019237487,0.7224858121991121,-0.1901257134317315,-0.2190134022770095,-14.362823165348937,21.92247547229376,31.21119727788028,3.2324395017331846,0.3040622502665466,0.7763340830477296,4647.719672309027,11.950555555555557,0.1411111111111111,179.09111325392254,-3.661492568381593,96.81031354727646,1553.0,1613.0,1200.0,1528.0,1471.0,995.0,110.0,294.54999999999995,1649344760.8918102,1649344762.005195,6a116f70-a8a2-4cf8-b95f-ac3d2bf313a8
0.0008854072504275,0.1027089110769083,-0.070945922518162,-0.6452547828892325,-0.2845991068961474,0.7207370357681465,-0.1956350176800979,-0.2203808671478233,-14.382267559775649,22.00628272053148,31.0646996291498,3.215190954874917,0.2870096619196592,0.7943784569059088,4630.423448350694,11.951555555555554,0.15,179.07415768876297,-3.661681916403584,96.83300647133888,1553.0,1613.0,1200.0,1528.0,1471.0,995.0,110.0,294.54999999999995,1649344762.1180718,1649344763.2335846,6a116f70-a8a2-4cf8-b95f-ac3d2bf313a8
0.005763573657126,0.105325501599019,-0.0835423741149554,-0.9319490875991618,-0.3305932532965616,0.9963336855137186,-0.1337309506386308,-0.1504034992060064,-14.227890766478966,21.75166031338956,33.26850500024048,4.479319402815715,0.310693894066806,0.7871798753709581,4614.634602864583,11.940444444444443,0.1444444444444445,179.08655675883625,-3.5537283338302665,96.7742509073687,1553.0,1710.0,1200.0,1528.0,1471.0,995.0,110.0,294.54999999999995,1649344764.1401937,1649344765.2779243,164f3114-c664-4664-8388-41aaf32b9a4f
0.0131531410356524,0.1031296693503584,-0.0888281502614827,-0.9306342172118324,-0.3339856174642302,0.9977800420061568,-0.1386748607606393,-0.1598179662015803,-14.348858913837123,21.691679329907853,33.30234340970576,4.478887217730606,0.3025164659712168,0.8057781477795182,4617.948838975694,11.930777777777775,0.14,179.09040594988852,-3.5393195754574323,96.7059717829658,1553.0,1710.0,1200.0,1528.0,1471.0,995.0,110.0,294.54999999999995,1649344765.3859272,1649344766.5001233,164f3114-c664-4664-8388-41aaf32b9a4f
0.0123379218454572,0.102958736305675,-0.0829769801562545,-0.9321857642599656,-0.32992266968141,0.9994893724006644,-0.1324555270233838,-0.1633155195437325,-14.23127466686808,21.788429628947213,33.36306796600564,4.487229808759546,0.3010685329792069,0.783507351998112,4613.25439453125,11.933333333333334,0.14,179.07876578972298,-3.547645552339743,96.65856647557638,1553.0,1710.0,1200.0,1528.0,1471.0,995.0,110.0,294.54999999999995,1649344766.608813,1649344767.7397912,164f3114-c664-4664-8388-41aaf32b9a4f
0.0182416865449213,0.0940833664570605,-0.0818856383675203,-1.0323000011373125,-0.3451488625669426,1.1064803081092285,-0.1086432366874401,-0.128944825143659,-14.224778540666396,22.44274941002693,34.31839013427343,4.958033377509266,0.2716740130934479,0.7679863944361176,4634.595269097223,11.908333333333337,0.13,179.1074966010117,-3.502656874971965,96.55918115187345,1553.0,1814.0,1200.0,1528.0,1471.0,995.0,110.0,294.54999999999995,1649344768.641452,1649344769.788992,dde47a36-6c2c-4386-b693-afb25a0c09d1
0.0002016750342049,0.0846163052697175,-0.0904454400360785,-1.0439366037349234,-0.3520650779197462,1.1275839644248993,-0.112535250988594,-0.1304174790420586,-14.470807578644605,22.472906095619607,34.42943133948834,5.031372982728596,0.237814535870038,0.793340517512305,4634.039333767361,11.899888888888889,0.13,179.10368080199538,-3.4986329686293782,96.44398394024188,1553.0,1814.0,1200.0,1528.0,1471.0,995.0,110.0,294.54999999999995,1649344769.8979108,1649344771.0097415,dde47a36-6c2c-4386-b693-afb25a0c09d1
0.0092348294854063,0.0887318471524802,-0.0907610088372455,-1.048709583807431,-0.3526567694548415,1.1268213401404268,-0.1133241728116159,-0.1292998400171991,-14.565043441111802,22.405653912169328,34.26662444491188,5.039891013428555,0.2559267619018657,0.7958880407911917,4640.72900390625,11.896333333333333,0.1244444444444444,179.09663508241152,-3.506485433161104,96.3357330309963,1553.0,1814.0,1200.0,1528.0,1471.0,995.0,110.0,294.54999999999995,1649344771.1183488,1649344772.2365344,dde47a36-6c2c-4386-b693-afb25a0c09d1
-0.0324465385288397,0.1244831516587763,0.0024895482317662,0.2276872648598481,-0.1293392857901928,-0.1419488863603915,-0.3726690885746004,-0.3993609473102168,-14.90610187970124,24.313273721242787,25.31192420249706,-0.6747536798449163,0.3205872685631092,0.7357289117613851,4640.72900390625,11.939666666666666,0.1411111111111111,179.07764412087928,-3.903804201358374,96.30259067641366,1553.0,1349.0,1200.0,1528.0,1471.0,995.0,110.0,294.54999999999995,1649344773.153438,1649344774.288686,8892a5c4-42d0-405b-abe5-aa79091d91aa
-0.0361939170426082,0.1252194786355084,-0.0020599007441311,0.2300803274572947,-0.133612612354253,-0.1448415997509695,-0.3782178394187936,-0.3937990481688292,-14.907178167202993,24.313143612007124,25.27767712790691,-0.6868855516441211,0.3230770408261826,0.7557120521659008,4648.279296875,11.96811111111111,0.15,179.07838026348983,-3.9086002273843214,96.51007285065094,1553.0,1349.0,1200.0,1528.0,1471.0,995.0,110.0,294.54999999999995,1649344774.3971913,1649344775.5117886,8892a5c4-42d0-405b-abe5-aa79091d91aa
-0.0402831617115758,0.1199205541551647,-0.0031117964612112,0.2296727178947039,-0.1332313001385552,-0.1386617120779867,-0.376114047627921,-0.3974806831971677,-14.85874181263151,24.235431671353737,25.36942324393556,-0.6726075843216427,0.3020290711221984,0.7531816121155444,4649.680121527777,11.968,0.15,179.05776523475492,-3.914192444767272,96.6695031262574,1553.0,1349.0,1200.0,1528.0,1471.0,995.0,110.0,294.54999999999995,1649344775.6197064,1649344776.7461154,8892a5c4-42d0-405b-abe5-aa79091d91aa
-0.0407565147832419,0.1329772092370793,0.02304096073705,0.5081620839634872,-0.0861984108866863,-0.4207933263476437,-0.4370188210644294,-0.4598712606148238,-15.075463376834104,25.4458946967061,23.390415334357403,-1.92589679105581,0.3374637374600751,0.7407695561370273,4648.279296875,11.966333333333331,0.15,179.03328128331017,-4.00593066021635,96.9218846873686,1553.0,1264.0,1200.0,1528.0,1471.0,995.0,110.0,294.54999999999995,1649344777.6534507,1649344778.8051994,61d5e6d8-adda-4ea4-afd6-7ac79b8b281d
-0.0396651729765097,0.126955106501358,0.0159012186045384,0.5076755822435371,-0.092430893215104,-0.4154681032723292,-0.44279109997448,-0.4571231827558483,-15.091447307069592,25.49393181412155,23.19484652857348,-1.9129091634217847,0.316331734386951,0.7661695055034666,4643.24267578125,11.955333333333334,0.1466666666666666,179.02409847342602,-3.9895063794240624,97.03324864505596,1553.0,1264.0,1200.0,1528.0,1471.0,995.0,110.0,294.54999999999995,1649344778.9141338,1649344780.226195,61d5e6d8-adda-4ea4-afd6-7ac79b8b281d
-0.0435177411020358,0.1324118153089157,0.0218312806691363,0.506781470983331,-0.0870793735773395,-0.4207670289629739,-0.4370582671457089,-0.4622774725269052,-15.019437243986626,25.369639649594824,23.130637203226915,-1.9233023186097007,0.3373410368063942,0.7432981137659098,4641.28759765625,11.95388888888889,0.14,179.0203600832203,-3.993622754195727,97.1239027102699,1553.0,1264.0,1200.0,1528.0,1471.0,995.0,110.0,294.54999999999995,1649344780.334273,1649344781.4565213,61d5e6d8-adda-4ea4-afd6-7ac79b8b281d
-0.0472914170563441,0.1471383547364302,0.0487861081423758,0.7756591347579197,-0.0434257002040642,-0.6952855907440012,-0.4976211765199103,-0.5128210739863404,-15.18452566541179,26.849590374789223,21.20911585463536,-3.1359407756293627,0.3794026596844624,0.7340329854650546,4649.680121527777,11.946222222222223,0.14,178.97918922072327,-4.067225204714869,97.31357706352117,1553.0,1178.0,1200.0,1528.0,1471.0,995.0,110.0,294.54999999999995,1649344783.5976515,1649344784.7324944,26405ee7-3660-4b7f-bb78-c0ee5ec3b3e8
-0.0486325841298742,0.1427203929142756,0.0451176218652657,0.7763560155849869,-0.0465024952491778,-0.6903942738114978,-0.5000142398830321,-0.5250888107261373,-15.170343175257344,26.89114383647363,21.356300263630136,-3.126397927848467,0.3611100861761274,0.7463034454448169,4648.839626736111,11.922333333333334,0.1322222222222222,178.97815254978926,-4.043743204075842,97.37079962947762,1553.0,1178.0,1200.0,1528.0,1471.0,995.0,110.0,294.54999999999995,1649344784.8409226,1649344785.9689891,26405ee7-3660-4b7f-bb78-c0ee5ec3b3e8
-0.0507363756133932,0.1418920250733048,0.0452754062358224,0.7757248782203849,-0.0454374508045242,-0.6882510354497642,-0.4996723736743317,-0.5207891858345354,-15.28888069437448,26.869246310942145,21.46573055102728,-3.1203376234963685,0.357959642511494,0.7441256606246935,4645.759765625,11.927555555555555,0.13,178.95915096351823,-4.053988962149552,97.42190158702785,1553.0,1178.0,1200.0,1528.0,1471.0,995.0,110.0,294.54999999999995,1649344786.08156,1649344787.1968167,26405ee7-3660-4b7f-bb78-c0ee5ec3b3e8
-0.0575342518094867,0.1382103902215365,0.0573459093777271,0.8928929000883238,-0.0277787512171253,-0.797595640191254,-0.5262327472714647,-0.5494796489041666,-15.40458700431362,27.943354415701243,20.67894670768915,-3.622814139919965,0.3383009899267306,0.7403871842665272,4644.081705729167,11.916666666666666,0.13,178.95034609076822,-4.114460706012429,97.48758599845604,1553.0,1088.0,1200.0,1528.0,1471.0,995.0,110.0,294.54999999999995,1649344788.0997791,1649344789.4422853,aef6deee-8a43-4d28-8a96-c334700718c8
-0.04718622749739,0.1435093146623204,0.0637230270178966,0.8906050271206277,-0.0220459195270625,-0.8018689684519145,-0.520263237519941,-0.5360022320332236,-15.390300317455567,27.84273520640534,20.558795859934648,-3.627617438420324,0.3598232095228481,0.7158897719530102,4637.660264756944,11.909555555555556,0.1222222222222222,178.9672682638919,-4.068670406338626,97.48039305035007,1553.0,1088.0,1200.0,1528.0,1471.0,995.0,110.0,294.54999999999995,1649344789.5503552,1649344790.67611,aef6deee-8a43-4d28-8a96-c334700718c8
-0.0539972523792589,0.1408006833067178,0.0592393215908544,0.891604328035428,-0.0266348146632699,-0.8009354111609547,-0.5253254870373629,-0.5563169730781443,-15.40228529961758,27.944281941301355,20.40721682015849,-3.6273540771022654,0.3506869068871032,0.7348765321238434,4632.647026909723,11.90311111111111,0.1222222222222222,178.9647805572142,-4.08556938527823,97.49257431327986,1553.0,1088.0,1200.0,1528.0,1471.0,995.0,110.0,294.54999999999995,1649344790.7882836,1649344791.8992317,aef6deee-8a43-4d28-8a96-c334700718c8
-0.039453782353531,0.1135768140620044,-0.0223984057032826,-0.075347195928295,-0.1794494768204945,0.1592685323720111,-0.3049057540196674,-0.3349707584636638,-14.542929878943983,23.116212788628868,27.12101276889935,0.6769900541441672,0.2967894864353858,0.7407454028241932,4635.152506510417,11.920777777777776,0.1322222222222222,178.96092529488266,-3.796422101661549,97.4699155401633,1553.0,1435.0,1200.0,1528.0,1471.0,995.0,110.0,294.54999999999995,1649344793.0148604,1649344794.1494744,64c31da3-f0c4-44e0-a038-f3525a6d22b7
-0.0341821664412761,0.1165281905954123,-0.0212832950870143,-0.0778884344436963,-0.1795015658949789,0.1598268462375896,-0.3035463809102778,-0.3311192015776105,-14.473754785412773,23.10750360599966,27.287980090306245,0.6840362988080186,0.3062729366124535,0.7379831517968443,4635.989040798611,11.965777777777776,0.1444444444444445,178.9632703264977,-3.776460162334148,97.4859065308301,1553.0,1435.0,1200.0,1528.0,1471.0,995.0,110.0,294.54999999999995,1649344794.2573369,1649344795.386636,64c31da3-f0c4-44e0-a038-f3525a6d22b7
-0.0374814778630858,0.1205178083904487,-0.0218421146889316,-0.0780907220929229,-0.1804609150828702,0.1548434905007066,-0.3052344714688825,-0.3377395716944872,-14.459134262149377,23.055541106281847,27.100799294786576,0.6728995751783872,0.3227805257162843,0.742703553308651,4638.2177734375,11.96575,0.1425,178.9693533688635,-3.7878502379691175,97.49390164670857,1553.0,1435.0,1200.0,1528.0,1471.0,995.0,110.0,294.54999999999995,1649344795.4945831,1649344796.608441,64c31da3-f0c4-44e0-a038-f3525a6d22b7
0.0261440530782298,0.1337661310055401,0.1232997690234374,-0.0837527532579867,-0.0470810378767293,0.1415238615848878,-0.1553342601499987,-0.1792517408438031,-13.571432547608811,23.06229311702467,27.442398516100155,0.6635139016658789,0.373057723859044,0.1524182320150881,4635.708984375,11.97,0.1466666666666666,178.94870229190798,-3.777292401911766,97.48073531871847,1553.0,1435.0,1200.0,1424.0,1471.0,995.0,110.0,294.54999999999995,1649344798.5472565,1649344799.6783495,b2fb7e46-97d8-45ba-9108-c2db6260885c
0.0271565027028983,0.1349495136351575,0.1291640874149439,-0.0848703924756183,-0.0429917932087504,0.1401826946084101,-0.1489702906824178,-0.1738213292154423,-13.385534318552637,23.09210939866337,27.31607502578493,0.6635843400225317,0.3778098656419139,0.1298668725776924,4633.203125,11.968,0.1411111111111111,178.95257273243766,-3.7815873576711048,97.49243315603702,1553.0,1435.0,1200.0,1424.0,1471.0,995.0,110.0,294.54999999999995,1649344799.787372,1649344801.1115868,b2fb7e46-97d8-45ba-9108-c2db6260885c
0.0268277852631136,0.1382235389185128,0.1247855716678182,-0.0851465151281737,-0.0473571605074131,0.1370796023652243,-0.1557287210718933,-0.1833146883461013,-13.535879600142133,23.11812735234224,27.25248852445201,0.6571027817389801,0.3914739868515333,0.1515918592762124,4635.708984375,11.966666666666669,0.15,178.9552410596734,-3.7832122786473983,97.47193879397744,1553.0,1435.0,1200.0,1424.0,1471.0,995.0,110.0,294.54999999999995,1649344801.2204392,1649344802.351064,b2fb7e46-97d8-45ba-9108-c2db6260885c
0.0875090184011238,0.1677160637309837,0.3315488103733479,-0.0939561420654895,0.1384733641227268,0.106259059006574,0.0535459361813014,0.0271170564507236,-12.081856068479418,23.24411169993733,27.41830795399521,0.61960621091892,0.5045224887160639,-0.6766292526823338,4647.441189236111,11.968444444444444,0.14,178.90931790333389,-3.789926307169651,97.41175723829056,1553.0,1435.0,1200.0,1304.0,1471.0,995.0,110.0,294.54999999999995,1649344803.958853,1649344805.005957,af85cf7f-a4eb-4b4e-8e57-1e3cfaf86786
0.0949774777546788,0.1704246950599071,0.3302207921505942,-0.0963886510074259,0.135988260603405,0.1057331111570073,0.0521784717847012,0.029128807059727,-12.005514312836414,23.24158172856595,27.39165935508952,0.6238627627076505,0.5145926224495259,-0.6691639822194511,4650.80078125,11.966666666666669,0.1455555555555555,178.91087215082496,-3.786259064767785,97.43019647231984,1553.0,1435.0,1200.0,1304.0,1471.0,995.0,110.0,294.54999999999995,1649344805.1145732,1649344806.2429368,af85cf7f-a4eb-4b4e-8e57-1e3cfaf86786
0.1051151224316544,0.1777616673174274,0.3307335912622896,-0.0995443382696831,0.1341474431614163,0.1025774241174654,0.0517708621846804,0.0311668548313508,-11.8782601993324,23.23163931697513,27.55167407319841,0.6239391581670518,0.5402127222736536,-0.6655965106304329,4650.80078125,11.967777777777778,0.15,178.9217518832629,-3.7827436517793447,97.4716534438521,1553.0,1435.0,1200.0,1304.0,1471.0,995.0,110.0,294.54999999999995,1649344806.3740585,1649344807.4669926,af85cf7f-a4eb-4b4e-8e57-1e3cfaf86786
0.1483874808082006,0.1989047700591112,0.5006278816823074,-0.0839762810991875,0.2872771529583766,0.0572933146167781,0.2149987735188478,0.1888723150192229,-10.759300395034028,23.704058081552283,27.3681434026626,0.4991873173938116,0.6220807606684624,-1.3351265046859673,4650.80078125,11.954666666666666,0.1433333333333333,178.90067240166445,-3.804172895981568,97.47954003561377,1553.0,1435.0,1200.0,1166.0,1471.0,995.0,110.0,294.54999999999995,1649344809.603693,1649344810.7464955,41d0f28c-2948-44a1-9b90-793ac0bed34a
0.1491632538699393,0.2029677170326821,0.4995102426126071,-0.0863298978328648,0.286383041692066,0.0549002519099954,0.2133683352879604,0.1802730676902226,-10.829261582106833,23.603965725183777,27.276831540955087,0.4983500210705467,0.6388409756189786,-1.329729483939695,4648.279296875,11.947,0.14,178.8955770805436,-3.811129016764402,97.45501054957452,1553.0,1435.0,1200.0,1166.0,1471.0,995.0,110.0,294.54999999999995,1649344810.8618765,1649344811.970461,41d0f28c-2948-44a1-9b90-793ac0bed34a
0.1458366338241479,0.1978660231009649,0.4988265104636655,-0.0846600133495404,0.2860280269044133,0.0581479798742054,0.2131842535225171,0.1878072707840654,-10.829680230675237,23.70023022035418,27.242026378654,0.5024795939711892,0.6197706510265094,-1.328743400479407,4645.759765625,11.937666666666663,0.1322222222222222,178.8792832848236,-3.802980174197754,97.43770133239788,1553.0,1435.0,1200.0,1166.0,1471.0,995.0,110.0,294.54999999999995,1649344812.0785668,1649344813.0216837,41d0f28c-2948-44a1-9b90-793ac0bed34a
-0.0738300386033738,0.0903643083410194,-0.2261905680724682,-0.0491888751096148,-0.3667804944742252,0.16820711693456,-0.5240844519262138,-0.5530495217774437,-16.07004041257233,23.628543458064595,26.95628494734573,0.630523329888519,0.2058656715765113,1.5816620297571324,4642.12548828125,11.957333333333334,0.14,178.9955695321728,-3.787905946699536,97.5223023321874,1553.0,1435.0,1200.0,1623.0,1471.0,995.0,110.0,294.54999999999995,1649344815.1040032,1649344816.2721393,e2f21c61-e226-47c9-a541-9b9679fab408
-0.0667777856154019,0.0886266575842821,-0.2233787696392694,-0.047699026622003,-0.3647535720109714,0.168018483729703,-0.5211310516641791,-0.5367780046367291,-15.96383250638385,23.70209773789089,26.903236529750824,0.6274113278452278,0.1990629463138203,1.5706355574202715,4643.522352430556,11.964333333333334,0.14,178.99825455542654,-3.7917059509033937,97.48470517644608,1553.0,1435.0,1200.0,1623.0,1471.0,995.0,110.0,294.54999999999995,1649344816.3806942,1649344817.4999516,e2f21c61-e226-47c9-a541-9b9679fab408
-0.0878025519488448,0.0891000106389516,-0.230794635141339,-0.0457924656099248,-0.3699867540648657,0.1686759185261432,-0.5274029814689373,-0.5574872079981381,-16.007919421025246,23.52614390497697,27.261644586815816,0.6230871973597949,0.1972659339827139,1.5974227525359153,4647.439453125,11.966,0.14,178.9933079806476,-3.80074229117532,97.47958101674878,1553.0,1435.0,1200.0,1623.0,1471.0,995.0,110.0,294.54999999999995,1649344817.607578,1649344818.939903,e2f21c61-e226-47c9-a541-9b9679fab408
-0.140489381014488,0.059765269515058,-0.3960737723840947,-0.0091733455648034,-0.5200791556484485,0.1710558324534714,-0.7074875855834672,-0.7370458680589436,-17.257403237492703,24.17419061819061,26.97690541495998,0.5412232536092126,0.0836345717855682,2.278780001240486,4653.326171875,11.96622222222222,0.14,179.0160783135206,-3.796178633876759,97.4567355517949,1553.0,1435.0,1200.0,1712.0,1471.0,995.0,110.0,294.54999999999995,1649344820.0510309,1649344821.0407193,16c38056-58af-408c-a58a-ab87ea12258c
-0.1371364632433156,0.0652088297377537,-0.3932073560472186,-0.0073719741607863,-0.5172784826064764,0.1640475775594856,-0.7067381096437115,-0.7307213417376732,-17.31437073586392,24.115613337476315,26.98959107293932,0.5211390752609915,0.104300936262533,2.2706676086770785,4650.80078125,11.962444444444444,0.14,179.01929305588996,-3.803529767266593,97.42896703826926,1553.0,1435.0,1200.0,1712.0,1471.0,995.0,110.0,294.54999999999995,1649344821.1489952,1649344822.200111,16c38056-58af-408c-a58a-ab87ea12258c
-0.1401475148709783,0.0624344548419245,-0.3924973262968232,-0.0070564054040626,-0.5168971702928795,0.168202565472768,-0.7050550758131577,-0.7342188974624871,-17.259030983503507,24.18411758978584,27.243063043413382,0.5303217813109371,0.0912644673739642,2.2668192694043405,4648.279296875,11.962777777777776,0.14,178.9957167606949,-3.8020451497595,97.40160074699476,1553.0,1435.0,1200.0,1712.0,1471.0,995.0,110.0,294.54999999999995,1649344822.3076503,1649344823.6410267,16c38056-58af-408c-a58a-ab87ea12258c
-0.2073146011232137,0.0412589852442453,-0.5343126233472856,0.0489332723988718,-0.6452294970069592,0.1428073765795006,-0.8704136613117393,-0.898506371684289,-18.450656717505897,25.008255731121075,26.82676288000365,0.3446920670876672,0.008097389139557,2.866527750424333,4646.879557291667,11.947777777777777,0.1355555555555555,179.01340087936595,-3.817467716905389,97.35123189641544,1553.0,1435.0,1200.0,1801.0,1471.0,995.0,110.0,294.54999999999995,1649344825.578437,1649344826.713213,6863ead1-0763-4c3a-8440-0a91f389a08d
-0.1806192052009649,0.0404892807897077,-0.5333593425541856,0.0438159009497359,-0.6435980466249207,0.1480061686435459,-0.8658768529758105,-0.8864414249918461,-18.376683119009822,24.83220535972825,26.811582251345985,0.3668332076179947,0.0055090132196259,2.8565113519788183,4648.279296875,11.928666666666668,0.13,179.01869655270244,-3.8223849787891058,97.2732417608326,1553.0,1435.0,1200.0,1801.0,1471.0,995.0,110.0,294.54999999999995,1649344826.8260353,1649344827.9452512,6863ead1-0763-4c3a-8440-0a91f389a08d
-0.2000003852735101,0.0430269791815694,-0.5335171270083222,0.0476816176573081,-0.6444790096195774,0.1431805972722883,-0.8687038242164102,-0.892779100208536,-18.39920460205265,24.92775462548512,26.97248736697677,0.347909258119134,0.0132758939287161,2.8624642719049427,4646.879557291667,11.930333333333332,0.1255555555555555,179.01862673299092,-3.8298524151223066,97.20784725298915,1553.0,1435.0,1200.0,1801.0,1471.0,995.0,110.0,294.54999999999995,1649344828.0538914,1649344829.1120872,6863ead1-0763-4c3a-8440-0a91f389a08d
-0.0250701197148478,0.1104797904265779,-0.1073283669830477,-0.0683424806469258,-0.2327011963766682,0.1640212801957254,-0.361979196605504,-0.3909983751773166,-14.567572727843611,20.00582278325144,27.772662917104725,0.6471125676107201,0.273273334806178,1.0121705787763218,7565.248046875,11.661,7.543333333333333,179.87408364141797,-4.024766804127429,84.26829899830022,1553.0,1435.0,1350.0,1528.0,1471.0,995.0,110.0,294.54999999999995,1649344834.134318,1649344835.1139328,b0459df9-6f82-49ab-bc08-bd80753737c4
-0.0328541480967417,0.1100721808591685,-0.1015297916075529,-0.0618207270272418,-0.2254168178575168,0.1588932888251632,-0.3562595127386451,-0.3837139957428667,-14.54338343197286,19.90696213185474,27.88597005937929,0.620541417200755,0.2701320615558009,0.9864264469348044,7563.0244140625,11.658666666666669,7.576666666666666,-179.8640979048514,-4.028030638481443,79.11668118160175,1553.0,1435.0,1350.0,1528.0,1471.0,995.0,110.0,294.54999999999995,1649344835.2219098,1649344836.3443077,b0459df9-6f82-49ab-bc08-bd80753737c4
-0.0285150782231906,0.1059040442166102,-0.1049090066992569,-0.0661992430612185,-0.2291773453454226,0.1650863245521151,-0.3583633044725229,-0.3864489250314601,-14.55169011273526,19.989809490353416,27.590726036608235,0.6446645526389758,0.2575008177702657,0.9981510516124978,7558.5771484375,11.660111111111114,7.521111111111111,-179.73739030664856,-4.009746933551357,74.35112538844999,1553.0,1435.0,1350.0,1528.0,1471.0,995.0,110.0,294.54999999999995,1649344836.453267,1649344837.5768645,b0459df9-6f82-49ab-bc08-bd80753737c4
0.1818903577634849,0.4965517862339561,-0.082806047123866,-0.268649736292554,-0.3017581580033676,-0.0215594176945369,-0.4214770587072818,-0.4401876578366079,-14.306388202248051,19.332342355941204,28.817094628593008,0.6789864802772834,1.736377950187231,1.2044048928593023,7558.5771484375,11.657,7.63,179.97888606404263,-3.931001398019064,66.33719461556251,1658.0,1435.0,1350.0,1528.0,1551.0,995.0,110.0,294.54999999999995,1649344839.4576063,1649344840.4381917,ab59ccfc-fceb-45e5-ba1f-131f09b3af4c
0.1811408821001238,0.4957102697511711,-0.0859617344364809,-0.2745140556838176,-0.3055055370650834,-0.0201788045644931,-0.4217663301215992,-0.4370451194888188,-14.101390376029446,19.216413458741904,28.11593757651945,0.6943831534731221,1.738505168192238,1.2132711452424945,7556.357259114583,11.633,7.626666666666667,179.90242892647353,-3.907829838964188,63.92015231610536,1658.0,1435.0,1350.0,1528.0,1551.0,995.0,110.0,294.54999999999995,1649344840.5457697,1649344841.663083,ab59ccfc-fceb-45e5-ba1f-131f09b3af4c
0.1811934768679089,0.4999967443387962,-0.0886440686022909,-0.2776302970390891,-0.308582332431068,-0.0228085438943342,-0.4254216684728149,-0.4605812911478494,-14.15509872457646,19.164017919791945,27.90787346116421,0.6949621543550036,1.7570189972771977,1.2265044202937436,7554.137369791667,11.632333333333332,7.626666666666665,179.79045025176092,-3.8918113378132153,61.93428847530249,1658.0,1435.0,1350.0,1528.0,1551.0,995.0,110.0,294.54999999999995,1649344841.7728176,1649344842.8949888,ab59ccfc-fceb-45e5-ba1f-131f09b3af4c
0.4010396648453146,0.877745603203739,-0.0587570806634815,-0.4842226518138527,-0.37533827450082,-0.2016439724543576,-0.4783977778071647,-0.5081532853596545,-13.739541090504826,18.80566058437968,27.97085899819854,0.7584486046262034,3.1976319723293862,1.3965386155076651,7558.5771484375,11.60877777777778,7.59,179.11736091199302,-3.8063889129122814,57.57267993549408,1767.0,1435.0,1350.0,1528.0,1630.0,995.0,110.0,294.54999999999995,1649344845.0367596,1649344846.2421017,750c0279-bf70-4221-8398-997fb1c4e573
0.3960957554553229,0.8754971763371807,-0.0510124983147163,-0.4819216293880556,-0.3671597839579466,-0.1947540549547748,-0.4686414428563534,-0.4913492470639194,-13.7125241105916,18.810043330693123,29.004906488206743,0.7693337414256285,3.180050782631296,1.3621751987016109,7558.5771484375,11.592444444444446,7.59111111111111,179.00265775071142,-3.797330659116769,56.60307538783796,1767.0,1435.0,1350.0,1528.0,1630.0,995.0,110.0,294.54999999999995,1649344846.350774,1649344847.2980816,750c0279-bf70-4221-8398-997fb1c4e573
0.403945526489484,0.885634820284341,-0.0481460824134667,-0.4856690087808551,-0.368303720743389,-0.2005000357629952,-0.4700483536787403,-0.4831313108918669,-13.712668757081593,18.98543340683861,29.11303593791732,0.7661974991592819,3.2177618588528896,1.3631034039446,7558.5771484375,11.593333333333334,7.6,178.88097868955757,-3.804282605895111,55.60743188233604,1767.0,1435.0,1350.0,1528.0,1630.0,995.0,110.0,294.54999999999995,1649344847.4074724,1649344848.840484,750c0279-bf70-4221-8398-997fb1c4e573
0.5185495530293817,1.0776715156139474,0.0109047138931931,-0.6438347235796823,-0.3742337838145101,-0.2744614608211309,-0.448997286084893,-0.4781611015436579,-13.088930008454748,19.42725580413297,24.94523763100751,0.9622982358501684,3.9937652288728938,1.2769415934395951,7565.248046875,11.581555555555555,7.6244444444444435,178.42024752018446,-3.7507380493748337,53.908896644987735,1886.0,1435.0,1350.0,1528.0,1710.0,995.0,110.0,294.54999999999995,1649344850.4627907,1649344851.6979475,d3342fc5-4fbd-4d37-804e-db2b927f25e6
0.5143025245304941,1.0710445730742864,0.0114175130388169,-0.6332500194937434,-0.371433111031135,-0.2801679957025238,-0.4493785983613042,-0.462842867177579,-13.095355263708887,19.45429894188722,24.596955540652985,0.925744444584296,3.970772220696509,1.2717550150343238,7558.5771484375,11.530444444444443,7.607777777777778,178.28470165719563,-3.7363552836663407,53.32490294893816,1886.0,1435.0,1350.0,1528.0,1710.0,995.0,110.0,294.54999999999995,1649344851.8063085,1649344853.135606,d3342fc5-4fbd-4d37-804e-db2b927f25e6
0.5201273964329238,1.0729379852085574,0.0147704306537041,-0.6349330531286067,-0.3686455868712002,-0.2798392782486713,-0.4468934941589541,-0.4809880719307113,-13.176360571396511,19.49351858733276,24.70947120424013,0.9306837324480074,3.977870219253024,1.2601499457545626,7551.91748046875,11.531777777777776,7.597777777777777,178.20597689682208,-3.729419179132324,52.81761834854709,1886.0,1435.0,1350.0,1528.0,1710.0,995.0,110.0,294.54999999999995,1649344853.2433786,1649344854.3089745,d3342fc5-4fbd-4d37-804e-db2b927f25e6
-0.2884911215292453,-0.3695265495730511,-0.1385039278327644,0.1828765098987007,-0.1523889520622251,0.3931898938305066,-0.2974848310846117,-0.3156037374522548,-15.150118241627483,21.571274286239422,26.489822958975665,0.6037240495424884,-1.54442963958454,0.794714569120381,7577.898057725694,11.55511111111111,7.62,179.10202486057662,-3.749462132092381,52.37565274446363,1449.0,1435.0,1350.0,1528.0,1386.0,995.0,110.0,294.54999999999995,1649344854.957935,1649344856.002964,07a4f448-1f1f-4639-8172-9087ab1673d4
-0.3267148929712969,-0.3773879542272135,-0.1350473375777258,0.1995616990833262,-0.1463248740271782,0.3942129634541744,-0.2963970291576319,-0.3294078483164435,-15.3380330561727,21.7899448398729,27.739530811364027,0.5701116524473991,-1.5854922670530898,0.780931073905074,7598.7822265625,11.64611111111111,7.518888888888889,179.01546056085567,-3.729576605506319,52.12428129243966,1449.0,1435.0,1350.0,1528.0,1386.0,995.0,110.0,294.54999999999995,1649344856.110555,1649344857.2315457,07a4f448-1f1f-4639-8172-9087ab1673d4
-0.2892411030428796,-0.3753903634784535,-0.1306981531309866,0.2088163579697196,-0.1410274661967223,0.3864754620386373,-0.2941592218831682,-0.3086986482617752,-15.347569346648852,21.765400045334903,28.15476363906677,0.531963450723998,-1.5824769375325665,0.7655131434202515,7598.7822265625,11.647222222222222,7.475555555555555,178.90151782730177,-3.71574191504685,51.89437522770226,1449.0,1435.0,1350.0,1528.0,1386.0,995.0,110.0,294.54999999999995,1649344857.339183,1649344858.6613858,07a4f448-1f1f-4639-8172-9087ab1673d4
-0.532202257022547,-0.7841313685898306,-0.1621584341537313,0.4184748346541993,-0.0795451703056705,0.5856999384348539,-0.2455737714230949,-0.2658885098227596,-15.90005429022168,23.31104774752512,27.038833119707625,0.5149330740651547,-3.129485049386823,0.6052664818440252,7598.7822265625,11.632666666666667,7.563333333333333,178.9277791457505,-3.675042904784991,51.46509290545256,1342.0,1435.0,1350.0,1528.0,1293.0,995.0,110.0,294.54999999999995,1649344860.601709,1649344861.5470228,62ca3a72-a982-4f17-b106-09531b310c1d
-0.5333593425879203,-0.7832372568408238,-0.1667473294977084,0.417922589449573,-0.0848309464572215,0.5860549532009095,-0.2511488193055967,-0.2841914979544379,-15.914590302071096,23.38557873424114,27.10156095735384,0.5172448302138285,-3.126806313930169,0.62680981310422,7598.7822265625,11.602222222222224,7.651111111111111,178.87867008561813,-3.656907566741876,51.27781936369456,1342.0,1435.0,1350.0,1528.0,1293.0,995.0,110.0,294.54999999999995,1649344861.6554043,1649344862.9620712,62ca3a72-a982-4f17-b106-09531b310c1d
-0.5275081710715444,-0.7727051463949713,-0.1571487804634226,0.410283197548533,-0.0779541779837158,0.583188537688777,-0.2427730987867896,-0.268071193710366,-15.919322524943713,23.338035717190625,27.230784149163554,0.5282172003941423,-3.0868680414835143,0.5938401501973157,7598.7822265625,11.602222222222222,7.675555555555557,178.85592403786214,-3.633920327930852,51.09212549290962,1342.0,1435.0,1350.0,1528.0,1293.0,995.0,110.0,294.54999999999995,1649344863.070174,1649344864.1953948,62ca3a72-a982-4f17-b106-09531b310c1d
-0.7701805957059332,-1.2019840495290102,-0.2057332174566927,0.6132464544049782,-0.0345634786990576,0.7974070763135975,-0.2103484102493022,-0.2354887204560818,-16.546695488060855,25.410826764932605,24.376172846813898,0.5623102349890106,-4.695218150260074,0.4993217199032269,7598.7822265625,11.603,7.649999999999999,178.9405197252823,-3.575435196763129,50.74522511787907,1227.0,1435.0,1350.0,1528.0,1189.0,995.0,110.0,294.54999999999995,1649344866.4592557,1649344867.4712098,3cc3d268-eb18-460a-8196-cdc2627b766b
-0.7793978359947243,-1.2026677823449174,-0.2123733097818703,0.6081316120617344,-0.0416637749373034,0.8007468448528037,-0.21601549895049,-0.2383419880817979,-16.526978786669414,25.4110982467366,24.0388638432648,0.5809802953111353,-4.694723748074713,0.5255228368054287,7598.7822265625,11.504444444444443,7.625555555555555,178.9481300738375,-3.559372821133113,50.6692703786689,1227.0,1435.0,1350.0,1528.0,1189.0,995.0,110.0,294.54999999999995,1649344867.5792303,1649344868.6961255,3cc3d268-eb18-460a-8196-cdc2627b766b
-0.7656705909348928,-1.195370249918274,-0.1993166530950557,0.6133253465755621,-0.0286860113567501,0.7911220000922454,-0.2063775036219673,-0.2282174905827193,-16.652164213537223,25.37568433878619,24.455194198820497,0.5480549129824844,-4.669969796443064,0.4777692695296749,7598.7822265625,11.505777777777777,7.677777777777777,178.9563627285171,-3.561257645036887,50.60900610180205,1227.0,1435.0,1350.0,1528.0,1189.0,995.0,110.0,294.54999999999995,1649344868.8052435,1649344869.930457,3cc3d268-eb18-460a-8196-cdc2627b766b
-0.0277656025199881,0.1034846841491284,-0.1182286368103262,-0.0569162631027835,-0.2354755715694424,0.1608524445011104,-0.3715645978942953,-0.3902226016494103,-14.903335401021936,19.63071568456768,27.771022484120884,0.6110183565401252,0.2473242255535778,1.0436258226513877,7598.7822265625,11.572777777777778,7.677777777777777,178.53947074887677,-3.54963140612499,50.48959845800217,1553.0,1435.0,1350.0,1528.0,1471.0,995.0,110.0,294.54999999999995,1649344871.044597,1649344872.1820357,17facc7e-dea9-48f5-af0d-c00d4c36e09c
-0.0457135734434068,0.095240451719771,-0.1150335034492851,-0.0499606025719499,-0.2329247242469956,0.1678081045898878,-0.3692767243471804,-0.3956004194235752,-14.920377294814395,19.983040699055955,28.53851286550881,0.6135668528317553,0.2090738508693868,1.0325281073446564,7598.7822265625,11.659333333333333,7.677777777777777,178.53384115518085,-3.572120989763988,50.5267410267087,1553.0,1435.0,1350.0,1528.0,1471.0,995.0,110.0,294.54999999999995,1649344872.2900484,1649344873.4110591,17facc7e-dea9-48f5-af0d-c00d4c36e09c
-0.036246511845542,0.1035109815430199,-0.1129823066773114,-0.0562719769815324,-0.2322935867101248,0.1629036410563029,-0.3681327875449945,-0.3814524198040584,-14.91973417658463,19.869228769416928,28.18100090735276,0.6160737799181691,0.2441626038191122,1.027732063371748,7598.7822265625,11.655666666666669,7.654444444444446,178.54172926476232,-3.5632415541154945,50.57062878667556,1553.0,1435.0,1350.0,1528.0,1471.0,995.0,110.0,294.54999999999995,1649344873.5195885,1649344874.639567,17facc7e-dea9-48f5-af0d-c00d4c36e09c
-0.0136570510652625,0.0928868351192005,-0.1434215405962709,-0.3862516945375996,-0.2943554410468343,0.4894646395898874,-0.3039802880036352,-0.3277662832813661,-14.65282526502182,19.08937515345753,30.06509583872852,2.0880026203823694,0.2244124489778833,1.0614003450761471,7598.7822265625,11.651777777777776,7.65888888888889,178.54643602401035,-3.4590496270797577,50.6645450261281,1553.0,1522.0,1350.0,1528.0,1471.0,995.0,110.0,294.54999999999995,1649344876.5768075,1649344877.6299963,c045bcd3-e311-46c8-a004-d9e558dedd58
-0.030671464468069,0.0952141543239757,-0.1383198460570047,-0.385515367357044,-0.2911603073709251,0.4887677587585946,-0.3004038420920356,-0.3241766887409381,-14.612351436307415,19.2287870794292,30.417894666757384,2.086030482883919,0.2299631270007446,1.0457589301031682,7598.7822265625,11.636555555555557,7.665555555555557,178.55067074129576,-3.454003279363915,50.65394343417139,1553.0,1522.0,1350.0,1528.0,1471.0,995.0,110.0,294.54999999999995,1649344877.738324,1649344878.680858,c045bcd3-e311-46c8-a004-d9e558dedd58
-0.0181276079402675,0.0957269534711145,-0.139371741807411,-0.3866593040998949,-0.2906869542113463,0.488938691790395,-0.3006931134319876,-0.3220860461998363,-14.709384366182483,19.09105497287732,30.36092164480523,2.087971687360087,0.233149983932015,1.046920249969835,7598.7822265625,11.640333333333333,7.653333333333332,178.5541359239347,-3.448396879852065,50.73108207283769,1553.0,1522.0,1350.0,1528.0,1471.0,995.0,110.0,294.54999999999995,1649344878.789531,1649344879.7563865,c045bcd3-e311-46c8-a004-d9e558dedd58
-0.0095283603792574,0.098159462247592,-0.1599100069023668,-0.759477552413718,-0.3549314942324968,0.8479506601048932,-0.2237469331456445,-0.2472568049768116,-14.414003256177262,18.767155036812227,33.15026263887549,3.7331296275514,0.2600552735901724,1.054163636301069,7598.7822265625,11.651000000000002,7.66,178.57112488113023,-3.380644106902085,50.877071674522405,1553.0,1613.0,1350.0,1528.0,1471.0,995.0,110.0,294.54999999999995,1649344882.1045456,1649344883.2428093,1a7eb6fc-2b13-4f07-83b8-d256f836047d
-0.0137227945974828,0.0958452917354705,-0.1654587571957093,-0.7605162998779501,-0.3582449663032354,0.8512115364815358,-0.2266790927481617,-0.2502152619212013,-14.433780166349786,18.579718766688096,33.12522835524384,3.7412676377509086,0.2515105335675563,1.0701536984946187,7598.7822265625,11.633,7.610000000000001,178.5966470213288,-3.3830900261029884,50.906362940778,1553.0,1613.0,1350.0,1528.0,1471.0,995.0,110.0,294.54999999999995,1649344883.351268,1649344884.47326,1a7eb6fc-2b13-4f07-83b8-d256f836047d
-0.0091864942859836,0.1034715354539822,-0.1626186385659808,-0.7637245831157573,-0.3581134793088178,0.8484766079067382,-0.2277704346605057,-0.2471779130874573,-14.566364709290244,18.750027200379108,33.383951385062666,3.743603905415404,0.2793368743779465,1.0687539869509033,7598.7822265625,11.626333333333331,7.651111111111112,178.6431909659729,-3.3651852543762306,50.95522307846065,1553.0,1613.0,1350.0,1528.0,1471.0,995.0,110.0,294.54999999999995,1649344884.5815885,1649344885.63318,1a7eb6fc-2b13-4f07-83b8-d256f836047d
-0.0013630198377962,0.094727652575899,-0.1944910810719569,-1.1219610219060028,-0.4269206202219759,1.2042803071806196,-0.1633549655500473,-0.1823548336365318,-14.637413352503527,18.35162684933259,35.98036811887424,5.347386003710739,0.2661121599584352,1.1137803255215153,7598.7822265625,11.623,7.676666666666667,178.6919281602505,-3.244964675769505,51.02827954073301,1553.0,1710.0,1350.0,1528.0,1471.0,995.0,110.0,294.54999999999995,1649344887.6341715,1649344888.768096,db104978-0a48-4b7b-88e0-15d60144f563
-0.0014682094332513,0.0922951437944775,-0.1932156574352704,-1.118686994184025,-0.4263683748654976,1.20155852711404,-0.1619480549265137,-0.1895997659711263,-14.4534162889156,18.413234942034283,35.691984658148314,5.334402960599944,0.257921219428295,1.108717485805526,7598.7822265625,11.608,7.690000000000001,178.74340046583572,-3.2562717693492456,51.03452461036412,1553.0,1710.0,1350.0,1528.0,1471.0,995.0,110.0,294.54999999999995,1649344888.8765705,1649344889.999818,db104978-0a48-4b7b-88e0-15d60144f563
0.0021082360171093,0.0975020274427364,-0.1910329736181763,-1.1233810822473955,-0.4251718432178762,1.2003619958055558,-0.1590553415011742,-0.1760829050840629,-14.377880171562015,18.297449139918232,35.65323070965311,5.341675877963821,0.2779733976426191,1.1006284816747844,7598.7822265625,11.605666666666666,7.681111111111111,178.7855715715912,-3.272313654411752,51.06314537971621,1553.0,1710.0,1350.0,1528.0,1471.0,995.0,110.0,294.54999999999995,1649344890.108997,1649344891.2295463,db104978-0a48-4b7b-88e0-15d60144f563
0.0124540686685467,0.0960441657557373,-0.1983633725432866,-1.314058156673132,-0.4599402911796811,1.3888759515586588,-0.12271727325885,-0.1347702463539438,-14.393152974694308,18.851051325395417,37.3924279788721,6.198987112101186,0.2802202752050204,1.1066056581813255,7598.7822265625,11.582666666666666,7.661111111111111,178.78237200741998,-3.186663129651661,51.08027928870413,1553.0,1814.0,1350.0,1528.0,1471.0,995.0,110.0,294.54999999999995,1649344892.1404102,1649344893.2769134,443146f7-c6fd-45d6-9bd6-267acf0c7081
0.0072756737165217,0.0956743586889845,-0.1940308767993261,-1.298982067266604,-0.4559529482506172,1.3750292781820332,-0.1240798070384518,-0.1469322429701564,-14.389815496499487,19.08798823678177,37.35462362474991,6.135645890691876,0.2775671971791634,1.0971482549743563,7598.7822265625,11.555111111111112,7.691111111111111,178.81776452987918,-3.1984568979257,51.0714569610262,1553.0,1814.0,1350.0,1528.0,1471.0,995.0,110.0,294.54999999999995,1649344893.3847969,1649344894.5015516,443146f7-c6fd-45d6-9bd6-267acf0c7081
0.0076701346306793,0.0970023769901581,-0.1998951957911215,-1.3035315198865427,-0.4597792196100858,1.3711504126372762,-0.1299178285175974,-0.1563730073291949,-14.57186360164562,18.881747435094297,36.3516507682788,6.1352812952075455,0.2929107588258497,1.117329115841469,7598.7822265625,11.563444444444444,7.688888888888887,178.846856582284,-3.207172337886309,51.07181858159725,1553.0,1814.0,1350.0,1528.0,1471.0,995.0,110.0,294.54999999999995,1649344894.6100075,1649344895.661134,443146f7-c6fd-45d6-9bd6-267acf0c7081
-0.0618207269499177,0.1046812154863862,-0.0763763343512319,0.3030818848613544,-0.1658795154610041,-0.1849582753218921,-0.4347572447912868,-0.4534283980336003,-14.918947093116948,21.27194928400851,25.802790362755125,-0.9654898311054864,0.2277244025581341,0.9815977971569468,7598.7822265625,11.60388888888889,7.697777777777778,178.8420966993424,-3.740637337957247,51.12118301491361,1553.0,1349.0,1350.0,1528.0,1471.0,995.0,110.0,294.54999999999995,1649344897.668975,1649344898.804654,45940d0b-7f0f-4e2f-a231-89147f877d3d
-0.0532599139149321,0.1069771800971134,-0.0753092670928554,0.2975194809683816,-0.1666042110245466,-0.1838365903107715,-0.433017065074094,-0.4584673844385177,-14.81402893796476,21.27994627676768,25.56420200304964,-0.9503009081102382,0.2384603164601549,0.9786153055553666,7598.7822265625,11.653,7.713333333333334,178.8607977572899,-3.755125165256098,51.208405289524585,1553.0,1349.0,1350.0,1528.0,1471.0,995.0,110.0,294.54999999999995,1649344898.912835,1649344900.24131,45940d0b-7f0f-4e2f-a231-89147f877d3d
-0.0509336060355687,0.1024722345475581,-0.0842392550961418,0.2962182658529142,-0.1721514441057156,-0.1844191787331245,-0.4401482114604299,-0.4627113798292454,-14.937411702247148,21.06679540474977,24.625506788404707,-0.9507442374363124,0.2303474154552237,1.006617368834423,7598.7822265625,11.641555555555556,7.676666666666667,178.8686130115202,-3.746537008716584,51.30690686263992,1553.0,1349.0,1350.0,1528.0,1471.0,995.0,110.0,294.54999999999995,1649344900.3495235,1649344901.4690704,45940d0b-7f0f-4e2f-a231-89147f877d3d
-0.061820726968011,0.1117683626369966,-0.0463447109343387,0.6202941549138131,-0.1097214298139163,-0.5008952027225327,-0.5018287604407121,-0.5255490150631831,-15.28818668961975,22.62141707944575,23.24629166360644,-2.381147682433556,0.2424481947212261,0.958888704576742,7598.7822265625,11.647,7.729999999999999,178.8777229660532,-3.881317890518353,51.4737991199146,1553.0,1264.0,1350.0,1528.0,1471.0,995.0,110.0,294.54999999999995,1649344903.608497,1649344904.741626,d4376d21-c3ba-4e94-b7d4-f487d73ebd1d
-0.0616497939107014,0.1180665880254314,-0.0445564881844292,0.6192685567039694,-0.1101553368190429,-0.5064176566157393,-0.5002772138788751,-0.5258645840112747,-15.038213409956304,22.56944958946044,23.2164221064348,-2.391378263826576,0.2648046084696351,0.9557401911932936,7598.7822265625,11.628333333333334,7.694444444444445,178.8807646769636,-3.874789462900421,51.53938904705928,1553.0,1264.0,1350.0,1528.0,1471.0,995.0,110.0,294.54999999999995,1649344904.8501005,1649344905.974965,d4376d21-c3ba-4e94-b7d4-f487d73ebd1d
-0.0615709017248306,0.1203018663444678,-0.0505917399669357,0.606054118256976,-0.1181234472197956,-0.4994488457637294,-0.5038405114683814,-0.5269953721037814,-14.95658952162436,22.522205320025293,22.75206976809518,-2.346556516048036,0.2779696666483122,0.9794692815778367,7598.7822265625,11.633666666666665,7.720000000000001,178.87791876480938,-3.886338791036352,51.58905400869912,1553.0,1264.0,1350.0,1528.0,1471.0,995.0,110.0,294.54999999999995,1649344906.082876,1649344907.409001,d4376d21-c3ba-4e94-b7d4-f487d73ebd1d
-0.078874586735975,0.124548895141209,-0.0100806056753567,0.9559014474713696,-0.0510782417508727,-0.8366867324495744,-0.569636606017408,-0.6032578329800447,-15.296900641686936,24.29452430525686,21.08343496132281,-3.88021613107461,0.2706208663706442,0.9268723142323312,7598.7822265625,11.617111111111113,7.677777777777779,178.89460264022202,-4.029351094289108,51.76559770272598,1553.0,1178.0,1350.0,1528.0,1471.0,995.0,110.0,294.54999999999995,1649344909.547865,1649344910.7639058,67e7fc7c-3495-4c02-b659-7d87432da1bb
-0.0711957477710721,0.1293087230752423,-0.0112771370532384,0.9605297881974466,-0.0532740740938242,-0.8434583143874701,-0.5757507516582985,-0.5997208328182017,-15.447165803179605,24.46396604269798,21.360118423612096,-3.904841046809655,0.2864415885059225,0.9410314948269364,7598.7822265625,11.607555555555557,7.607777777777778,178.89364793155804,-4.033952365059975,51.86201872432915,1553.0,1178.0,1350.0,1528.0,1471.0,995.0,110.0,294.54999999999995,1649344910.8793714,1649344911.937863,67e7fc7c-3495-4c02-b659-7d87432da1bb
-0.0758766838505208,0.1209330037504286,-0.0167338460832588,0.9630937837709166,-0.0564692073819564,-0.8392375808553202,-0.5774600826572979,-0.5892150218628354,-15.309805768924331,24.355860947862663,21.102247832041066,-3.902100552767635,0.2556774062531713,0.9540409422964272,7598.7822265625,11.617555555555557,7.6,178.87473893229583,-4.033298279583207,51.93351562674101,1553.0,1178.0,1350.0,1528.0,1471.0,995.0,110.0,294.54999999999995,1649344912.0495212,1649344913.1431262,67e7fc7c-3495-4c02-b659-7d87432da1bb
-0.0813070956630958,0.119854810676024,0.0065130492268344,1.1052443305171975,-0.0263586921007582,-0.977233224840287,-0.6021796395202572,-0.6319351492742807,-15.518707185695613,25.589522638148537,19.924388335335905,-4.523809277347412,0.2475442949718495,0.915338890005669,7598.7822265625,11.60588888888889,7.584444444444443,178.92311033199786,-4.078649360147884,52.12731541425096,1553.0,1088.0,1350.0,1528.0,1471.0,995.0,110.0,294.54999999999995,1649344915.077144,1649344916.2142437,7d7ca79a-805a-462b-8187-a7c6656f6aad
-0.0956260265756013,0.1206963272250954,0.0119829069700127,1.1158027330553884,-0.0202576968464703,-0.9876601471191336,-0.5987083825868251,-0.6285822305887863,-15.422571881283009,25.57275311253535,19.975560890380745,-4.570839388785328,0.2486130406221247,0.8949714527416599,7598.7822265625,11.586571428571428,7.61,178.91259596047266,-4.100240679047286,52.18394445845168,1553.0,1088.0,1350.0,1528.0,1471.0,995.0,110.0,294.54999999999995,1649344916.323314,1649344917.4443493,7d7ca79a-805a-462b-8187-a7c6656f6aad
