raw_voltage_G-,raw_voltage_G0,raw_voltage_G1,raw_voltage_G2,raw_voltage_G3,raw_voltage_G4,raw_voltage_G5,raw_voltage_G6,load_x,load_y,load_z,load_l,load_m,load_n,rpm,voltage,current,roll,pitch,yaw,aileron1_pwm,elevator_pwm,throttle_pwm,rudder_pwm,aileron2_pwm,pbaro,pdiff,Tt,sample_start_time,sample_end_time,uid
0.077121548478521,0.2276083726826797,0.157525824448269,-0.1580560404885967,-0.0470021457076721,0.1145164401069501,-0.1147573807135802,-0.1336520584661295,-10.904234532645813,22.201814310619312,27.231946737455488,0.7677436945052689,0.7193141239784764,0.0605090577605564,4651.923177083333,11.96622222222222,0.16,179.49529652824722,-4.231813032054573,101.1749296470494,1553.0,1435.0,1200.0,1528.0,1471.0,995.0,110.0,294.54999999999995,1649345359.6609583,1649345360.6352928,ccf50a62-1490-4f84-a43f-e636c1a491dd
0.0970944178551254,0.2346034787495386,0.1640475775868185,-0.161737675737581,-0.0430838340876855,0.1130700835470593,-0.1091034409787495,-0.1349669282000035,-10.818636750679346,22.228693004254687,27.564636620981982,0.7733974476180836,0.7428627509342484,0.0395644892349238,4662.88916015625,11.967222222222222,0.16,179.47940950823778,-4.208884893352618,100.5047097456428,1553.0,1435.0,1200.0,1528.0,1471.0,995.0,110.0,294.54999999999995,1649345360.7463925,1649345361.8751533,ccf50a62-1490-4f84-a43f-e636c1a491dd
0.1076659694689141,0.2360761326551013,0.1634032914758595,-0.1600677911830583,-0.0459239525813822,0.1107427643523649,-0.112167087392126,-0.1337309507424342,-10.754436188104364,22.4311398928669,27.640410552344903,0.7657551596761029,0.7470171107367453,0.0489345603638248,4665.9912109375,11.96511111111111,0.16,179.4703511595785,-4.192501261672264,99.9420038519614,1553.0,1435.0,1200.0,1528.0,1471.0,995.0,110.0,294.54999999999995,1649345361.989622,1649345362.9945724,ccf50a62-1490-4f84-a43f-e636c1a491dd
0.3180188028443512,0.6347051246017869,0.2041116535404078,-0.3048612507170742,-0.0952578630616135,-0.1453281015435323,-0.1739922616826435,-0.1903360927828024,-10.41269333907995,21.74488019848574,27.733846855972573,0.5146129281374872,2.259267528048689,0.1962820392374632,4665.9912109375,11.939666666666668,0.15,179.11563666868255,-4.140202266038132,98.78320458211572,1658.0,1435.0,1200.0,1528.0,1551.0,995.0,110.0,294.54999999999995,1649345365.1357791,1649345366.477172,cf93b1c8-66a7-4a5a-9288-03944e232e07
0.3143108707519583,0.6315625865050413,0.197787130921808,-0.3057290647866674,-0.0995969330446186,-0.1412388567059997,-0.1783181831122292,-0.2011311734595493,-10.469965249954935,21.62995916619064,27.72452946281537,0.5246525243399509,2.247672992356987,0.2165783365369154,4663.45263671875,11.938333333333333,0.1477777777777777,179.0610027444215,-4.122003416722109,98.46736525124574,1658.0,1435.0,1200.0,1528.0,1551.0,995.0,110.0,294.54999999999995,1649345366.585497,1649345367.7106466,cf93b1c8-66a7-4a5a-9288-03944e232e07
0.3215426532024388,0.6351653289254481,0.2056237535512309,-0.3098446073608008,-0.0955339856900065,-0.1406603140404035,-0.1723355258060218,-0.1908620406974561,-10.405445921011228,21.859631971454483,27.81989513888724,0.5371966621813818,2.260890997919297,0.1923294563819454,4665.9912109375,11.937555555555557,0.1411111111111111,179.02544326178258,-4.104265794902539,98.20062587358925,1658.0,1435.0,1200.0,1528.0,1551.0,995.0,110.0,294.54999999999995,1649345367.8339417,1649345368.9419563,cf93b1c8-66a7-4a5a-9288-03944e232e07
0.5286871969053106,1.0067080061543985,0.2520780951510478,-0.4538754534774727,-0.1387800503435985,-0.3775604045019317,-0.2219718589443935,-0.2355544641688626,-9.817728146317416,21.54819298795281,27.029346877325057,0.3301672021978801,3.6779217766829024,0.3016989941696932,4657.540364583333,11.902333333333337,0.1333333333333333,178.6048660156301,-4.063288074977048,97.77260751579094,1767.0,1435.0,1200.0,1528.0,1630.0,995.0,110.0,294.54999999999995,1649345370.0494149,1649345371.185805,4258c1f9-0999-47ae-b299-271f4fe5ac22
0.5254263205389169,1.011086521717219,0.2525120021027713,-0.4615279964365669,-0.1404236374876068,-0.3761929398267524,-0.2197497290403418,-0.2443640917897018,-9.6257150623835,21.466613363324345,26.842167082597307,0.350049961377507,3.6956121362341934,0.3005487800156771,4660.354058159723,11.905444444444443,0.1377777777777778,178.54852757971616,-4.044439361620622,97.62299070420198,1767.0,1435.0,1200.0,1528.0,1630.0,995.0,110.0,294.54999999999995,1649345371.294824,1649345372.413978,4258c1f9-0999-47ae-b299-271f4fe5ac22
0.5356034104827033,1.0085093774176783,0.2454248551904979,-0.4597397733440318,-0.145051978920349,-0.3728794677659319,-0.2250486542294254,-0.2436540619781578,-9.682860272579983,21.32894807271277,27.142412999853534,0.3522155853878317,3.683017875406608,0.3242017024948705,4658.3837890625,11.902666666666669,0.1366666666666666,178.51218945551193,-4.032682139601828,97.474781670492,1767.0,1435.0,1200.0,1528.0,1630.0,995.0,110.0,294.54999999999995,1649345372.5227468,1649345373.646616,4258c1f9-0999-47ae-b299-271f4fe5ac22
0.6453555675221591,1.2074491429220493,0.2965864293522899,-0.565599955112392,-0.1554394497401718,-0.4970820798789069,-0.2292693861682418,-0.247624968760216,-9.129254128299992,22.025131492938144,23.51032121290197,0.318772649975849,4.473724632094868,0.2927425974001875,4657.259874131944,11.84477777777778,0.1277777777777777,178.3757344184536,-3.975795913030123,97.1892152558433,1886.0,1435.0,1200.0,1528.0,1710.0,995.0,110.0,294.54999999999995,1649345375.5776148,1649345376.7180195,95e9aed5-b722-4723-9fc1-9550f5f4cb83
0.6335611881372929,1.194405636535823,0.2917740068302686,-0.5658892265873476,-0.156701724681483,-0.4856427113341053,-0.2324382223485687,-0.2573813022598603,-9.478731917484552,22.11786081954148,23.251998749065752,0.3452889551653668,4.429298682332837,0.3033058715702669,4643.802300347223,11.848222222222224,0.1288888888888889,178.3400231538331,-3.972768004793692,97.021011222793,1886.0,1435.0,1200.0,1528.0,1710.0,995.0,110.0,294.54999999999995,1649345376.8265798,1649345377.9440844,95e9aed5-b722-4723-9fc1-9550f5f4cb83
0.6309183004458501,1.1942478521859563,0.2951532215436165,-0.5650477098834822,-0.154703122727553,-0.4853402912853984,-0.2282832338578884,-0.2521875665436716,-9.282745594369477,22.16374036656379,23.410484138834487,0.3446665992869948,4.426026493624725,0.2903916879084614,4634.873697916667,11.845333333333334,0.13,178.32086674994096,-3.971588801092611,96.8673410733866,1886.0,1435.0,1200.0,1528.0,1710.0,995.0,110.0,294.54999999999995,1649345378.052873,1649345379.1732578,95e9aed5-b722-4723-9fc1-9550f5f4cb83
-0.1514685432142376,-0.207416250670409,0.1306498900504369,0.0056057892925861,0.0174922108795312,0.3883380252924035,-0.0389156972391832,-0.0672248413150052,-11.33984482866901,23.78473164166691,27.159248369680054,1.022800611522613,-0.9303924599081757,-0.150941976042192,4624.870442708333,11.947,0.1533333333333333,179.35005786791626,-3.908664687294616,96.63753025184266,1449.0,1435.0,1200.0,1528.0,1386.0,995.0,110.0,294.54999999999995,1649345380.0831687,1649345381.2271564,631cade5-20e9-4755-abe9-ce7fe2d75841
-0.1490097367876272,-0.2144245064896185,0.1263897125660833,0.0092742756113356,0.0147967281112797,0.3940314103231133,-0.0423212096858891,-0.0578366718873464,-11.410558347622146,23.866391761786435,27.44236103193148,1.0276579423457497,-0.9594067645126104,-0.1371143111989423,4634.597113715277,11.945555555555554,0.15,179.3016105772234,-3.893010462899377,96.4410879400338,1449.0,1435.0,1200.0,1528.0,1386.0,995.0,110.0,294.54999999999995,1649345381.3351,1649345382.4483678,631cade5-20e9-4755-abe9-ce7fe2d75841
-0.1608041182474649,-0.2100722875874112,0.128112191730825,0.0062763728057407,0.017294980430089,0.390652195649686,-0.0396783216563564,-0.0573896163771786,-11.414732146755195,23.640356322272147,27.19545831760076,1.0253728230335313,-0.9403909952668528,-0.1463859104682855,4644.361924913194,11.947444444444445,0.15,179.27805097804634,-3.881199263413393,96.32556819169147,1449.0,1435.0,1200.0,1528.0,1386.0,995.0,110.0,294.54999999999995,1649345382.5597165,1649345383.6789591,631cade5-20e9-4755-abe9-ce7fe2d75841
-0.3850551627938273,-0.6279116465058548,0.0838273834802474,0.1682551602541289,0.065353465390493,0.6544676131330484,0.0144417132985606,-0.0098570778601491,-12.125764723375546,24.947747176958067,27.72748540187953,1.2590054885142994,-2.529953768185281,-0.2779554369864754,4649.119791666667,11.909666666666666,0.14,179.43161488006567,-3.83885417756156,96.04264126570204,1342.0,1435.0,1200.0,1528.0,1293.0,995.0,110.0,294.54999999999995,1649345385.611575,1649345386.5685072,45fbfecd-20e2-46cb-87bd-69bf7d08277c
-0.3751627899120295,-0.6313601461346429,0.0862426978210131,0.1711276445730745,0.0673161611586493,0.657882228071265,0.0144558734331951,-0.012764456946324,-12.313613111874362,25.21920198344929,28.115436270239645,1.2620860201020976,-2.5451925350632787,-0.2840288889971586,4652.243861607143,11.913714285714288,0.14,179.433655480392,-3.828213698248047,95.847427954281,1342.0,1435.0,1200.0,1528.0,1293.0,995.0,110.0,294.54999999999995,1649345386.6995752,1649345387.746529,45fbfecd-20e2-46cb-87bd-69bf7d08277c
-0.3849105270951289,-0.6253345011535291,0.0828280825874381,0.1664011941439824,0.0625790905017312,0.6539548140294955,0.0122853270985762,-0.0133283337394583,-12.082320699892318,25.0442178071842,27.75730361920725,1.2626516325404675,-2.5206931218079576,-0.2694158233082338,4654.730685763889,11.909888888888888,0.14,179.41419941550194,-3.8103083979947465,95.6742451469886,1342.0,1435.0,1200.0,1528.0,1293.0,995.0,110.0,294.54999999999995,1649345387.855276,1649345389.2086487,45fbfecd-20e2-46cb-87bd-69bf7d08277c
-0.5968807131594092,-1.005976292194288,0.0289973201893008,0.2953241545986694,0.0848924278847305,0.8916043278850074,0.0413833921377133,0.0115489997261602,-12.78965143318128,26.91313099566592,25.28566640390477,1.5148220023792789,-3.940672958795984,-0.3175345892542726,4657.259223090277,11.825111111111111,0.12,179.55566629359126,-3.784410502528042,95.43585029547774,1227.0,1435.0,1200.0,1528.0,1189.0,995.0,110.0,294.54999999999995,1649345390.12062,1649345391.260336,ba28c3ba-1bb8-424e-ab85-396ea8ff2909
-0.6059664652517677,-1.008066936223376,0.0301544054724013,0.2983089084626171,0.0847477922269141,0.8898424027302321,0.0400027790258732,0.018294281240449,-12.813161153759474,27.15257490717605,25.13118400947876,1.505738306011709,-3.947268648656203,-0.3175085204453534,4653.326171875,11.826666666666666,0.1188888888888888,179.56078741764895,-3.7985866075822736,95.07632886922586,1227.0,1435.0,1200.0,1528.0,1189.0,995.0,110.0,294.54999999999995,1649345391.3681424,1649345392.4856422,ba28c3ba-1bb8-424e-ab85-396ea8ff2909
-0.6052169892734284,-1.008251018106322,0.0290104688902746,0.2970860797908505,0.086273040968744,0.8897503618675694,0.0410809721175139,0.0172423853707313,-12.88395575974348,26.883569920448085,24.93586508597028,1.5063828816624278,-3.945653419374121,-0.3198093497724151,4653.326171875,11.83025,0.11875,179.55708773184853,-3.7962162058461777,94.86747022214334,1227.0,1435.0,1200.0,1528.0,1189.0,995.0,110.0,294.54999999999995,1649345392.593877,1649345393.5882542,ba28c3ba-1bb8-424e-ab85-396ea8ff2909
0.0775160093565412,0.2206658613929983,0.1559611296420192,-0.155307962761163,-0.0486983275795769,0.1208146654760238,-0.1193331272869151,-0.1425537265756877,-11.203302853074302,22.58569287120575,27.493181643454992,0.7780556227745997,0.6926458691355885,0.0706528612692022,4652.203776041667,11.964777777777776,0.1544444444444444,178.99060019009664,-3.812636022113774,94.50679202746456,1553.0,1435.0,1200.0,1528.0,1471.0,995.0,110.0,294.54999999999995,1649345395.648997,1649345396.7869987,c052f302-13ac-44c9-80c7-01cfc765b821
0.0857076470237153,0.2291336213767157,0.1599451844900191,-0.1550318401121196,-0.0470941865769355,0.112649325270099,-0.1174265662094888,-0.150613877931964,-11.051339942707443,22.57556409700988,27.569977282854367,0.7593041184247117,0.72286732293984,0.0615684839177272,4668.815375434027,11.968555555555556,0.1588888888888889,178.9636315676138,-3.81073542711348,94.75893604977465,1553.0,1435.0,1200.0,1528.0,1471.0,995.0,110.0,294.54999999999995,1649345396.8951485,1649345398.0231075,c052f302-13ac-44c9-80c7-01cfc765b821
0.0903885828345964,0.2278187518156156,0.1574863783635633,-0.1532962120846622,-0.0479488518673265,0.110900548709916,-0.1200957517168588,-0.1496277257178238,-11.149154790536118,22.5097498408357,27.34713423488293,0.7508157496359463,0.7202324400873781,0.0693849692214717,4673.6240234375,11.965666666666667,0.15,178.9281494937855,-3.8043748608807753,94.9574092044967,1553.0,1435.0,1200.0,1528.0,1471.0,995.0,110.0,294.54999999999995,1649345398.1575482,1649345399.2468777,c052f302-13ac-44c9-80c7-01cfc765b821
0.1013282979707701,0.2191537614015539,0.1447584407635557,-0.4051069284792428,-0.0842655524305591,0.3609492930947628,-0.0605847494294455,-0.0772572971011952,-11.063338107099485,21.905359813955844,28.909363045925275,1.8763838329450704,0.7034662293387656,0.0507233091361799,4633.765299479167,11.965,0.1555555555555555,178.885410723419,-3.698809638935043,95.22541292605956,1553.0,1522.0,1200.0,1528.0,1471.0,995.0,110.0,294.54999999999995,1649345400.1533823,1649345401.2983675,6369a7ba-92ef-493d-81f6-1551ea09f582
0.0962266039076724,0.2201662109628843,0.1385785536914868,-0.405580281645919,-0.0899983842757907,0.3595423826994709,-0.0656601463911016,-0.0914315922959084,-10.959127922272572,21.78233249341853,28.746108000719136,1.873193239069897,0.7076373035910869,0.0741932521744815,4618.778374565973,11.96,0.15,178.86849765721425,-3.6867134213468185,95.33836300545414,1553.0,1522.0,1200.0,1528.0,1471.0,995.0,110.0,294.54999999999995,1649345401.4061382,1649345402.5177813,6369a7ba-92ef-493d-81f6-1551ea09f582
0.0964329373020886,0.2280210394389454,0.1469669159600443,-0.4080092509074363,-0.0835272025215599,0.3542738016418883,-0.0604664111644393,-0.0782045089224838,-11.07460994548284,21.84093925208962,28.825428681542096,1.867593902702472,0.7380438517265501,0.0474864350279011,4609.670952690973,11.960444444444445,0.15,178.82900094997376,-3.6765804088262826,95.45231181028736,1553.0,1522.0,1200.0,1528.0,1471.0,995.0,110.0,294.54999999999995,1649345402.6393688,1649345403.6939003,6369a7ba-92ef-493d-81f6-1551ea09f582
0.1215115463502376,0.2287260118120551,0.139880274563492,-0.7272895301355061,-0.1283531335166512,0.6687339471683477,0.0202402884167652,0.0002148236024255,-10.574509257100951,21.46171846484541,32.11466276324928,3.292355215969516,0.7468504879550504,0.0057220708218193,4657.270724826389,11.947111111111113,0.1422222222222222,178.8138546260343,-3.556908071480123,95.61254728930597,1553.0,1613.0,1200.0,1528.0,1471.0,995.0,110.0,294.54999999999995,1649345405.4801247,1649345406.6264448,69392308-cf56-45f0-8071-4233b8636624
0.1329509118392809,0.2302249631077104,0.1353571231899916,-0.7337981374581072,-0.1319032817265596,0.6757159041940674,0.0186624448594157,-0.0098965239119839,-10.615898153299966,21.27398782724304,32.44277715659903,3.321288186550956,0.7503687589158552,0.0196047527648588,4693.247884114583,11.941666666666666,0.14,178.80563259609346,-3.543011079260413,95.6626368610392,1553.0,1613.0,1200.0,1528.0,1471.0,995.0,110.0,294.54999999999995,1649345406.7393415,1649345407.8476026,69392308-cf56-45f0-8071-4233b8636624
0.1223136167845206,0.2356422256949802,0.1380657545495403,-0.7339559218640517,-0.1310880625067962,0.6707325488027307,0.0184520657090101,0.0046853801595881,-10.638071145198216,21.37414916237237,32.476780294116736,3.311238956888196,0.7707351914151939,0.0157472172142406,4717.3505859375,11.945222222222222,0.1311111111111111,178.79376020949613,-3.5449379515162645,95.68183348715648,1553.0,1613.0,1200.0,1528.0,1471.0,995.0,110.0,294.54999999999995,1649345407.9556725,1649345409.081128,69392308-cf56-45f0-8071-4233b8636624
0.1347522831792593,0.2335515830959438,0.1296768865425711,-1.0290259716650252,-0.1754123209967317,0.9560986778669388,0.0848398330975083,0.0544663445067995,-10.547979598518817,21.410656049894616,34.34780180674936,4.618268391769532,0.7814717967182748,-0.0071218639349657,4717.3505859375,11.919,0.13,178.8100084706217,-3.4270685469516424,95.73175382198028,1553.0,1710.0,1200.0,1528.0,1471.0,995.0,110.0,294.54999999999995,1649345409.9869244,1649345411.1223269,459cd949-90be-4f3c-a281-fdfddcea6000
0.1347391344606303,0.2336304752661155,0.1295585482696759,-1.0264225280981818,-0.1743998713091379,0.955191417908502,0.0869436244657314,0.0605541912087277,-10.392347616515826,21.229408382324674,34.57947444182524,4.609264792655075,0.778281741208881,-0.0107925479503762,4718.217447916667,11.927333333333332,0.1366666666666666,178.8005145076754,-3.426014563385345,95.662120043392,1553.0,1710.0,1200.0,1528.0,1471.0,995.0,110.0,294.54999999999995,1649345411.2302198,1649345412.358647,459cd949-90be-4f3c-a281-fdfddcea6000
0.1376844423491649,0.2336436239604446,0.1298609682920011,-1.0238322332704473,-0.1743735738974283,0.9537976561989608,0.0867069479462879,0.0612379233690187,-10.345349857133142,21.268578953235,34.7216985570085,4.600610807256766,0.7764388048630849,-0.0106619329724423,4722.548828125,11.914,0.1277777777777777,178.8035137196309,-3.416220736161716,95.62498506378456,1553.0,1710.0,1200.0,1528.0,1471.0,995.0,110.0,294.54999999999995,1649345412.4678142,1649345413.5965512,459cd949-90be-4f3c-a281-fdfddcea6000
0.1398671258825657,0.2308692491955158,0.1153579566172123,-1.1482189885385332,-0.2075477376836385,1.0755414270233137,0.0968577412890557,0.0746232960449818,-10.552438691965586,21.89362885963028,35.33573200681789,5.158186376180318,0.776462632353777,0.0388774633211983,4719.9482421875,11.893,0.12,178.81642884844152,-3.35704928956208,95.56216705507806,1553.0,1814.0,1200.0,1528.0,1471.0,995.0,110.0,294.54999999999995,1649345414.4894123,1649345415.630577,8554b193-303a-4fee-b7c7-4664708c9185
0.1417473893807368,0.2349847909184523,0.1159102018520242,-1.145181637918375,-0.2094017040372861,1.0669027341695825,0.093636310759342,0.071848921162463,-10.468982270436795,22.06294049259693,35.06593356722042,5.133071448839434,0.7933628667157484,0.0453694524298726,4714.185438368056,11.897555555555556,0.1244444444444444,178.81430845415915,-3.3744295122469543,95.45185342870307,1553.0,1814.0,1200.0,1528.0,1471.0,995.0,110.0,294.54999999999995,1649345415.739118,1649345416.8624403,8554b193-303a-4fee-b7c7-4664708c9185
0.131636042231593,0.2300803274564533,0.1108873999875746,-1.13504398601748,-0.2113871573768392,1.063234248242027,0.0889027801475668,0.0604095554493528,-10.455534280152992,21.97351213822441,35.15174351820724,5.101137326799284,0.7725443364084496,0.0613224647163089,4704.979275173611,11.902111111111113,0.12,178.81152477261742,-3.356683352690923,95.35821988319118,1553.0,1814.0,1200.0,1528.0,1471.0,995.0,110.0,294.54999999999995,1649345416.9781654,1649345418.0910518,8554b193-303a-4fee-b7c7-4664708c9185
0.075596299696305,0.2278581979008711,0.1850986395217963,0.1750530359824044,0.0068943615366675,-0.204326306740373,-0.1867859442889273,-0.211926254355647,-11.157405975363618,23.8388951327826,25.35791549997093,-0.6883518173755728,0.6994153733505061,0.0515274789199028,4696.671875,11.966777777777777,0.15,178.81234591313765,-3.721211378752215,95.31112572886394,1553.0,1349.0,1200.0,1528.0,1471.0,995.0,110.0,294.54999999999995,1649345418.9883356,1649345420.139619,cc5c917d-ed4b-40b8-8e12-ff2138faa319
0.0839720191436999,0.2311585204983855,0.1846384351749795,0.1751582255471897,0.0058161684390597,-0.2069560462449339,-0.1883111931757155,-0.2169885026027577,-11.149771496178357,23.83740899150263,25.449826277830365,-0.6945127478596954,0.7108828010058609,0.0563307981546516,4680.718478732639,11.965555555555556,0.1444444444444444,178.79224238968058,-3.795235213997652,95.53801171162334,1553.0,1349.0,1200.0,1528.0,1471.0,995.0,110.0,294.54999999999995,1649345420.2531395,1649345421.3733044,cc5c917d-ed4b-40b8-8e12-ff2138faa319
0.0724011665493578,0.2240582248645517,0.1823505621141838,0.1777748160057614,0.0043829605332005,-0.2013152549909889,-0.1895603194279727,-0.2177905732152243,-11.164005421105468,23.945264010922514,25.590309033188777,-0.6871232318285704,0.6826426564478452,0.0624877163042087,4668.53271484375,11.96577777777778,0.15,178.76885582196246,-3.796018124431265,95.7725421938838,1553.0,1349.0,1200.0,1528.0,1471.0,995.0,110.0,294.54999999999995,1649345421.486819,1649345422.5985217,cc5c917d-ed4b-40b8-8e12-ff2138faa319
0.0595943364416514,0.2258858935572074,0.1990231083073564,0.4630226137897624,0.0470899263288587,-0.4799361755965482,-0.2579072499853783,-0.2830212636486473,-11.563879821035066,25.042562071430485,23.36833346575765,-1.949121967631112,0.6779765019969285,0.0777625690382656,4673.6240234375,11.955444444444444,0.14,178.75342263007784,-3.909827052682117,96.04363847332088,1553.0,1264.0,1200.0,1528.0,1471.0,995.0,110.0,294.54999999999995,1649345423.5005658,1649345424.6411655,ad73a7b7-5e26-4554-86b2-d1a9a259d22b
0.0646960305663159,0.2290941752913326,0.2052687387732784,0.4542787315364056,0.0512712117473798,-0.4754261717137295,-0.248808351064756,-0.2621805771185518,-11.379512104934223,24.95900312251561,23.370829505404743,-1.919413058393032,0.6901535590325831,0.051077414590946,4665.993977864583,11.949666666666666,0.14,178.7588002656844,-3.90152102090082,96.18225260906684,1553.0,1264.0,1200.0,1528.0,1471.0,995.0,110.0,294.54999999999995,1649345424.749171,1649345425.850139,ad73a7b7-5e26-4554-86b2-d1a9a259d22b
0.0596600799180704,0.2265433283414278,0.2018500778773753,0.4531479437607768,0.048391647251491,-0.468983308970707,-0.2521349716360509,-0.2766309960123275,-11.531037999261963,25.041652957104745,23.75701185960745,-1.902021350692165,0.6781599716312624,0.0644821173679004,4650.80078125,11.945,0.14,178.76061254254415,-3.906300445772536,96.2781484650138,1553.0,1264.0,1200.0,1528.0,1471.0,995.0,110.0,294.54999999999995,1649345425.962895,1649345426.9036677,ad73a7b7-5e26-4554-86b2-d1a9a259d22b
0.0433425478552242,0.2297779074642474,0.2243343474604527,0.7273376806483016,0.0921242107311665,-0.7394783766455817,-0.3137892168385646,-0.3377066993067488,-11.760991592155545,26.376039993957885,21.483020094999528,-3.118877615218277,0.6797628843595648,0.0609305302753438,4645.759765625,11.944,0.14,178.7804610722722,-4.007005608668852,96.50154346219742,1553.0,1178.0,1200.0,1528.0,1471.0,995.0,110.0,294.54999999999995,1649345428.4731667,1649345429.556141,ec706a54-a0b1-4624-9cfa-aff69ced34e2
0.0533618544376996,0.2306062752841446,0.2236637639814631,0.7285342118922997,0.0895339176067004,-0.7393205922328986,-0.3162348747115906,-0.3343143351739351,-11.71473701702557,26.56797079153137,21.762741799262923,-3.119915319411762,0.6798766474052164,0.0693135996236878,4640.102111816406,11.933375000000002,0.13625,178.80690073454932,-4.015096821514376,96.5846378360925,1553.0,1178.0,1200.0,1528.0,1471.0,995.0,110.0,294.54999999999995,1649345429.6724036,1649345430.781501,ec706a54-a0b1-4624-9cfa-aff69ced34e2
0.0488912976902348,0.2368256083062046,0.2279370900560821,0.7219072696219861,0.0929657272807912,-0.740122662997411,-0.3106729753723187,-0.3359184762833746,-11.655321582673274,26.390893059980137,21.687239522135584,-3.1077121352135126,0.7045353958999216,0.0515975489940365,4643.24267578125,11.926333333333334,0.14,178.80524099858104,-4.026622054260735,96.6331551362243,1553.0,1178.0,1200.0,1528.0,1471.0,995.0,110.0,294.54999999999995,1649345430.8905563,1649345432.014372,ec706a54-a0b1-4624-9cfa-aff69ced34e2
0.0435660757221128,0.2412830161032265,0.2220070282934104,0.8245854290133049,0.0915851141580343,-0.8437344376615822,-0.3539847879755659,-0.3772974306954012,-11.8322741282926,27.29935588775469,20.82088692433895,-3.566658541307397,0.7171818665541562,0.1229492408635331,4640.72900390625,11.892,0.12,178.82584084911775,-4.066324094063119,96.73861249809936,1553.0,1088.0,1200.0,1528.0,1471.0,995.0,110.0,294.54999999999995,1649345433.9949875,1649345434.940487,c9d82be8-1ac1-4b17-b2cf-0563962fc89b
0.0430138304622282,0.2370096900342042,0.2305142343289442,0.8199965344168366,0.0992508039145243,-0.8332286238767168,-0.3443073459190151,-0.3661604832567179,-11.9466271713201,27.46831143444073,21.186801295799047,-3.531154757795702,0.6998277365396726,0.0869428894158763,4643.24267578125,11.900666666666666,0.1233333333333333,178.84133627161484,-4.0820366596575175,96.73999219631172,1553.0,1088.0,1200.0,1528.0,1471.0,995.0,110.0,294.54999999999995,1649345435.0491345,1649345436.100145,c9d82be8-1ac1-4b17-b2cf-0563962fc89b
0.0432899530810932,0.2379563961235824,0.2270298300389109,0.8229944369149229,0.0956743586353895,-0.8371863836779041,-0.3487779034001869,-0.364845613046608,-11.88790409333994,27.47435739720575,21.11750877959564,-3.546925812642292,0.702987074199293,0.103010576599792,4644.920735677083,11.9,0.1266666666666666,178.84064414577892,-4.091284308906892,96.74315457389746,1553.0,1088.0,1200.0,1528.0,1471.0,995.0,110.0,294.54999999999995,1649345436.2090256,1649345437.344349,c9d82be8-1ac1-4b17-b2cf-0563962fc89b
0.1038290788415355,0.2308277802348974,0.1620247013032614,-0.1338209686246734,-0.0451684082303791,0.0920331813163662,-0.1221641429085316,-0.1456674391067828,-10.932338344421286,22.770828369621352,27.63855231708465,0.6665991710049357,0.7252950353959301,0.0633469655742254,4647.440104166667,11.967,0.1433333333333333,178.8695631667248,-3.7985643146037327,96.71913279858651,1553.0,1435.0,1200.0,1528.0,1471.0,995.0,110.0,294.54999999999995,1649345439.0048122,1649345440.0983171,e1e82717-9c6b-4aa3-91fa-d6c7dce5922a
0.0905200698130145,0.2357868613524114,0.1660593280342119,-0.1376098162867975,-0.0420056409688277,0.0886135088849952,-0.1171767409725881,-0.1449599384717371,-10.801377616424272,22.619009089124635,27.38320852443582,0.6666811106420303,0.7459504897445868,0.0467991060837276,4665.994140625,11.964666666666666,0.1466666666666666,178.87276880217524,-3.8096423122550624,96.7529650022753,1553.0,1435.0,1200.0,1528.0,1471.0,995.0,110.0,294.54999999999995,1649345440.2064505,1649345441.327735,e1e82717-9c6b-4aa3-91fa-d6c7dce5922a
0.1019199893201511,0.2276346700778022,0.1625617749514878,-0.1312064007779066,-0.043346808035765,0.0928736864216472,-0.1198722238807399,-0.1530200899123457,-10.8624888190383,22.6881244380974,27.66702514241692,0.6621082612457297,0.7122829349468495,0.0566300926118963,4665.9912109375,11.96522222222222,0.15,178.86839444546678,-3.805800141119453,96.80036272056564,1553.0,1435.0,1200.0,1528.0,1471.0,995.0,110.0,294.54999999999995,1649345441.4364865,1649345442.5600033,e1e82717-9c6b-4aa3-91fa-d6c7dce5922a
0.1485978599669109,0.2605590037790812,0.3420414692459406,-0.1582006761593787,0.114371804446523,0.0759513145206805,0.0646434358010782,0.0446837147896389,-9.523456242098286,22.73330016376831,27.70743123156885,0.6948907454239762,0.8406361374032469,-0.66082789784757,4668.53271484375,11.967555555555556,0.1455555555555555,178.8539842641379,-3.8136962192549424,96.80774463723864,1553.0,1435.0,1200.0,1424.0,1471.0,995.0,110.0,294.54999999999995,1649345443.6733284,1649345444.8157644,728440ed-2d12-48b9-b58e-8bfe5fb29d5e
0.1453764294581042,0.2567195846859688,0.3335605607646837,-0.1549529479338348,0.1097434634500359,0.0771741432695643,0.0564912441518055,0.0394636822285242,-9.776458812670072,22.60215757586803,27.71050476528498,0.6888940079259528,0.8270596974782884,-0.6319114005854383,4663.45263671875,11.964,0.14,178.86008741761623,-3.811864827351864,96.8773108728451,1553.0,1435.0,1200.0,1424.0,1471.0,995.0,110.0,294.54999999999995,1649345444.9244287,1649345446.248998,728440ed-2d12-48b9-b58e-8bfe5fb29d5e
0.1439169242245669,0.2523673664649463,0.3341391033554316,-0.1526519259038057,0.1106638721618178,0.078633648538727,0.0582137233413281,0.0410152285038749,-9.685764684171406,22.6315168538786,27.621054989502312,0.6872379972583706,0.8106409827491933,-0.6369873204197178,4664.863606770833,11.96577777777778,0.1477777777777777,178.86430695670347,-3.8239768397525418,96.90459368402978,1553.0,1435.0,1200.0,1424.0,1471.0,995.0,110.0,294.54999999999995,1649345446.3576424,1649345447.473254,728440ed-2d12-48b9-b58e-8bfe5fb29d5e
0.2242817526710128,0.2995711832291149,0.5778896136132756,-0.1700345037634473,0.3270125104793567,0.0363474414632932,0.3030292901023508,0.2805976156299467,-7.923794891141139,22.696727511433902,27.780037489768347,0.6449077915537792,0.9913979042628636,-1.6054970576720984,4660.072591145833,11.964333333333334,0.14,178.8287596166231,-3.816891277398562,96.88078971586236,1553.0,1435.0,1200.0,1304.0,1471.0,995.0,110.0,294.54999999999995,1649345449.6120594,1649345450.7530954,779c9595-97fb-4c18-8814-9bde651ef076
0.217812594431022,0.2895255799182988,0.5631499265264018,-0.165379864896709,0.3146527368402797,0.0410941208244188,0.2895124312119522,0.2720115174663257,-7.9451413999984,22.76099576818188,27.555563292478386,0.6447200652286657,0.9543549653721094,-1.550858268981876,4665.9912109375,11.959,0.14,178.83581292530596,-3.814472394363123,96.94225458820333,1553.0,1435.0,1200.0,1304.0,1471.0,995.0,110.0,294.54999999999995,1649345450.8611784,1649345451.985818,779c9595-97fb-4c18-8814-9bde651ef076
0.226793153536892,0.2992161684474479,0.5708550617922864,-0.169718935033506,0.318110843720121,0.0368996867083969,0.2939040954830769,0.263885623473134,-7.897983988255653,22.9235234571897,27.785315547604515,0.6466039325302814,0.9893559604363468,-1.570899241196755,4659.791124131944,11.951777777777778,0.14,178.83114259373357,-3.8253910209338176,96.91189819189212,1553.0,1435.0,1200.0,1304.0,1471.0,995.0,110.0,294.54999999999995,1649345452.0939262,1649345453.209197,779c9595-97fb-4c18-8814-9bde651ef076
0.2733395357880224,0.3147316290187195,0.7728979088077853,-0.1323371887463152,0.50603199535026,-0.0253067962230162,0.4888072048167142,0.4558302775123914,-6.559368893670324,23.29092885889473,27.51365058209638,0.4356200778613203,1.0486939190734963,-2.3771544678615744,4657.259223090277,11.927,0.1244444444444444,178.79750011752165,-3.839957347976256,96.84715938220904,1553.0,1435.0,1200.0,1166.0,1471.0,995.0,110.0,294.54999999999995,1649345454.1199634,1649345455.2571611,ee4f05fc-1aa1-4746-bb3b-6246d4feb7e0
0.2862384060287263,0.3220948984242724,0.7798667171542778,-0.1370838684377344,0.5098977117027899,-0.0283309964613743,0.4940403854680588,0.4676904005073961,-6.499824718144863,23.361549964929107,27.53380203832332,0.4403799838231919,1.0767380161343436,-2.398479485021524,4653.9580078125,11.93575,0.1375,178.7971335640362,-3.83240078716076,96.81424147523164,1553.0,1435.0,1200.0,1166.0,1471.0,995.0,110.0,294.54999999999995,1649345455.3648443,1649345456.4826975,ee4f05fc-1aa1-4746-bb3b-6246d4feb7e0
0.2767056018324207,0.3104583030207936,0.7661920743491802,-0.1274984681873849,0.5010880860166315,-0.0263323945603047,0.4802211069452843,0.4605112129608041,-6.752567638149104,23.38223575387658,27.34719140434304,0.4225480461391392,1.0344897694227266,-2.349937125291796,4653.326171875,11.934333333333331,0.13,178.79404100616202,-3.844839937163561,96.82123198411968,1553.0,1435.0,1200.0,1166.0,1471.0,995.0,110.0,294.54999999999995,1649345456.594062,1649345457.7183435,ee4f05fc-1aa1-4746-bb3b-6246d4feb7e0
0.0102078330354067,0.1906868352366416,-0.0344845864902692,-0.0925623801914265,-0.2195393498841691,0.1006182683913798,-0.3303565767079158,-0.3508159516672985,-12.407541120843868,23.156504377787726,27.11411004727886,0.5847674045022733,0.5723004118609719,0.858707035450388,4653.326171875,11.964000000000002,0.14,178.8863563251641,-3.8322906503603935,96.90427190622889,1553.0,1435.0,1200.0,1623.0,1471.0,995.0,110.0,294.54999999999995,1649345458.469981,1649345459.5543451,c1a6ea9f-a221-45e3-a096-837e194e3b7a
0.0285148641966314,0.1936700720118347,-0.0371021885515375,-0.0908474866665666,-0.2227137489323412,0.0982661689671165,-0.3338455332571141,-0.3545041615226635,-12.35148355094726,23.15713171709841,27.395775396926105,0.5755604800373839,0.5802191375021839,0.8723785095625447,4658.3837890625,11.962333333333332,0.14,178.9321550202787,-3.830425297238941,96.8923327355597,1553.0,1435.0,1200.0,1623.0,1471.0,995.0,110.0,294.54999999999995,1649345459.6626332,1649345460.783182,c1a6ea9f-a221-45e3-a096-837e194e3b7a
0.0085510973103044,0.1930404517715979,-0.0315524271314077,-0.0912080643962818,-0.2178826139793426,0.0982909492061145,-0.3294230191245337,-0.3448464425489897,-12.420436456582822,23.268979506708074,27.30187014472136,0.5773976549604408,0.579576107374222,0.8516307599789751,4664.863606770833,11.966555555555557,0.14,178.9237963865545,-3.84331979318641,96.87626737172192,1553.0,1435.0,1200.0,1623.0,1471.0,995.0,110.0,294.54999999999995,1649345460.8908305,1649345462.0162723,c1a6ea9f-a221-45e3-a096-837e194e3b7a
-0.023465978731894,0.1778011134005778,-0.1789624693046486,-0.0603349241954822,-0.3531564198427117,0.0926764559757581,-0.490652365725081,-0.5079034598905823,-13.370703799326604,23.653768631122745,27.234666894414307,0.4898606233603961,0.5166010731767848,1.4638804071087588,4664.298828125,11.963333333333331,0.1333333333333333,178.95221300914136,-3.8482604864135297,96.91417795725512,1553.0,1435.0,1200.0,1712.0,1471.0,995.0,110.0,294.54999999999995,1649345463.1313615,1649345464.469991,e101963b-6fb5-4470-984e-69557fbd0f02
-0.030973884500376,0.1726994194393566,-0.1868253903959418,-0.0577051848358168,-0.3595992821476041,0.0949774777945636,-0.4988045594921474,-0.5226300036540019,-13.475795156952474,23.72316994833194,27.133532959803343,0.4890988060136317,0.4982857098533825,1.494141967674219,4658.3837890625,11.96588888888889,0.1344444444444444,178.96795128280888,-3.84130161458228,96.88460551487869,1553.0,1435.0,1200.0,1712.0,1471.0,995.0,110.0,294.54999999999995,1649345464.578741,1649345465.7092752,e101963b-6fb5-4470-984e-69557fbd0f02
-0.0294091895905928,0.1712530629007391,-0.1842613943700609,-0.0567584786696841,-0.3562989587963363,0.0953719386788839,-0.4958986968618732,-0.5206445498980642,-13.517299818475536,23.701174599187308,27.133619999268955,0.4878106566658161,0.4931995926756338,1.4818278862861838,4662.607421875,11.959666666666667,0.14,178.9724895640574,-3.8399639410060806,96.86439726185434,1553.0,1435.0,1200.0,1712.0,1471.0,995.0,110.0,294.54999999999995,1649345465.8230774,1649345466.9273672,e101963b-6fb5-4470-984e-69557fbd0f02
-0.064766035043131,0.1636662654221087,-0.3242292833276236,-0.0156030581758154,-0.4843672873671897,0.0713755682451718,-0.6546429553853415,-0.6771009372152577,-14.44607429704527,24.05329913643647,26.90380666857179,0.3359117174561434,0.4594205974355326,2.0713959065799887,4645.200412326389,11.944555555555556,0.13,179.0111287031021,-3.86313402967301,96.80036803293504,1553.0,1435.0,1200.0,1801.0,1471.0,995.0,110.0,294.54999999999995,1649345469.073867,1649345470.2157505,adaecd39-24c5-480f-b536-e9ed64c8fd28
-0.072471171361073,0.1652572576128562,-0.32045560693018,-0.0164708721262193,-0.4839070829179199,0.0721381926356185,-0.6550242677231674,-0.6746552786163186,-14.5539164810873,24.43378888762699,27.12914964909045,0.3422748643326016,0.4645063870728142,2.0664392135456766,4640.72900390625,11.947,0.13,179.04505804725906,-3.8657166475210514,96.74457828888444,1553.0,1435.0,1200.0,1801.0,1471.0,995.0,110.0,294.54999999999995,1649345470.328019,1649345471.4452088,adaecd39-24c5-480f-b536-e9ed64c8fd28
-0.0904322912736328,0.1530947139568527,-0.3232825770472403,-0.0087920333456779,-0.4824212798473562,0.0739790100950091,-0.6546429553822196,-0.6838462206156751,-14.539273038755146,24.3085245000264,26.69418864343456,0.3280567268292705,0.4215140906878621,2.0657698969080127,4638.2177734375,11.944,0.13,179.05398453532186,-3.8691391474066426,96.690241952171,1553.0,1435.0,1200.0,1801.0,1471.0,995.0,110.0,294.54999999999995,1649345471.554273,1649345472.6720593,adaecd39-24c5-480f-b536-e9ed64c8fd28
0.0645250975334336,0.2136181605302953,0.1012362570807324,-0.1258154349930126,-0.0760476169352034,0.1139641948559101,-0.1457225624947986,-0.1649328092412894,-10.319980726843257,19.73508552194321,29.114684788151635,0.675214948680379,0.6384406566434511,0.2235530186545843,7546.008192274306,11.659555555555556,7.5344444444444445,179.7963727846812,-4.096039590957167,84.2771448521853,1553.0,1435.0,1350.0,1528.0,1471.0,995.0,110.0,294.54999999999995,1649345476.9921198,1649345477.990408,b001207e-07df-4b81-862c-9e03288301b5
0.0593708086344809,0.213131658790367,0.0920979133144251,-0.132258296605323,-0.0820828687996425,0.108612675595074,-0.1522837624024795,-0.1717964292595558,-10.363108761505693,19.341260487769656,27.38832438377632,0.6743602440134653,0.6524291705502192,0.2511528041211053,7560.804524739583,11.663333333333332,7.536666666666666,-179.93239979655155,-4.103194308976494,78.40349559576624,1553.0,1435.0,1350.0,1528.0,1471.0,995.0,110.0,294.54999999999995,1649345478.099119,1649345479.4218092,b001207e-07df-4b81-862c-9e03288301b5
0.0871024202769548,0.2103967300916095,0.0847255405389933,-0.1383597978126608,-0.0912520620203228,0.1139181744344556,-0.1597264307928543,-0.1919660258574717,-10.353376870203762,19.527596041197032,26.9038373969817,0.7008417148660844,0.6466836575153219,0.2831502851515661,7556.357259114583,11.663666666666666,7.530000000000001,-179.81620917185074,-4.082319543325642,73.33151550806039,1553.0,1435.0,1350.0,1528.0,1471.0,995.0,110.0,294.54999999999995,1649345479.5308163,1649345480.6514702,b001207e-07df-4b81-862c-9e03288301b5
0.299045235386728,0.6130097779044106,0.129124641294004,-0.2822191926196735,-0.1356243630764457,-0.1391613625686762,-0.2160549450229377,-0.2338451330911,-10.02957188452008,18.640745884566744,28.13692216938233,0.4533410504107789,2.164018558681539,0.4130503332755312,7545.26953125,11.635444444444444,7.585555555555556,179.87435229552537,-4.048767519688424,67.51938652440555,1658.0,1435.0,1350.0,1528.0,1551.0,995.0,110.0,294.54999999999995,1649345481.5628643,1649345482.700614,bcacda03-a28a-4017-8c23-cf9eb24e51d3
0.2865145286433715,0.6075662181858835,0.1315965961293872,-0.2809569176542371,-0.1327185010028558,-0.1350063742900314,-0.2142798708504816,-0.2432596006192101,-10.18808864775828,18.81124908059931,28.14972950476808,0.4610061021891726,2.1446145189839845,0.4023851979499826,7545.26953125,11.633111111111113,7.585555555555555,179.80754393852374,-4.027145370074018,64.54144150120788,1658.0,1435.0,1350.0,1528.0,1551.0,995.0,110.0,294.54999999999995,1649345482.8128746,1649345483.9336586,bcacda03-a28a-4017-8c23-cf9eb24e51d3
0.2945746789362501,0.6094596302618597,0.1265737942349488,-0.2824821665868798,-0.1377018572756989,-0.1382541024603062,-0.218487454113446,-0.2403274411220761,-10.066193833972717,18.68359362981037,27.71771820836891,0.4560447594891931,2.1545493361279857,0.4217540950951445,7547.485514322917,11.629,7.616666666666666,179.69550151537882,-3.995370523713341,62.04552948958477,1658.0,1435.0,1350.0,1528.0,1551.0,995.0,110.0,294.54999999999995,1649345484.042628,1649345485.1587608,bcacda03-a28a-4017-8c23-cf9eb24e51d3
0.5236643954082969,0.9906797465074842,0.1758156602441486,-0.4466436689965744,-0.1833015395892809,-0.3653058173501422,-0.2617466698594277,-0.2791160999069763,-9.217992846044432,18.30752273206233,27.07454835000973,0.3164207038721709,3.607380680553668,0.5228610024332082,7551.91748046875,11.599444444444444,7.613333333333333,179.0099007868713,-3.963327544995873,57.848832072736776,1767.0,1435.0,1350.0,1528.0,1630.0,995.0,110.0,294.54999999999995,1649345487.0936558,1649345488.2371514,1013789d-b837-440b-b40b-b6e2759d72b7
0.5068077683605963,0.9854202683733192,0.1732648133043909,-0.4468408994628584,-0.1854973720022725,-0.3584290479549235,-0.2645078963837125,-0.2881361069059957,-9.370528379919644,18.47676925747385,27.271931064670984,0.3332682484758165,3.586850094313683,0.5327244194601511,7551.91748046875,11.598222222222224,7.605555555555556,178.9129014759184,-3.938468407465442,56.48628256812534,1767.0,1435.0,1350.0,1528.0,1630.0,995.0,110.0,294.54999999999995,1649345488.3673525,1649345489.4587002,1013789d-b837-440b-b40b-b6e2759d72b7
0.5061108875259905,0.9879448178757904,0.1766177307394538,-0.4453550963888204,-0.1821839002090664,-0.3638463117711005,-0.2621937255325169,-0.2890433670311396,-9.363654061739402,18.43126666720565,27.07041871410203,0.3175799745023381,3.598084885237842,0.5204038348357348,7551.91748046875,11.598,7.613333333333334,178.7510958123006,-3.914658462882516,55.39245964676392,1767.0,1435.0,1350.0,1528.0,1630.0,995.0,110.0,294.54999999999995,1649345489.5661373,1649345490.6873791,1013789d-b837-440b-b40b-b6e2759d72b7
0.6116160162327481,1.1666750368655612,0.2179835274176528,-0.556303824260685,-0.1984882851479528,-0.4623826619630868,-0.2700303495480258,-0.2955519726540594,-9.07166020012719,19.23789545388713,23.554248595829613,0.35342225093366,4.313825153758301,0.5129500061849762,7551.91748046875,11.529,7.6,178.39950044112558,-3.856707722869543,53.51839120393096,1886.0,1435.0,1350.0,1528.0,1710.0,995.0,110.0,294.54999999999995,1649345492.4790556,1649345493.5521762,3a369f34-0652-4ef3-af27-7fd5c7a6cbca
0.6129834805112061,1.173985711762087,0.2200873187215722,-0.559301727882092,-0.1978045528523073,-0.4672345320426647,-0.2700566469361442,-0.2972350061897211,-9.121351091838315,19.222946094586245,23.498857847455746,0.3492537980295938,4.342589477916741,0.5099400490425142,7545.26953125,11.536333333333332,7.615555555555556,178.3274070355262,-3.8513915589655503,52.81930426690722,1886.0,1435.0,1350.0,1528.0,1710.0,995.0,110.0,294.54999999999995,1649345493.6610105,1649345494.7900858,3a369f34-0652-4ef3-af27-7fd5c7a6cbca
0.6079343816392467,1.1670694977493163,0.2257938526215352,-0.5525169986620319,-0.1917955980975269,-0.463658085986795,-0.2632324727285168,-0.2849672706879497,-9.007545908963332,19.350542685779903,23.977884555237647,0.3432495097664803,4.311126966000493,0.4841863017072613,7539.370659722223,11.522333333333334,7.593333333333334,178.27045843604645,-3.845859390329055,52.31176239605743,1886.0,1435.0,1350.0,1528.0,1710.0,995.0,110.0,294.54999999999995,1649345494.9240806,1649345496.0117505,3a369f34-0652-4ef3-af27-7fd5c7a6cbca
-0.1799046240483039,-0.2408184942560547,0.0661277212558124,0.061955538829628,-0.0047361662639684,0.3745910644242368,-0.0724898829917012,-0.0972827628036431,-10.966536311910575,20.505044442823387,27.588400387742823,0.8401002331192094,-1.073200774237577,0.0137519765630724,7548.962836371527,11.640555555555554,7.645555555555556,178.91387743405983,-3.767358128923329,51.18005165646005,1449.0,1435.0,1350.0,1528.0,1386.0,995.0,110.0,294.54999999999995,1649345498.1596267,1649345499.291146,b86c28b8-56f1-48be-bfc8-fdc5d2d68311
-0.1877589478818761,-0.2471516151215581,0.0588580094095669,0.0641437852996528,-0.0103961743904902,0.3791602360251951,-0.0790981145871055,-0.1046197353145078,-11.051730169345204,20.561116098555782,27.58860434895727,0.8453984946388772,-1.0970819845172368,0.0399498186556462,7558.5771484375,11.639555555555557,7.638888888888889,178.91380761434826,-3.7290986345600254,50.89608198825732,1449.0,1435.0,1350.0,1528.0,1386.0,995.0,110.0,294.54999999999995,1649345499.3997278,1649345500.4631758,b86c28b8-56f1-48be-bfc8-fdc5d2d68311
-0.1695348532691329,-0.2378028909989572,0.0712046351365432,0.0603175147150548,-0.0019547112413432,0.3761097387281764,-0.0682504397107787,-0.0888675963860453,-10.907699774386002,20.631497082794272,28.043668333270272,0.8484011335436438,-1.0658162177649535,-0.0020110335727643,7565.248046875,11.637444444444444,7.647777777777778,178.8217533603545,-3.689191973673756,50.64135919008059,1449.0,1435.0,1350.0,1528.0,1386.0,995.0,110.0,294.54999999999995,1649345500.5707636,1649345501.5401204,b86c28b8-56f1-48be-bfc8-fdc5d2d68311
-0.3967854457429932,-0.6517606505092418,0.036601101639097,0.2145741802592478,0.0528863098737412,0.640509725565482,-0.0023382148629391,-0.0311831682662042,-11.35544767369899,21.88786527662775,28.270669236137618,1.1009943548293493,-2.638417023407975,-0.1726280134526012,7576.394368489583,11.59,7.599999999999999,178.8259228113878,-3.637662844709196,50.07872159829088,1342.0,1435.0,1350.0,1528.0,1293.0,995.0,110.0,294.54999999999995,1649345503.679961,1649345504.842679,024a574a-f6ec-479f-a240-958ba77ce359
-0.4032003671744562,-0.6482789840744547,0.0416069199053904,0.2129607257122526,0.0544926422644654,0.6392677217542865,0.0007144741936128,-0.0195608159492189,-11.244148362333496,22.093608476146084,28.395741065428965,1.103532079858429,-2.6267354328304413,-0.1854088250089521,7577.882107204861,11.592,7.610000000000001,178.79924409248977,-3.6214356907654537,49.935587015679225,1342.0,1435.0,1350.0,1528.0,1293.0,995.0,110.0,294.54999999999995,1649345504.9520376,1649345506.0570552,024a574a-f6ec-479f-a240-958ba77ce359
-0.409630080938145,-0.6606256143158812,0.0363737387776799,0.2257675552726326,0.0550711848908033,0.6402275764869003,-0.0041505435186057,-0.0278313460442932,-11.510247397465458,22.0530272154652,28.45190181568177,1.076145341116498,-2.67356640952671,-0.1736085468529067,7575.650499131944,11.593555555555556,7.624444444444445,178.78147952936848,-3.6084805768891,49.78884799046059,1342.0,1435.0,1350.0,1528.0,1293.0,995.0,110.0,294.54999999999995,1649345506.1662598,1649345507.277778,024a574a-f6ec-479f-a240-958ba77ce359
-0.6437881970396329,-1.063484681911465,-0.0147494044205882,0.3492039681485067,0.0835497436597263,0.9001848629106208,0.039261394806058,0.0185774837919525,-11.961682988839984,23.766079295730755,25.40502327604839,1.3899592751697143,-4.17274283839219,-0.2575000604506324,7577.882107204861,11.487333333333332,7.5344444444444445,178.86213799218706,-3.571121932302266,49.605221390264425,1227.0,1435.0,1350.0,1528.0,1189.0,995.0,110.0,294.54999999999995,1649345507.987479,1649345509.1305523,4207b6a2-f025-41c1-be3a-b9865ae29264
-0.6260445310733992,-1.0620818162297556,-0.0087657360481583,0.3603970478606176,0.0894155792803727,0.8944181486469557,0.0398055485583228,0.0104576582221807,-12.176052964938815,24.021369013954136,26.26855606673821,1.3537718895814024,-4.174611895969921,-0.2731895622665616,7571.93115234375,11.502,7.587777777777778,178.86844908698015,-3.543750423522132,49.538739364523146,1227.0,1435.0,1350.0,1528.0,1189.0,995.0,110.0,294.54999999999995,1649345509.2390604,1649345510.3507154,4207b6a2-f025-41c1-be3a-b9865ae29264
-0.6348936067106561,-1.0662894019030742,-0.0128681293673636,0.3588980965786279,0.0868910296197156,0.8972319694160591,0.0370443223275516,0.0073414171763005,-12.254078173944086,23.96679062213387,25.861162213393943,1.3628058920128854,-4.186306378231894,-0.261356642157016,7571.93115234375,11.507444444444443,7.571111111111112,178.90045990689026,-3.5544949039849274,49.487863182670495,1227.0,1435.0,1350.0,1528.0,1189.0,995.0,110.0,294.54999999999995,1649345510.4590714,1649345511.5765245,4207b6a2-f025-41c1-be3a-b9865ae29264
0.07585927363264,0.2168395909657214,0.1004736326518216,-0.1079726531161477,-0.0713272348494584,0.0857733905176113,-0.1507716622705243,-0.1777922354785845,-10.436269593235057,19.351548865051456,27.875166150804297,0.5687808950921581,0.660080186600785,0.2242261667088461,7571.93115234375,11.656444444444446,7.638888888888889,178.34671218576028,-3.5876083725591883,49.43518800488145,1553.0,1435.0,1350.0,1528.0,1471.0,995.0,110.0,294.54999999999995,1649345513.517028,1649345514.6630008,038346d4-2a6c-48bb-9596-84c58e41d284
0.0705997951591783,0.2105413657441532,0.0951615594656187,-0.0996758252974603,-0.0722476435912322,0.0851685504973698,-0.1561363307248101,-0.1823153874535635,-10.666751771516315,19.259490417750868,27.959179555125093,0.5477287289970642,0.6359848647921416,0.239664637716141,7571.93115234375,11.656555555555556,7.635555555555555,178.37698054852217,-3.587561841895468,49.49753207435055,1553.0,1435.0,1350.0,1528.0,1471.0,995.0,110.0,294.54999999999995,1649345514.772687,1649345515.719937,038346d4-2a6c-48bb-9596-84c58e41d284
0.0710337021283818,0.2073593813955226,0.0898889323557713,-0.1023581594757488,-0.0786642076187013,0.0886003601850568,-0.1611722817775256,-0.1841562048476746,-10.608947147196162,19.39598563406595,27.611258905916547,0.5621070907825018,0.6267232850457348,0.2618466755086549,7578.6259765625,11.656,7.651111111111112,178.3899108555309,-3.605582774269984,49.53696237697409,1553.0,1435.0,1350.0,1528.0,1471.0,995.0,110.0,294.54999999999995,1649345515.8291376,1649345516.901029,038346d4-2a6c-48bb-9596-84c58e41d284
0.0984224361454813,0.2105939605290456,0.0767270874999662,-0.4755050640382013,-0.1302333972920626,0.4457583771014026,-0.0714981678114373,-0.1017007246727734,-10.35601502651939,18.458761628089043,30.290822172281462,2.2001029527893565,0.6584079156934323,0.2238104091811871,7578.6259765625,11.646333333333336,7.63,178.43406119832585,-3.513552141347063,49.65253145446042,1553.0,1522.0,1350.0,1528.0,1471.0,995.0,110.0,294.54999999999995,1649345519.0429852,1649345520.1858552,dc37aa69-88bf-45e8-8ba3-d22768d3603a
0.0918056077253185,0.1988157635061977,0.0778098320858783,-0.4624246366420221,-0.1225687182759326,0.4453790878197308,-0.06688904385315,-0.0958667489853652,-10.417395141933074,18.18397353733976,30.334132176263623,2.167952716323432,0.6127365930909112,0.2041529946198316,7583.097330729167,11.647666666666668,7.613333333333333,178.46168703678885,-3.5189198636929166,49.724574013096,1553.0,1522.0,1350.0,1528.0,1471.0,995.0,110.0,294.54999999999995,1649345520.3186922,1649345521.4090078,dc37aa69-88bf-45e8-8ba3-d22768d3603a
0.0869304757619747,0.1996542457199192,0.0798564772295672,-0.4595951377271804,-0.123238290386128,0.4472573283452783,-0.0691971458472297,-0.0872634557084379,-10.542150556224122,18.58562558279471,31.08269996416204,2.1686117537874896,0.6099180481865571,0.2064913835619305,7578.6259765625,11.642,7.633333333333334,178.4474529225585,-3.50977573449815,49.76056911002196,1553.0,1522.0,1350.0,1528.0,1471.0,995.0,110.0,294.54999999999995,1649345521.5171864,1649345522.606748,dc37aa69-88bf-45e8-8ba3-d22768d3603a
0.1053386502685051,0.202165646599374,0.0741630917863564,-0.8416832395885878,-0.1742683843794818,0.8130671720943913,0.0264727704877516,0.0102078328193251,-10.101973958513089,18.185218154503463,33.76538847155642,3.8502438300502746,0.6391207687065777,0.1487529031763335,7578.6259765625,11.634777777777778,7.613333333333333,178.4993411107732,-3.374429227655739,49.85545295960692,1553.0,1613.0,1350.0,1528.0,1471.0,995.0,110.0,294.54999999999995,1649345524.572111,1649345525.7068884,b550d866-70c4-49c8-a958-61efdec7ae1a
0.1060618285392047,0.2014161709421152,0.0720067056074487,-0.8434320171237673,-0.1752150906107677,0.8120284251843259,0.0252104956384624,-0.0060702536187161,-10.139475333771626,18.06423607113413,33.27319562620786,3.850847726608341,0.6410140543833077,0.1540021664365,7578.6259765625,11.632333333333332,7.626666666666667,178.53406882815318,-3.3874743672199017,49.88031826328035,1553.0,1613.0,1350.0,1528.0,1471.0,995.0,110.0,294.54999999999995,1649345525.8158407,1649345526.9384325,b550d866-70c4-49c8-a958-61efdec7ae1a
0.1113213069455436,0.2071358535681401,0.0788440276182869,-0.8454832147334163,-0.1704552621463274,0.8090173740224096,0.0314429777077949,0.0172160879337462,-10.024633253467131,18.06114125728569,33.42298754359669,3.849110115236124,0.6610118593713722,0.1302923063556411,7578.6259765625,11.631666666666666,7.610000000000001,178.5664803524946,-3.4124006445612363,49.89704539655772,1553.0,1613.0,1350.0,1528.0,1471.0,995.0,110.0,294.54999999999995,1649345527.047018,1649345528.167946,b550d866-70c4-49c8-a958-61efdec7ae1a
0.1093490025697699,0.192356719595896,0.0564912441128432,-1.201892008705183,-0.2323330327994923,1.1674508099016456,0.1051282711299944,0.0783969719289545,-9.922522912651376,17.97366779607593,35.859611072589544,5.45727574311967,0.6257256969071026,0.1387598631503306,7578.6259765625,11.606888888888893,7.59111111111111,178.5651021721021,-3.2966309302680283,49.94188976246333,1553.0,1710.0,1350.0,1528.0,1471.0,995.0,110.0,294.54999999999995,1649345529.08025,1649345530.2160566,f2d22403-289f-44fc-9975-fe6045528163
0.1282568273466842,0.1976030491914931,0.0623292652201917,-1.204758426909234,-0.228099152169558,1.1636113907255232,0.1114396452133656,0.0818024842503846,-9.750463806355825,17.88214044405299,35.71638619987869,5.454861720674289,0.6461756936059337,0.1166148043001133,7579.371202256944,11.607666666666669,7.608888888888889,178.57449140548113,-3.285699734251984,49.97282444812423,1553.0,1710.0,1350.0,1528.0,1471.0,995.0,110.0,294.54999999999995,1649345530.3243074,1649345531.4478912,f2d22403-289f-44fc-9975-fe6045528163
0.1239440551134803,0.1971559935367,0.0619085069384582,-1.194791706977197,-0.2247462342314548,1.156866109757133,0.1088625007992354,0.0947670983477438,-10.011924531701371,17.763746006791674,35.991025149112374,5.416328059771638,0.6426596014797051,0.1165772481133557,7578.6259765625,11.608666666666668,7.602222222222222,178.58728510870648,-3.299690404413436,50.00889088258153,1553.0,1710.0,1350.0,1528.0,1471.0,995.0,110.0,294.54999999999995,1649345531.5841312,1649345532.6743696,f2d22403-289f-44fc-9975-fe6045528163
0.1186319819293673,0.1853879108501655,0.0579638980857238,-1.3961378772501023,-0.2580913318344809,1.3619331762881943,0.153620661740865,0.1240492446343006,-9.860234167813354,18.496762907296205,37.29329897051222,6.336275558768046,0.6104588768268838,0.1020979462954451,7578.6259765625,11.56788888888889,7.59111111111111,178.57066194608646,-3.246189532644726,50.05123350197616,1553.0,1802.4444444444443,1350.0,1528.0,1471.0,995.0,110.0,294.54999999999995,1649345533.9930923,1649345535.1400874,bb76d68e-beca-4a15-bb29-793e5b36421e
0.1300581987162296,0.1854142082467277,0.0590026450326759,-1.3933109053127322,-0.2547121165796994,1.3604736709755108,0.1560794678602108,0.1390256091364643,-9.887046744921172,18.287629458983474,37.47556199299563,6.325299808153444,0.6088461318095885,0.0929307071498601,7578.6259765625,11.567,7.606666666666667,178.60269856893348,-3.2343566093626333,50.071880025472254,1553.0,1814.0,1350.0,1528.0,1471.0,995.0,110.0,294.54999999999995,1649345535.2550366,1649345536.3645096,bb76d68e-beca-4a15-bb29-793e5b36421e
0.1267052812431868,0.1879387578325235,0.0540061405157,-1.3905365271363956,-0.2616940750794211,1.3520979511318283,0.1487687929873349,0.1261135898468689,-9.688988202857946,18.385918928183283,36.9504031415368,6.300638894348561,0.6209107174939803,0.1193472897876454,7571.93115234375,11.567,7.550000000000001,178.6306477030172,-3.231708701546588,50.07428197533037,1553.0,1814.0,1350.0,1528.0,1471.0,995.0,110.0,294.54999999999995,1649345536.4735634,1649345537.590191,bb76d68e-beca-4a15-bb29-793e5b36421e
0.0469584393668307,0.2187987466147574,0.1156998226772785,0.2374435969588963,-0.0233870866095284,-0.2487426075948181,-0.2364880212681224,-0.2527135145452522,-10.874461605772792,20.54460183480858,25.5286001536411,-0.9540232266789964,0.6497845410094801,0.2593767962884332,7578.6259765625,11.654666666666666,7.63,178.67252586954822,-3.7976500653242047,50.17135262381459,1553.0,1349.0,1350.0,1528.0,1471.0,995.0,110.0,294.54999999999995,1649345539.5230205,1649345540.658493,509be29a-3955-478c-8787-0d341707e2c0
0.0613739619064892,0.2186399508324199,0.1130837378977648,0.2342540268496301,-0.026747590015165,-0.2460906163656889,-0.2390611202759838,-0.2673055347760659,-10.887323014324746,20.60216047497253,25.44540025756599,-0.9406373965966102,0.6502452234280762,0.2709863353679964,7578.6259765625,11.657888888888888,7.625555555555555,178.66058669887903,-3.801035467559069,50.32749909625007,1553.0,1349.0,1350.0,1528.0,1471.0,995.0,110.0,294.54999999999995,1649345540.7712898,1649345541.8896208,509be29a-3955-478c-8787-0d341707e2c0
0.0457619080107584,0.2145122718354274,0.1156998226912309,0.2341301256528334,-0.023189856132334,-0.2405904149563729,-0.2342264452305487,-0.2626802276257397,-10.881095395599145,20.573986758223484,25.664993529660247,-0.9280165830401744,0.6329542133043848,0.2555161136606808,7578.6259765625,11.658111111111111,7.643333333333334,178.6431515026577,-3.821018229477065,50.39858770513157,1553.0,1349.0,1350.0,1528.0,1471.0,995.0,110.0,294.54999999999995,1649345541.9977448,1649345543.3238156,509be29a-3955-478c-8787-0d341707e2c0
0.046485086256834,0.2243737935592301,0.1366456953218239,0.568409404522509,0.0254734694989661,-0.5714116805270337,-0.3150909380082122,-0.3406651566422197,-11.22229141459816,21.934990600724102,23.52453855714451,-2.415916019758451,0.6515206197279569,0.2761253088086213,7578.6259765625,11.636,7.615555555555556,178.6895831286355,-3.9449725025344566,50.6627058079666,1553.0,1264.0,1350.0,1528.0,1471.0,995.0,110.0,294.54999999999995,1649345545.6662817,1649345546.8060682,14723520-f411-47d6-87ec-7ec023638207
0.0421854625991707,0.2244526857421756,0.1343841196444264,0.5683831071321577,0.0237509902792206,-0.571056665614164,-0.3173262167140706,-0.3401523572098516,-11.266377031191515,21.90580831847633,23.5658014962036,-2.415380611647284,0.6516221991697183,0.2847853849105362,7578.6259765625,11.628444444444444,7.627777777777778,178.68523153922428,-3.937737766951728,50.76552823464189,1553.0,1264.0,1350.0,1528.0,1471.0,995.0,110.0,294.54999999999995,1649345546.914368,1649345548.236841,14723520-f411-47d6-87ec-7ec023638207
0.0510608325815653,0.2236900613914181,0.1373294275548029,0.563978294312224,0.0258153356401599,-0.5663231335464517,-0.3134604994051196,-0.3285420566076945,-11.273139763968286,21.95594907214978,23.581519985123723,-2.3943294073080907,0.64940034048104,0.2723208973107589,7578.6259765625,11.622777777777776,7.642222222222222,178.68105146345223,-3.9525512614647536,50.83187175932498,1553.0,1264.0,1350.0,1528.0,1471.0,995.0,110.0,294.54999999999995,1649345548.3454802,1649345549.46593,14723520-f411-47d6-87ec-7ec023638207
0.03374399956187,0.2359183483106117,0.1517272495491536,0.9033724100662536,0.0651299375208861,-0.9084655028655988,-0.4067768132680243,-0.439385587565209,-11.561884079996991,23.63024601448589,20.754115881734087,-3.9175389868434807,0.6815211837781807,0.3315882905119718,7571.93115234375,11.60377777777778,7.612222222222221,178.64862627873248,-4.049304021561355,50.93283295945144,1553.0,1178.0,1350.0,1528.0,1471.0,995.0,110.0,294.54999999999995,1649345551.6072605,1649345552.7430725,2997ac51-3abf-4e3a-8739-39305f8bf1db
0.0349273822054777,0.243544591742599,0.155422033074411,0.9005322919195207,0.067667635872623,-0.9125416009792218,-0.4035816794476708,-0.4288929251275886,-11.508396840399392,23.518162024898384,20.892647109431778,-3.920801948811933,0.7090998730924173,0.3197229333633286,7571.93115234375,11.60988888888889,7.638888888888889,178.66433419600364,-4.060098044611568,50.95223980361317,1553.0,1178.0,1350.0,1528.0,1471.0,995.0,110.0,294.54999999999995,1649345552.8520372,1649345553.9724066,2997ac51-3abf-4e3a-8739-39305f8bf1db
0.0304042306774579,0.2336436239722169,0.1527528478106364,0.9010582397180495,0.0663527662428159,-0.9023250583488782,-0.4049096980442865,-0.4366243610489322,-11.65327601364194,23.67896714340896,21.018126096351548,-3.898150260218701,0.6716472858982736,0.3258592977711743,7571.93115234375,11.60811111111111,7.625555555555555,178.70995227056022,-4.089011895483655,50.9954802134287,1553.0,1178.0,1350.0,1528.0,1471.0,995.0,110.0,294.54999999999995,1649345554.0813954,1649345555.026354,2997ac51-3abf-4e3a-8739-39305f8bf1db
0.0189517161598277,0.2383640056872752,0.1595901695847438,1.059500018529741,0.0805270606386902,-1.0618582887106305,-0.452415947987188,-0.4748081830851569,-11.74354020978316,24.93441129312581,19.56717058176024,-4.60566234807918,0.6837974042063131,0.3642077244702033,7571.93115234375,11.599,7.639999999999999,178.72948054030724,-4.1741262503939005,51.05620021569516,1553.0,1088.0,1350.0,1528.0,1471.0,995.0,110.0,294.54999999999995,1649345555.9659207,1649345556.9170282,70fbec66-75dc-42a2-bbc5-307715ff48f2
0.0233170833510932,0.2468843604140246,0.15546147917297,1.0480869507795898,0.0756225970508691,-1.059281142251469,-0.4551377286070079,-0.4796469045259078,-11.781900885134574,24.719774426277723,19.60269860136017,-4.575768152608465,0.7168503541202186,0.3814331428538847,7565.248046875,11.588666666666668,7.63,178.73447113186077,-4.142180744167711,51.09130169620471,1553.0,1088.0,1350.0,1528.0,1471.0,995.0,110.0,294.54999999999995,1649345557.0251377,1649345558.2823026,70fbec66-75dc-42a2-bbc5-307715ff48f2
0.0156382446686218,0.2391003326397519,0.1524504277726197,1.0557263428510324,0.075504258741221,-1.060451376999859,-0.4574781971684798,-0.4722310380103154,-11.814781985878192,24.69053008674109,19.33222324872639,-4.596033884553166,0.6891535046468437,0.3877636879336805,7565.248046875,11.580666666666666,7.617777777777778,178.73347240642215,-4.131315193858691,51.11731333329385,1553.0,1088.0,1350.0,1528.0,1471.0,995.0,110.0,294.54999999999995,1649345558.3954115,1649345559.5052252,70fbec66-75dc-42a2-bbc5-307715ff48f2
