raw_voltage_G-,raw_voltage_G0,raw_voltage_G1,raw_voltage_G2,raw_voltage_G3,raw_voltage_G4,raw_voltage_G5,raw_voltage_G6,load_x,load_y,load_z,load_l,load_m,load_n,rpm,voltage,current,roll,pitch,yaw,aileron1_pwm,elevator_pwm,throttle_pwm,rudder_pwm,aileron2_pwm,pbaro,pdiff,Tt,sample_start_time,sample_end_time,uid
0.0395557233397145,0.1665589784963692,0.1149897931493433,-0.0727867400699306,-0.0941402238144733,0.008735179056795,-0.21665978509045,-0.2338451331014036,-12.185710986429283,25.8999717752394,14.26694734363546,0.35737818991607,0.6011879006762985,0.3004421462337509,4679.582194010417,11.967999999999998,0.16,178.91296218871105,0.8204052195222216,91.6026426447894,1553.0,1435.0,1200.0,1528.0,1471.0,993.0,107.0,294.2,1649337869.293371,1649337870.274102,df76447f-3267-4040-8d14-66e2a15719ab
0.0144680107081086,0.1563950366185541,0.1074161442410928,-0.0688421310291715,-0.0981242789947104,0.0165323560334843,-0.2218009258780605,-0.2480851727846883,-12.317467384722312,25.870032381241405,14.42802417792662,0.3653851808690433,0.5616055559775776,0.3224642602283492,4688.680284288194,11.969222222222225,0.16,178.91799831485906,0.8220315041647559,91.14434454058063,1553.0,1435.0,1200.0,1528.0,1471.0,993.0,107.0,294.2,1649337870.3834531,1649337871.498111,df76447f-3267-4040-8d14-66e2a15719ab
0.0360844675011407,0.1599846305846225,0.1128860017823319,-0.0704857181196722,-0.0942322647007205,0.0132188845441614,-0.2169490564407661,-0.2338582817404789,-12.229309570623537,25.87794333655214,14.281091502556386,0.361992657351774,0.5762962717791646,0.3030702484576256,4691.53076171875,11.968777777777778,0.16,178.9304732759231,0.8372505352307686,90.61201022140853,1553.0,1435.0,1200.0,1528.0,1471.0,993.0,107.0,294.2,1649337871.6068156,1649337872.7304676,df76447f-3267-4040-8d14-66e2a15719ab
0.2416511795636872,0.5517105618814159,0.1369744127948543,-0.2372900917773145,-0.160646333863114,-0.2141615325331316,-0.2871105082249001,-0.3121061837156533,-11.879813962559826,25.13624295791263,14.514698169277072,0.2238040855885255,2.063014274252345,0.5074030353049214,4691.53076171875,11.944555555555556,0.15,178.657048660889,0.8564334120349484,89.77688830396045,1658.0,1435.0,1200.0,1528.0,1551.0,993.0,107.0,294.2,1649337874.66286,1649337875.8061216,a0b3adbf-4de6-4161-b08e-48f45ba80539
0.2390082917513139,0.5448995378672997,0.1374214684452794,-0.2351337053604867,-0.1586608805750653,-0.2103615589385619,-0.2860980584743903,-0.3040328831692895,-11.995500216397334,25.203473811615368,14.393969241723743,0.227869317633397,2.0391215932484776,0.5015638776821342,4689.249077690973,11.940555555555555,0.1488888888888889,178.6665760158712,0.8828788669290982,89.5315600515321,1658.0,1435.0,1200.0,1528.0,1551.0,993.0,107.0,294.2,1649337875.914712,1649337877.2364838,a0b3adbf-4de6-4161-b08e-48f45ba80539
0.2353529543728819,0.5437950474868851,0.13973563892865,-0.2361067089939272,-0.1571356316870459,-0.2064432470578693,-0.2837707389136221,-0.3170369461522624,-12.013155078611604,25.3091371544842,14.686289538821711,0.2397225412646056,2.032781507777229,0.493232761788717,4680.432237413194,11.942444444444444,0.1488888888888889,178.69374499056974,0.9161431036287097,89.29965615646249,1658.0,1435.0,1200.0,1528.0,1551.0,993.0,107.0,294.2,1649337877.3447978,1649337878.4736023,a0b3adbf-4de6-4161-b08e-48f45ba80539
0.4549361662757309,0.9372960436574428,0.1726073785623336,-0.410695125514078,-0.2186452384322558,-0.429668698211997,-0.3451751598313464,-0.368172233936021,-11.553348351080944,24.765240593348967,14.803470790695322,0.1302152117614076,3.5279267563936525,0.6664229886002356,4621.822482638889,11.904222222222224,0.14,178.2977108908348,0.958195238398172,88.72883068567775,1767.0,1435.0,1200.0,1528.0,1630.0,993.0,107.0,294.2,1649337880.8088458,1649337881.947305,b58f6f1e-5f01-4c81-8489-a1d368c538c9
0.4608530790827443,0.9366780549813184,0.1694253941571118,-0.4065664341170501,-0.2202756769620122,-0.4312070960573033,-0.3494747842594348,-0.3711701371722999,-11.685279498807564,24.750752464195863,15.01110971706948,0.1171571130639613,3.52399210395516,0.6792708129085889,4615.73876953125,11.906,0.14,178.3106533404021,0.9726023959454196,88.59141942213562,1767.0,1435.0,1200.0,1528.0,1630.0,993.0,107.0,294.2,1649337882.0556438,1649337883.1758823,b58f6f1e-5f01-4c81-8489-a1d368c538c9
0.4642487295952715,0.941313517912271,0.1743199961824259,-0.4119886287835476,-0.2174700735849557,-0.4311090286250354,-0.3439167198244153,-0.3679952746938726,-11.556462138605482,24.721558271330867,15.000846674296184,0.1297220204622275,3.541534516539015,0.6614650398410562,4610.77294921875,11.907777777777778,0.14,178.3123153531001,1.002397851113033,88.46241156800232,1767.0,1435.0,1200.0,1528.0,1630.0,993.0,107.0,294.2,1649337883.2849195,1649337884.6051958,b58f6f1e-5f01-4c81-8489-a1d368c538c9
0.5556814677631865,1.103061646849471,0.207951072685261,-0.5037221732486504,-0.2320306126967327,-0.5287572975656009,-0.3561148770249218,-0.3869354269705625,-11.47457728733469,25.23961622595245,11.718730813593028,0.1218486257659246,4.190133270936988,0.6668044583847624,4608.29345703125,11.851222222222225,0.1322222222222222,178.23325211890767,1.0184283881008238,88.16958162662625,1886.0,1435.0,1200.0,1528.0,1710.0,993.0,107.0,294.2,1649337886.7469006,1649337887.8927958,7372e808-45b1-4c9b-bb1b-b206a60d0c0f
0.5528413496419106,1.11100345905732,0.2179309326730513,-0.5131760884542059,-0.2283226799917562,-0.5269822231261823,-0.3478443456561432,-0.3712490294225989,-11.290515943832922,25.508302470745885,11.905660481322984,0.1495637049655798,4.218761607390189,0.6375351576401317,4598.40478515625,11.853,0.14,178.26758216749596,1.0356416268900523,87.99006224685101,1886.0,1435.0,1200.0,1528.0,1710.0,993.0,107.0,294.2,1649337888.0059557,1649337889.110778,7372e808-45b1-4c9b-bb1b-b206a60d0c0f
0.5613880013946005,1.1074533112046303,0.214512271814567,-0.5099941032791991,-0.2280465573093755,-0.5274424278876501,-0.3494090408052196,-0.369907862024747,-11.39041846923016,25.280482740045667,11.746460729239196,0.1395956477001994,4.206952104348212,0.6434443038080727,4595.93896484375,11.85277777777778,0.13,178.26408055718147,1.026584440311596,87.86924454844247,1886.0,1435.0,1200.0,1528.0,1710.0,993.0,107.0,294.2,1649337889.2194245,1649337890.3430836,7372e808-45b1-4c9b-bb1b-b206a60d0c0f
-0.2169622051964633,-0.2850593113165834,0.0835381121806478,0.1056147729002194,-0.0243074952881179,0.2838979382648765,-0.1402790018224812,-0.15419032361301,-12.822513542749308,27.05614479601404,13.993860959001228,0.579009790716522,-1.109667083727781,0.0850629590178528,4601.701009114583,11.954,0.1633333333333333,179.2446316213474,1.0757118921512845,87.57059528589356,1449.0,1435.0,1200.0,1528.0,1386.0,993.0,107.0,294.2,1649337892.2776823,1649337893.414834,8b11a811-eb85-497b-9007-79cfa3564fb9
-0.2178037217955214,-0.2851776496063274,0.0807637372927948,0.1114264965467813,-0.0276867103182632,0.2805187235343286,-0.1424879829630133,-0.1626843819970626,-12.53435773474482,27.047247663534325,14.23701304535719,0.5582931039806146,-1.1151970500801671,0.0971772180897968,4620.71484375,11.955,0.15,179.26192110686645,1.0803700811652328,87.37534522154985,1449.0,1435.0,1200.0,1528.0,1386.0,993.0,107.0,294.2,1649337893.522962,1649337894.645944,8b11a811-eb85-497b-9007-79cfa3564fb9
-0.2439301841717516,-0.2963803403942511,0.0767270875834051,0.119867959373918,-0.0281469146882673,0.2815837678664685,-0.146287956440728,-0.1768455290645303,-12.68575297017559,27.097133448997937,13.9032605221425,0.541644818939465,-1.154478754053389,0.10683819544061,4624.315972222223,11.951444444444444,0.1544444444444444,179.26358615520408,1.0878745262144056,87.22562823385309,1449.0,1435.0,1200.0,1528.0,1386.0,993.0,107.0,294.2,1649337894.7541158,1649337895.8738549,8b11a811-eb85-497b-9007-79cfa3564fb9
-0.4630532456122208,-0.7280521547970709,0.0546109805851058,0.3163094724659389,0.0427114104688757,0.5272013943724813,-0.0741673532336331,-0.1039360035121763,-13.000392850225737,28.80038036067525,14.58062863617584,0.6605958857844055,-2.802846377299693,-0.1126847166504289,4640.731770833333,11.912333333333333,0.1466666666666666,179.41671596075614,1.113513076078093,87.00719347182672,1342.0,1435.0,1200.0,1528.0,1293.0,993.0,107.0,294.2,1649337896.7832985,1649337897.927018,75868af7-f763-4153-81fa-b2f168f16dbe
-0.4576118755271115,-0.730967879413131,0.0580225193859255,0.3172298811285344,0.0467091620035282,0.5312933778321017,-0.0706977408608328,-0.097132100390539,-13.11879991659486,28.872830258434146,14.902750412026792,0.6683567985012381,-2.815694838355642,-0.1277230384959732,4663.45263671875,11.915,0.15,179.43301734557522,1.1321731173166656,86.74601842161405,1342.0,1435.0,1200.0,1528.0,1293.0,993.0,107.0,294.2,1649337898.0414913,1649337899.1529331,75868af7-f763-4153-81fa-b2f168f16dbe
-0.4613439147212136,-0.7349946693031925,0.0581348311688471,0.3252374366168764,0.0479445915860046,0.5278588291234779,-0.0699334728677535,-0.0961256773830483,-12.9592024299062,28.84759781125544,14.904663224585,0.642494791304337,-2.8329235031291766,-0.1309393532699073,4675.8916015625,11.915555555555551,0.14,179.42441282504083,1.1340742459254889,86.57624268614478,1342.0,1435.0,1200.0,1528.0,1293.0,993.0,107.0,294.2,1649337899.2610795,1649337900.383753,75868af7-f763-4153-81fa-b2f168f16dbe
-0.6834254621252401,-1.1193575779301932,0.0401474146840435,0.503415405048473,0.107915794702449,0.7460219762180441,-0.0083975724585081,-0.0399544443443349,-13.111150141771867,30.87285586295362,15.848268882870562,0.7434146261640925,-4.3048492866308905,-0.3202697439391679,4683.83935546875,11.821,0.12,179.59347670301662,1.1669622589673023,86.31834385000397,1227.0,1435.0,1200.0,1528.0,1189.0,993.0,107.0,294.2,1649337901.288975,1649337902.42711,5d2eaf93-a540-4317-b2ec-e76ffeb0766e
-0.6758781077621844,-1.1233416358671058,0.0376097162876575,0.4990500382899218,0.1091780695216406,0.7533063532414157,-0.0048342757065632,-0.0198237898413537,-13.108998565439917,30.477665199979693,15.766156997846725,0.766872658697737,-4.318709507581469,-0.324075681660583,4678.72607421875,11.822777777777778,0.12,179.58991741554917,1.1811089088307374,86.0356476326265,1227.0,1435.0,1200.0,1528.0,1189.0,993.0,107.0,294.2,1649337902.535942,1649337903.6598277,5d2eaf93-a540-4317-b2ec-e76ffeb0766e
-0.6740767356706462,-1.1208828278187593,0.0340858656757561,0.5013510599264382,0.1047469589551957,0.7488489456407048,-0.0117373413832009,-0.0249123355208844,-13.194591539364389,30.61896748018828,15.734833767042762,0.7523788948237918,-4.309108361383578,-0.3032527952923071,4677.591525607639,11.826666666666664,0.1255555555555555,179.5800318550904,1.1868230024016877,85.79987253811731,1227.0,1435.0,1200.0,1528.0,1189.0,993.0,107.0,294.2,1649337903.7726543,1649337904.885115,5d2eaf93-a540-4317-b2ec-e76ffeb0766e
0.0234748677148349,0.1579597314211917,0.1035504276070333,-0.0712088964440623,-0.1016612784821125,0.0151254455207114,-0.2246936393689494,-0.2486637155868302,-12.261553434562709,25.742330966226035,14.111554623155104,0.3665011716007639,0.5699273972266166,0.3364835231545999,4676.17333984375,11.966888888888889,0.16,179.03578568600582,1.170807833339529,85.59582215448297,1553.0,1435.0,1200.0,1528.0,1471.0,993.0,107.0,294.2,1649337905.7948835,1649337906.9283822,89973fa4-a24b-465c-aec2-07b145bf5d8c
0.0264596217805905,0.1637714549801335,0.1068376016153569,-0.0772178509015115,-0.1011090332099284,0.0157302855483763,-0.2229974573661701,-0.2400250211581512,-12.28693568492699,25.849801364159152,14.238403383565725,0.3822986141759908,0.5917303288766443,0.3296031461585389,4688.9638671875,11.962222222222222,0.16,179.040367984029,1.182210964596506,85.72938953934221,1553.0,1435.0,1200.0,1528.0,1471.0,993.0,107.0,294.2,1649337907.0375044,1649337908.1621082,89973fa4-a24b-465c-aec2-07b145bf5d8c
0.0239350720669768,0.1590247757882103,0.1068638990070827,-0.068434521410966,-0.0998467582954821,0.0125483010277995,-0.2258375760628079,-0.2494789348952878,-12.446047164835589,26.02611024274932,14.262553784196012,0.3564290700292916,0.5737627448383713,0.3312448551977836,4687.539442274306,11.96877777777778,0.16,179.02725250300276,1.1955315528832906,85.87042839224354,1553.0,1435.0,1200.0,1528.0,1471.0,993.0,107.0,294.2,1649337908.270084,1649337909.3953865,89973fa4-a24b-465c-aec2-07b145bf5d8c
0.0389903293486141,0.1627195593166551,0.0898231889128936,-0.3265566028812809,-0.1423039011999004,0.2574822090203372,-0.1713888195914866,-0.1962135612002993,-12.273362749969682,25.24091070990391,15.958609251338176,1.4833920307474509,0.6020528612681211,0.3357969448769584,4694.10009765625,11.960333333333333,0.16,179.03867865057427,1.2746109139112674,85.9692210073085,1553.0,1522.0,1200.0,1528.0,1471.0,993.0,107.0,294.2,1649337910.1970558,1649337911.437989,7624f117-51a6-4a0d-8df1-75319ef9df57
0.0462089636443125,0.1641264697691431,0.0910723150332648,-0.3290022607717563,-0.1414229384958091,0.2599147176919756,-0.1683120244259605,-0.1998951957604104,-12.166445196216142,25.155097653689765,16.197202987272295,1.4939601933562023,0.6048370898705615,0.3291089419580402,4690.960340711806,11.961555555555556,0.1577777777777777,179.04181750195286,1.2925886121369756,86.01542344249411,1553.0,1522.0,1200.0,1528.0,1471.0,993.0,107.0,294.2,1649337911.5461686,1649337912.8730106,7624f117-51a6-4a0d-8df1-75319ef9df57
0.0505085873454767,0.1637320088988307,0.0959767786827055,-0.3297517365819863,-0.1389378347126715,0.2599936098630824,-0.164985403969988,-0.1858918330981581,-12.116701162648171,25.378868626277,16.084163800385767,1.4975627435428354,0.6044143975632427,0.3140316325808256,4691.53076171875,11.960666666666668,0.1588888888888888,179.0355185497183,1.295465034841034,86.08520900306392,1553.0,1522.0,1200.0,1528.0,1471.0,993.0,107.0,294.2,1649337912.9811354,1649337914.1076212,7624f117-51a6-4a0d-8df1-75319ef9df57
0.0497459629241599,0.1556718583501054,0.0796198007274712,-0.633302613851244,-0.1871672564914145,0.5621243283188548,-0.0977035206895859,-0.1225282607791848,-12.002942881384966,24.98648343209185,18.37427785959369,2.858233901085663,0.5894115666023161,0.3060569027579596,4690.390570746527,11.953888888888889,0.15,179.02797953869438,1.4044616323608876,86.13277064589435,1553.0,1613.0,1200.0,1528.0,1471.0,993.0,107.0,294.2,1649337916.240057,1649337917.3781822,f7770370-545f-456a-ab16-1ef96efbc4cb
0.0576746267755409,0.1627590054052678,0.0805533581530604,-0.6368922091920222,-0.1876406095979085,0.5587714110923959,-0.0963360562042751,-0.1193725736361254,-11.85088955035062,24.852681202683883,18.42453464120769,2.8580407408001305,0.6149699257057297,0.3045403110547401,4688.109212239583,11.953,0.1533333333333333,179.0251230018015,1.4134340819049536,86.13949534658718,1553.0,1613.0,1200.0,1528.0,1471.0,993.0,107.0,294.2,1649337917.487035,1649337918.6023324,f7770370-545f-456a-ab16-1ef96efbc4cb
0.0567410693514416,0.1663880454550773,0.0867726914117787,-0.6389828525776311,-0.1835908107883939,0.557259311169597,-0.0920232836148916,-0.1071837313878374,-11.865158869244462,24.98053413503,18.48044485898664,2.860517793052594,0.6288403400278639,0.2848434212067893,4688.109212239583,11.955333333333334,0.1533333333333333,179.02287359283486,1.4141492952031989,86.13654242813602,1553.0,1613.0,1200.0,1528.0,1471.0,993.0,107.0,294.2,1649337918.7106998,1649337919.841829,f7770370-545f-456a-ab16-1ef96efbc4cb
0.0687589776855745,0.164034428896635,0.0718883673703897,-0.9382604654003254,-0.2336216051326805,0.8475561992425722,-0.0298562452672498,-0.0416506266146354,-11.769749125888367,24.893998863920707,20.42514247914173,4.186993862872205,0.6380041798010242,0.2846997079929289,4686.39990234375,11.931777777777777,0.14,179.04696898240684,1.5279674489526185,86.18863324529609,1553.0,1710.0,1200.0,1528.0,1471.0,993.0,107.0,294.2,1649337921.7683518,1649337922.9072285,f2a9c5e8-fb59-4f71-b6d7-bc25aa915da8
0.0747284857478182,0.1581569618618087,0.0709679586497049,-0.9357753603937908,-0.2321752483756802,0.8526447442465042,-0.0272922494166242,-0.0486720304832087,-11.710421965068116,24.758511407922,20.662657902376218,4.191946447077903,0.6130684922859597,0.2800764579854596,4684.123860677083,11.931111111111113,0.14,179.0381747343955,1.5221560844758315,86.12802062878158,1553.0,1710.0,1200.0,1528.0,1471.0,993.0,107.0,294.2,1649337923.0163813,1649337924.1547298,f2a9c5e8-fb59-4f71-b6d7-bc25aa915da8
0.0655506958249739,0.1557638992151786,0.0730586013360727,-0.9364196468637735,-0.2313731778142963,0.8551429963119804,-0.0255040266767849,-0.0361676201414108,-11.675433103183416,24.91742607016436,20.612999061069864,4.200180966605914,0.6045000910272815,0.2731821822305014,4686.116916232639,11.93588888888889,0.1444444444444444,179.02408481304766,1.509744468673122,86.07049222213229,1553.0,1710.0,1200.0,1528.0,1471.0,993.0,107.0,294.2,1649337924.2632644,1649337925.3647854,f2a9c5e8-fb59-4f71-b6d7-bc25aa915da8
0.0774897119403242,0.165020581086106,0.0674572567579959,-1.0153776174410896,-0.2537785588898658,0.9233321295269712,-0.0203628864154266,-0.0325385798992581,-11.65367965337014,25.53666214989129,21.25028601233881,4.535459509094484,0.6427928749696133,0.3051021345653492,4684.69384765625,11.905333333333337,0.13,179.00252418256767,1.5354127583188206,86.0009859404085,1553.0,1814.0,1200.0,1528.0,1471.0,993.0,107.0,294.2,1649337926.281616,1649337927.230277,15c1c542-24be-4ab8-a06b-2695baca09f9
0.0590683885960853,0.1553957357319744,0.0574773963398874,-1.008119531635136,-0.2598401086225298,0.926579857152168,-0.0295538252392499,-0.0553384196320327,-11.816528426013576,25.527158016914424,21.24862518948828,4.525742950239028,0.6063347196126596,0.3388344777376083,4667.686360677083,11.908666666666669,0.1366666666666666,179.01393059848158,1.5548051950502697,85.9388130051236,1553.0,1814.0,1200.0,1528.0,1471.0,993.0,107.0,294.2,1649337927.3385894,1649337928.4427788,15c1c542-24be-4ab8-a06b-2695baca09f9
0.0726115456710359,0.1519902235113808,0.0593313625190002,-0.9943791359910892,-0.2564082984548776,0.916784079306387,-0.0308686949595832,-0.0525245986095284,-11.845412065006236,25.62103546829708,21.18154810097237,4.473424971650552,0.592788298958078,0.333060237915472,4662.88916015625,11.909666666666668,0.14,179.01451647693042,1.5597508923395935,85.87048151593706,1553.0,1814.0,1200.0,1528.0,1471.0,993.0,107.0,294.2,1649337928.5507882,1649337929.8717308,15c1c542-24be-4ab8-a06b-2695baca09f9
0.0005485983567341,0.1690289104345953,0.1339825787411008,0.2502473921636695,-0.0470648548824866,-0.302528873947519,-0.2923765618289404,-0.3063849826536969,-12.433889701103446,27.178324586528724,12.417709225181682,-1.0617591932841035,0.5900512513416393,0.3180639424628374,4654.730685763889,11.965666666666667,0.1522222222222222,179.02756213824512,1.1267569551743553,85.80867968759708,1553.0,1349.0,1200.0,1528.0,1471.0,993.0,107.0,294.2,1649337931.803722,1649337932.9470208,7bb619af-dd6c-472c-a4f8-80325e18598f
0.0033705109006245,0.1650205810851744,0.1325170048648887,0.2541555890501871,-0.0466208335088643,-0.3026785668222559,-0.2936322624932813,-0.3067678123282987,-12.51229900065635,27.15260371919609,12.340008729621749,-1.0712068455075967,0.5756866700506861,0.3206401502944659,4659.794108072917,11.967888888888888,0.15,179.02315742514037,1.130957438508142,86.02520806793511,1553.0,1349.0,1200.0,1528.0,1471.0,993.0,107.0,294.2,1649337933.060742,1649337934.1821296,7bb619af-dd6c-472c-a4f8-80325e18598f
-0.001550135879417,0.1659187381552218,0.1341342944680177,0.2576056044712029,-0.0467234944777543,-0.3073079200264436,-0.2939695771669988,-0.317156800730153,-12.391969367401142,27.29653820717929,12.261238049426936,-1.0883093061034852,0.5785819819551201,0.319108602790139,4682.98779296875,11.967666666666666,0.15,179.0152010136672,1.1300666442879512,86.18731577769618,1553.0,1349.0,1200.0,1528.0,1471.0,993.0,107.0,294.2,1649337934.2901814,1649337935.2990096,7bb619af-dd6c-472c-a4f8-80325e18598f
0.0011352324837867,0.1728177576968949,0.1592483035987726,0.5502510567344828,0.0045801909727442,-0.5980772448523097,-0.3565356353653762,-0.3699078624752269,-12.760032717152008,28.32575771994632,10.042452441669232,-2.3943088753909465,0.5923062327826801,0.3036702222791266,4721.970920138889,11.945444444444444,0.14,179.0164471437358,1.0297215960008457,86.55178833218639,1553.0,1264.0,1200.0,1528.0,1471.0,993.0,107.0,294.2,1649337937.334914,1649337938.8907852,406b9de2-2ed9-4242-a749-b711259811d4
0.019122649214755,0.1734094490016213,0.1620095297171396,0.5517105618808746,0.0067497258798852,-0.600273077826347,-0.3536166242995652,-0.3730766984836094,-12.640461466408077,28.32047492468212,10.025075391829873,-2.4023756018475515,0.5938284124530233,0.2929410025603765,4722.548828125,11.94811111111111,0.1477777777777777,179.01805603274028,1.0255499393855874,86.70126322762259,1553.0,1264.0,1200.0,1528.0,1471.0,993.0,107.0,294.2,1649337939.0038478,1649337940.117453,406b9de2-2ed9-4242-a749-b711259811d4
-0.0023097260084593,0.1726862707300638,0.1544095835382677,0.5550108843255516,-0.0009817076295848,-0.6012066355498706,-0.3637411221929597,-0.3820967063640325,-12.738617263596552,28.477707091879232,10.153972185032718,-2.411283127336103,0.5897828979822898,0.3282362422065244,4725.7314453125,11.945,0.1477777777777777,179.01453317294838,1.0183134962555664,86.80757512205383,1553.0,1264.0,1200.0,1528.0,1471.0,993.0,107.0,294.2,1649337940.2370126,1649337941.3390949,406b9de2-2ed9-4242-a749-b711259811d4
-0.0030672932104787,0.1692311980541578,0.1752871838895922,0.809383008891484,0.0418405621896323,-0.8455828413375431,-0.4177190593950853,-0.4407545693190743,-12.97994587196074,29.61991273198125,8.092576064248366,-3.5260689757169703,0.5668266876463605,0.3165727041955899,4727.75830078125,11.933777777777776,0.14,179.00981730678143,0.9336625269918248,86.98510843460043,1553.0,1178.0,1200.0,1528.0,1471.0,993.0,107.0,294.2,1649337942.2504318,1649337943.3623884,7748c0bd-c55c-4a70-8930-aaff3030f787
-0.0055706027576611,0.1768675559958601,0.1816536812419885,0.7903199296950065,0.0442629566121497,-0.8341490329022454,-0.4097352705396811,-0.4331005089451227,-13.0380380859066,29.6574330925616,8.34116116286046,-3.4567979254807857,0.5964269431256626,0.294279300794422,4720.526475694444,11.924333333333337,0.1311111111111111,178.99704637085333,0.9152963380411374,87.08326052970324,1553.0,1178.0,1200.0,1528.0,1471.0,993.0,107.0,294.2,1649337943.470154,1649337944.6171305,7748c0bd-c55c-4a70-8930-aaff3030f787
-0.0099096725817533,0.1671638185044621,0.1760260394520979,0.7935019138895908,0.0397792511836327,-0.8275878302446684,-0.4142452742566248,-0.4346126094590385,-13.056784120116165,29.806289997509577,8.298095235212017,-3.4485415336114755,0.5598003914352253,0.3131974520586674,4684.696017795139,11.933333333333334,0.1344444444444444,179.0005646771858,0.9180831145123391,87.17949789510872,1553.0,1178.0,1200.0,1528.0,1471.0,993.0,107.0,294.2,1649337944.7267358,1649337946.0493162,7748c0bd-c55c-4a70-8930-aaff3030f787
-0.0150771103335108,0.171989389854335,0.1814564507197401,0.92838122862474,0.0524151481991234,-0.9594430290781368,-0.4536650744804573,-0.485511225324381,-13.164220781728163,30.77798331678573,7.740688218656324,-4.042523523548591,0.5673541203292131,0.3452164730285723,4666.555989583333,11.917444444444444,0.13,179.00083940257238,0.8364331003253355,87.27433127718481,1553.0,1088.0,1200.0,1528.0,1471.0,993.0,107.0,294.2,1649337947.6370232,1649337948.923418,e10a2281-5ecd-4728-a0c5-6383758cb39e
0.0020819386409544,0.1783402099213331,0.1825609411426804,0.9190456548223748,0.052217917702132,-0.960245099140726,-0.4515481340071999,-0.4811327083195539,-13.117823222117917,30.625323038212528,7.303458074823684,-4.02427046364906,0.5959371647974934,0.3411305155721089,4668.53271484375,11.909333333333333,0.1322222222222222,178.9963269242607,0.8196531101586942,87.30222045738577,1553.0,1088.0,1200.0,1528.0,1471.0,993.0,107.0,294.2,1649337949.0573473,1649337950.1520054,e10a2281-5ecd-4728-a0c5-6383758cb39e
-0.0222562986377531,0.1786557786144199,0.1912916751986542,0.9374669771318672,0.0610932877603222,-0.9748138648134508,-0.4494180444646602,-0.4739929637273615,-13.19541718947198,30.87876756251371,7.726711572251751,-4.096419158381539,0.5922083663891167,0.3147465792819671,4670.795518663194,11.90988888888889,0.13,178.9957850625866,0.8256588385776433,87.34810490932003,1553.0,1088.0,1200.0,1528.0,1471.0,993.0,107.0,294.2,1649337950.2661712,1649337951.374922,e10a2281-5ecd-4728-a0c5-6383758cb39e
0.0419750834495563,0.1709769402837608,0.116015391431599,-0.0695784580337208,-0.0948634021540689,0.0006092846431785,-0.2180798444367952,-0.2349496237017994,-12.053881777485383,25.96347211178904,14.144231437540844,0.3323999391329087,0.6175836029213141,0.3025067538573517,4690.389919704861,11.96888888888889,0.1544444444444444,179.01359667812216,1.1535549177916848,87.40963884246258,1553.0,1435.0,1200.0,1528.0,1471.0,993.0,107.0,294.2,1649337953.309623,1649337954.4467442,c887b285-7019-461a-83b1-0bd5e3fa6786
0.0438290496631637,0.1636531167174131,0.1139116000756477,-0.0636220983919078,-0.0943374542681294,0.0018321134219623,-0.2201310412685112,-0.2337267951739078,-12.194129388680786,25.99380262560884,14.062083338206891,0.3217243285570512,0.5909693162171651,0.3065182133809265,4699.532986111111,11.966444444444445,0.1411111111111111,179.00355326440263,1.1499855273360529,87.37463032841674,1553.0,1435.0,1200.0,1528.0,1471.0,993.0,107.0,294.2,1649337954.5553882,1649337955.672652,c887b285-7019-461a-83b1-0bd5e3fa6786
0.0131915757155943,0.1629855675454329,0.1115286517772134,-0.0627547901147301,-0.0972574764422863,0.0026346896234885,-0.2231436102059618,-0.2522477470142832,-12.183289335241694,26.08209271917957,14.174765973720184,0.3220614391139281,0.5871338212807253,0.318089971112686,4705.840277777777,11.96811111111111,0.15,179.00988409085332,1.1601486353776205,87.3680908017414,1553.0,1435.0,1200.0,1528.0,1471.0,993.0,107.0,294.2,1649337955.7813733,1649337956.9044373,c887b285-7019-461a-83b1-0bd5e3fa6786
0.0817630381630562,0.1892930734874295,0.2691188045357994,-0.0831479132015759,0.0435266296320876,-0.0117504900627478,-0.0593093258485816,-0.0744434760540536,-11.008857017390108,25.96709200685692,14.357136833138672,0.3434427431237929,0.6883735267989453,-0.3176107810218134,4709.5751953125,11.968666666666667,0.1433333333333333,178.97208885962607,1.1402045304330524,87.2852049383435,1553.0,1435.0,1200.0,1424.0,1471.0,993.0,107.0,294.2,1649337958.6155255,1649337959.982823,8eb9bf1d-d6de-4bb4-ad27-34a7826b3394
0.0820786068890544,0.1914100135039385,0.2757588957632085,-0.0861326673867741,0.048838702927652,-0.0115006648241273,-0.0526297879057343,-0.0661597975058253,-10.974357183737142,25.989839645342087,14.347631217471958,0.3512342881086077,0.696942224927231,-0.3431760679174974,4709.5751953125,11.968777777777778,0.1488888888888888,178.95939685032835,1.1514115427687048,87.27508942818268,1553.0,1435.0,1200.0,1424.0,1471.0,993.0,107.0,294.2,1649337960.0959623,1649337961.2061136,8eb9bf1d-d6de-4bb4-ad27-34a7826b3394
0.0731769395958003,0.1872681743433229,0.2713014879885149,-0.084344444603813,0.0461169228024433,-0.0092390890288921,-0.0562193821129267,-0.0795057243292804,-11.039404534621733,25.95887823962145,14.296071608610973,0.3518144002825375,0.6818219010600498,-0.3288731362168459,4709.5751953125,11.967666666666666,0.1455555555555555,178.95445179336934,1.1545095553078673,87.29123903102021,1553.0,1435.0,1200.0,1424.0,1471.0,993.0,107.0,294.2,1649337961.3149002,1649337962.435053,8eb9bf1d-d6de-4bb4-ad27-34a7826b3394
0.1583673409881092,0.2212707013935332,0.4874923353324908,-0.093877249867746,0.2393764552422746,-0.0456609786448498,0.1610365262460904,0.1394726648938615,-9.498810848258202,26.121413400904565,14.26538837570501,0.3040861549228593,0.8136018479656982,-1.1911195350799126,4675.906846788194,11.958666666666668,0.1455555555555555,178.93176342276632,1.1435506590801894,87.19381776615862,1553.0,1435.0,1200.0,1304.0,1471.0,993.0,107.0,294.2,1649337964.7761154,1649337965.9166138,0c44a476-05d4-48d6-831a-c51123abd699
0.1437196937790485,0.2174312822673037,0.4834162398599993,-0.092128473207067,0.2362865117774263,-0.0435571871819007,0.1563292931334666,0.1349495135280645,-9.62787990927773,26.20413302591848,14.224491189535556,0.3051427502700863,0.8000053700243567,-1.1752837859104808,4653.326171875,11.955888888888888,0.1422222222222222,178.94682171315648,1.14628720520187,87.19316206799829,1553.0,1435.0,1200.0,1304.0,1471.0,993.0,107.0,294.2,1649337966.0245972,1649337967.348111,0c44a476-05d4-48d6-831a-c51123abd699
0.1527659965252396,0.2186409622688156,0.4907795090945136,-0.0911949156975309,0.2439390526014019,-0.0443198115802056,0.1650600271673658,0.145087157981782,-9.543328277940914,26.090028203638223,14.469519219905532,0.301015001419641,0.8021222085484594,-1.2075683675502176,4651.081380208333,11.96,0.14,178.95454134473843,1.1563785013934138,87.16789871607823,1553.0,1435.0,1200.0,1304.0,1471.0,993.0,107.0,294.2,1649337967.456685,1649337968.5819874,0c44a476-05d4-48d6-831a-c51123abd699
0.2136313091952238,0.260611598559988,0.6915732303242536,-0.0704331233577521,0.419934339827647,-0.1154411129779368,0.3514690837627548,0.3225551024648386,-8.010828171994884,26.755996799710687,14.397589758679748,0.1095353526587947,0.959512787150436,-1.9804336029965608,4640.72900390625,11.935,0.14,178.9087183645067,1.1326486692376276,87.14160248777368,1553.0,1435.0,1200.0,1166.0,1471.0,993.0,107.0,294.2,1649337969.145435,1649337970.2162535,9010bf94-fff9-4aa8-af44-32867baf0881
0.2103441352801135,0.2567721794702864,0.6885621791771682,-0.0706566511850231,0.4185537268286258,-0.1128771170256791,0.3495756716338402,0.3311937954199855,-8.09310651282427,26.706715468166458,14.180309499034877,0.1152485432309502,0.9474565272400912,-1.9725632465009133,4635.708984375,11.937888888888889,0.1355555555555555,178.90354411675546,1.1314725011761777,87.1074682379416,1553.0,1435.0,1200.0,1166.0,1471.0,993.0,107.0,294.2,1649337970.3240378,1649337971.446154,9010bf94-fff9-4aa8-af44-32867baf0881
0.2164056839859039,0.2607562342094894,0.6926514233124489,-0.0839368350017103,0.4212097632599119,-0.1041858282972584,0.3568600488375445,0.3366505040052798,-8.081655913381187,26.583541886164625,14.277496659265717,0.1641442111462104,0.9633489651259484,-1.9915650915940908,4628.755479600694,11.930666666666667,0.1377777777777778,178.9036913452776,1.1413947739016983,87.11414664513005,1553.0,1435.0,1200.0,1166.0,1471.0,993.0,107.0,294.2,1649337971.554536,1649337972.670295,9010bf94-fff9-4aa8-af44-32867baf0881
-0.0280680225308503,0.1314651092124439,-0.0680532092300278,-0.0381004780516979,-0.261509993230009,0.0187281883420567,-0.4133117166313929,-0.426486713113808,-13.433997841208525,26.640518881125868,13.876026197938865,0.2966942929982274,0.4660023333265771,1.0522335525892046,4625.7021484375,11.969666666666669,0.15,179.03651575733707,1.1533586210008506,87.23562459515836,1553.0,1435.0,1200.0,1623.0,1471.0,993.0,107.0,294.2,1649337974.700765,1649337975.9503434,829eaaa7-bc62-4c13-bba5-e7530a5ff871
-0.0354181439665627,0.1338581718744311,-0.063385421862962,-0.0354575900475781,-0.2570394359356406,0.016571802112366,-0.4097747166012305,-0.4345863120176451,-13.46122911166787,26.654940482883244,14.280092537793728,0.2862656275598199,0.4715600410695225,1.0356035210276169,4635.152506510417,11.967888888888888,0.15,179.03813527108028,1.1442938334653496,87.20242304560293,1553.0,1435.0,1200.0,1623.0,1471.0,993.0,107.0,294.2,1649337976.058727,1649337977.1862495,829eaaa7-bc62-4c13-bba5-e7530a5ff871
-0.0264507328656043,0.129045749158854,-0.0748510854993163,-0.0320783749858406,-0.265559792197532,0.0167690325722111,-0.4204646088998586,-0.4450658260082785,-13.548777187993371,26.55576210084194,13.996694311995364,0.2777685257043549,0.4554973274064222,1.0770847424134575,4661.774251302083,11.969333333333331,0.14,179.04570160286087,1.1386057325587404,87.15970704253365,1553.0,1435.0,1200.0,1623.0,1471.0,993.0,107.0,294.2,1649337977.3055542,1649337978.415656,829eaaa7-bc62-4c13-bba5-e7530a5ff871
-0.0856330169332073,0.1003947405700498,-0.2330562111194956,0.0065393467561006,-0.4079864935380199,0.0184783631036691,-0.5932385230625005,-0.6150785149160997,-14.825356723291836,27.14908556060352,14.029484471406231,0.1899157839665623,0.3420093562052483,1.7285011224668665,4694.10009765625,11.949,0.14,179.07881739559673,1.1129679060310589,87.12080456175097,1553.0,1435.0,1200.0,1712.0,1471.0,993.0,107.0,294.2,1649337980.1350968,1649337981.2761776,aa423163-03bd-40f5-a92f-688f972033f2
-0.0916156740394035,0.1102825599918363,-0.2236022974768439,0.0018452621235737,-0.4005969247628383,0.0133240741174652,-0.5846918678236007,-0.6166563587799689,-14.770907602578314,27.047017560900887,14.12973879536346,0.1887596233767774,0.3789963007429541,1.6947575587667665,4697.244032118056,11.956888888888887,0.1322222222222222,179.08997033560144,1.1191610021914586,87.0811682150875,1553.0,1435.0,1200.0,1712.0,1471.0,993.0,107.0,294.2,1649337981.3848846,1649337982.50517,aa423163-03bd-40f5-a92f-688f972033f2
-0.0840814707319336,0.1093095564779118,-0.2231289443908732,-0.0025989972878233,-0.4005180325859045,0.0171371960742554,-0.5815624771679981,-0.609371979061355,-14.63876740867268,26.96996062986108,13.968689760013303,0.2069069719105583,0.3764149483978974,1.689289474640336,4691.53076171875,11.960333333333333,0.14,179.0906032664645,1.1173465553236643,87.05000433863445,1553.0,1435.0,1200.0,1712.0,1471.0,993.0,107.0,294.2,1649337982.6140337,1649337983.6795151,aa423163-03bd-40f5-a92f-688f972033f2
-0.1276036577975079,0.0847083461424016,-0.3566934198759847,0.0495355838356996,-0.519526910338075,-0.0019941572642009,-0.7331144051307079,-0.749353051837536,-15.646577163217458,27.561206178090632,13.547769486905173,0.0430078406463693,0.2801329564648551,2.245163861886528,4655.853515625,11.946333333333332,0.14,179.08821573589466,1.1019074818872814,86.95965307847369,1553.0,1435.0,1200.0,1801.0,1471.0,993.0,107.0,294.2,1649337985.6847713,1649337986.8084447,11b778b2-1bc6-45f8-a500-8832f45439f2
-0.1353350917251867,0.0890474158552567,-0.360716921587856,0.0504559925770702,-0.5230113157613827,-0.0063989705839508,-0.7396887559277431,-0.7659335651507937,-15.822749448829502,27.53769233880287,13.606850307964567,0.0305979379355948,0.2967615889735369,2.265257573886739,4653.326171875,11.946444444444444,0.1355555555555555,179.0929133882238,1.0953613028922875,86.92694557926825,1553.0,1435.0,1200.0,1801.0,1471.0,993.0,107.0,294.2,1649337986.9218247,1649337988.0352256,11b778b2-1bc6-45f8-a500-8832f45439f2
-0.1493022953119717,0.0756362936753301,-0.3746928924843235,0.0578033744709302,-0.5338606367277955,0.0034006433459378,-0.7512387947376423,-0.763620489329694,-15.843162620598454,27.631360202128405,13.994185623403476,0.0360215790257952,0.2413842297294704,2.314465581506646,4648.91015625,11.942875,0.13125,179.0925990097945,1.1049952476604428,86.88419912493893,1553.0,1435.0,1200.0,1801.0,1471.0,993.0,107.0,294.2,1649337988.143462,1649337989.2654831,11b778b2-1bc6-45f8-a500-8832f45439f2
0.0251973469334442,0.1480061686637201,0.0523757022025151,-0.086540277022159,-0.1248161340046332,0.0394110876979013,-0.2413267420252952,-0.2655466438305654,-12.237819147516042,22.74320641525156,13.945568950189172,0.433213860107069,0.5324911797574317,0.461134628513783,7565.990614149306,11.660777777777778,7.59111111111111,178.90272904751453,0.8197998228592254,75.59074552783449,1553.0,1435.0,1350.0,1528.0,1471.0,993.0,107.0,294.2,1649337993.637003,1649337994.7900116,260264e2-f195-4253-843e-29dc073b046f
0.0302201489628551,0.1488213878098032,0.0505611821232564,-0.0846074185734478,-0.1286161074697338,0.0379121363195554,-0.2434831284434576,-0.2610497890927745,-12.007538693778532,22.846044207790893,14.081215750475463,0.4262143744748736,0.5323653815123369,0.4722796961980809,7571.93115234375,11.661111111111111,7.6,178.87461598889072,0.7334856669586838,70.53155231316481,1553.0,1435.0,1350.0,1528.0,1471.0,993.0,107.0,294.2,1649337994.8985453,1649337996.0217965,260264e2-f195-4253-843e-29dc073b046f
0.01056284782326,0.1499390269556151,0.0504165464606249,-0.0821354635677817,-0.1274721708111849,0.0364657797220974,-0.2449426339056911,-0.2720289522910195,-12.182483847801432,22.818540764766222,14.349798381361364,0.4171533183718888,0.5351009993993014,0.4734214577164144,7571.93115234375,11.65922222222222,7.612222222222223,178.8774497584864,0.7013863747544645,65.97939667371122,1553.0,1435.0,1350.0,1528.0,1471.0,993.0,107.0,294.2,1649337996.1298065,1649337997.2544498,260264e2-f195-4253-843e-29dc073b046f
0.2289758370064354,0.5389300303315371,0.0706129438496483,-0.2467045594268638,-0.1958716942638857,-0.1887056540971743,-0.3189698039731636,-0.3433474909476597,-11.986778328440431,22.05660338540195,14.780167953345456,0.2785123891842759,2.010383656466363,0.6911346530553508,7571.93115234375,11.635,7.616666666666668,178.61583074597766,0.7186934219230748,58.5686740573734,1658.0,1435.0,1350.0,1528.0,1551.0,993.0,107.0,294.2,1649337999.1848516,1649338000.323642,cda62954-4b18-44e6-acb6-c12591bf4234
0.2346034787318823,0.5438870883521318,0.0758592736218847,-0.2555667818058708,-0.1922689511398799,-0.187259297381367,-0.3110937336907279,-0.3228749681599431,-11.810603456120305,21.892287662050503,14.567827832049494,0.3009803453902259,2.0310316125168155,0.6682756700593964,7571.93115234375,11.632222222222222,7.612222222222223,178.64346417353974,0.7534996924074896,56.43908406368578,1658.0,1435.0,1350.0,1528.0,1551.0,993.0,107.0,294.2,1649338000.4318984,1649338001.5479755,cda62954-4b18-44e6-acb6-c12591bf4234
0.2409411499874545,0.5515133314563915,0.081618402532831,-0.2647708703323604,-0.1894419811721877,-0.1869568773563053,-0.3061892692479125,-0.3361157071679055,-11.819126153991524,21.92006644031161,14.509021889144451,0.3228793431989593,2.061714967498143,0.6503337679991406,7571.188585069444,11.628444444444446,7.63,178.6642886614092,0.7936783691348445,54.74056931690498,1658.0,1435.0,1350.0,1528.0,1551.0,993.0,107.0,294.2,1649338001.6564715,1649338002.778435,cda62954-4b18-44e6-acb6-c12591bf4234
0.4618260825206955,0.953705615324578,0.1088493520933341,-0.445157865865908,-0.2593667554891522,-0.4107214229481958,-0.3767714825748793,-0.4084598475687426,-11.4897470055214,21.52059038093289,14.942828074590157,0.22590209530014,3.587933507237372,0.8570388876837661,7563.765625,11.57611111111111,7.608888888888888,178.28376819800906,0.9095557300552842,51.56348633390604,1767.0,1435.0,1350.0,1528.0,1630.0,993.0,107.0,294.2,1649338004.6176388,1649338005.8511038,b0a4a749-88fd-4a27-8507-da086dbd33f2
0.4646924980432521,0.9524827866613528,0.1038265502104214,-0.4409634308528225,-0.2641923276347654,-0.4137324750076518,-0.3823070847245283,-0.4129698505582687,-11.399013488491024,21.54214899149237,14.852186666817635,0.2095982783440127,3.5826738412946177,0.8781552183955051,7564.5068359375,11.58,7.625555555555555,178.28745801798073,0.9628041219840496,50.53776760821377,1767.0,1435.0,1350.0,1528.0,1630.0,993.0,107.0,294.2,1649338005.9618304,1649338007.0816455,b0a4a749-88fd-4a27-8507-da086dbd33f2
0.453384620253593,0.9406489609445432,0.1019857327845261,-0.4310756090738729,-0.2615099932235561,-0.408762266787292,-0.384226794733204,-0.3986114715953209,-11.72127562879879,21.62160164800439,15.1908529524247,0.1987893040970306,3.536236348370045,0.8786187643958475,7562.283203125,11.591444444444445,7.615555555555555,178.2754884909152,1.0116093691360162,49.72041632516622,1767.0,1435.0,1350.0,1528.0,1630.0,993.0,107.0,294.2,1649338007.1898472,1649338008.5195856,b0a4a749-88fd-4a27-8507-da086dbd33f2
0.5783366692370047,1.1696203447738422,0.1515300191274688,-0.571030368984492,-0.2795500068706769,-0.525101959359025,-0.3893284899163459,-0.411221074249814,-11.304185346470796,21.98558279747513,12.391103461517224,0.2577056362804186,4.4372587407606,0.8655912475963053,7565.248046875,11.528,7.610000000000001,178.1605576566613,1.0907708940194774,48.560410388567206,1886.0,1435.0,1350.0,1528.0,1710.0,993.0,107.0,294.2,1649338009.838452,1649338010.9739206,6753898c-51e5-44ee-871f-9fb56f008422
0.5847532323860988,1.1635587959823734,0.1488345364547956,-0.5577501812298388,-0.2810884045552145,-0.5285732158181691,-0.3956135679519592,-0.4130092967308478,-11.417822712618918,22.2455781024224,12.754446349979371,0.2215384496662645,4.41030670065132,0.8800187331586143,7565.248046875,11.524111111111113,7.573333333333333,178.15881975297248,1.1374128329054176,48.12498962352842,1886.0,1435.0,1350.0,1528.0,1710.0,993.0,107.0,294.2,1649338011.0824175,1649338012.202597,6753898c-51e5-44ee-871f-9fb56f008422
0.5760487963098266,1.1503312079613226,0.1455868085847322,-0.5614844121514819,-0.2811541480414787,-0.5164369659566169,-0.3927208541899227,-0.4196625384375126,-11.406729712412496,22.11504422912201,12.148921688217056,0.2561157534498046,4.366235100893483,0.8779906910899997,7565.248046875,11.530666666666669,7.58,178.17664047542698,1.1859075673254291,47.79102145278139,1886.0,1435.0,1350.0,1528.0,1710.0,993.0,107.0,294.2,1649338012.3116004,1649338013.430442,6753898c-51e5-44ee-871f-9fb56f008422
-0.2353440845913179,-0.3212445287421788,0.0317848438032606,0.1010916214377671,-0.042242317526655,0.3261183992072016,-0.1471820678746173,-0.1822496446323597,-12.492365161310056,23.938155756992245,14.173314624543853,0.6610362262792334,-1.2520877154375996,0.1872103224795432,7563.028483072917,11.644666666666668,7.656666666666668,179.21218822278985,1.2537652477121926,47.09374110079313,1449.0,1435.0,1350.0,1528.0,1386.0,993.0,107.0,294.2,1649338015.1594942,1649338016.3039806,1d0812bc-1c15-4f39-81b6-ac6f3017ac23
-0.2272839328448882,-0.3131580792924747,0.0384643815440687,0.1005919709951303,-0.0375613814989874,0.3193994158774084,-0.1422776037966907,-0.158739773020322,-12.40253863631792,23.91231275896137,14.32345307707964,0.6472952919387286,-1.223240530401055,0.1660061229283561,7571.93115234375,11.643888888888888,7.66,179.25194599503857,1.283466930074325,46.83628660640336,1449.0,1435.0,1350.0,1528.0,1386.0,993.0,107.0,294.2,1649338016.4162738,1649338017.526659,1d0812bc-1c15-4f39-81b6-ac6f3017ac23
-0.2275469067906806,-0.3137497707174889,0.0358740883634533,0.1024196397426407,-0.0391786711931624,0.3172035837493098,-0.1439211909513414,-0.1651563374271281,-12.325410531111242,23.80104241719668,14.152861356939306,0.637383218212508,-1.224884799636481,0.1738833334169595,7571.93115234375,11.645,7.623333333333333,179.248749466507,1.302330039003066,46.65508054935805,1449.0,1435.0,1350.0,1528.0,1386.0,993.0,107.0,294.2,1649338017.635411,1649338018.757304,1d0812bc-1c15-4f39-81b6-ac6f3017ac23
-0.4790946588796347,-0.7546125324162659,0.0170320064733182,0.299439696261511,0.0361370622964478,0.5701318835722643,-0.065831079459351,-0.0901298713805235,-12.628536648392396,25.55683870515817,14.700000275540448,0.7719537091152264,-2.906514120943157,-0.0659771194705467,7578.6259765625,11.596333333333332,7.603333333333334,179.38543824781695,1.3574500806339247,46.28024280334738,1342.0,1435.0,1350.0,1528.0,1293.0,993.0,107.0,294.2,1649338020.6892295,1649338021.823763,637fbb78-3422-4781-a736-fe4627dc64f0
-0.4785029674513626,-0.7593592138323538,0.0169794116796468,0.3068950065467377,0.0371363632032818,0.5669761967729309,-0.0663570273416557,-0.0958101088363451,-12.577058594489108,25.609815172273134,14.56310776962078,0.7483977658964853,-2.9243884804486573,-0.0672054707974946,7578.6259765625,11.598333333333333,7.624444444444445,179.38996893996637,1.3617458901669088,46.19237621422471,1342.0,1435.0,1350.0,1528.0,1293.0,993.0,107.0,294.2,1649338021.9330957,1649338022.994726,637fbb78-3422-4781-a736-fe4627dc64f0
-0.4775957071820905,-0.7487876574788999,0.0218181319547473,0.310576641261291,0.0402526042384978,0.5533541487529251,-0.0671196517441473,-0.0835029281720613,-12.6612034311898,25.66383982526216,14.596553476759874,0.7100443862281494,-2.88458521140892,-0.0756822021338033,7578.6259765625,11.597333333333331,7.622222222222222,179.38391739236175,1.3565629505256327,46.12040043966103,1342.0,1435.0,1350.0,1528.0,1293.0,993.0,107.0,294.2,1649338023.1040623,1649338024.2830536,637fbb78-3422-4781-a736-fe4627dc64f0
-0.686975611499592,-1.1512168930020652,0.009458357324942,0.4784065870271313,0.110611277369666,0.7991952988328247,0.0130742488809708,-0.001928413854438,-12.754925456761294,27.34967003510203,15.70092240847222,0.8945880400195935,-4.424482583846481,-0.3152668059118728,7578.6259765625,11.499222222222222,7.554444444444444,179.54109522336188,1.3757130104052848,46.07698320383697,1227.0,1435.0,1350.0,1528.0,1189.0,993.0,107.0,294.2,1649338025.1416605,1649338026.128597,f0955aae-e9bc-4b79-8073-95aec100444b
-0.6797964207009153,-1.1282855493301966,0.0091559373152547,0.4617603390452439,0.1051282711297508,0.7909510670493983,0.0109178626651709,-0.0026121461146041,-12.615605729758736,27.13205744962384,15.53647972199446,0.9121982857764138,-4.335978075294933,-0.3017327378698033,7571.93115234375,11.502444444444444,7.57888888888889,179.53487975121718,1.3732522094554085,46.07011127462204,1227.0,1435.0,1350.0,1528.0,1189.0,993.0,107.0,294.2,1649338026.237537,1649338027.3578317,f0955aae-e9bc-4b79-8073-95aec100444b
-0.6788891603108334,-1.1324010943342229,0.0077095807185207,0.465481419748242,0.1025379780157684,0.7952901364096512,0.0073677146330496,-0.0147352444157293,-12.688033190206871,27.451696742202547,16.04416233236038,0.9156462855868096,-4.355945240800231,-0.2911096165866058,7559.318359375,11.499777777777778,7.599999999999999,179.54781612950518,1.373267601096976,46.070980226466446,1227.0,1435.0,1350.0,1528.0,1189.0,993.0,107.0,294.2,1649338027.4659894,1649338028.5912468,f0955aae-e9bc-4b79-8073-95aec100444b
0.0119303122622546,0.1475722617007503,0.0451307705499017,-0.0862641543908056,-0.129089460573928,0.0403840912210495,-0.2468491950952432,-0.2696095914078271,-12.34049653037354,22.50634376168264,14.013797895992557,0.4328057144688397,0.5304884750067825,0.4847650468737817,7551.91748046875,11.659888888888888,7.662222222222223,179.00993873236666,1.351489519212456,46.15601835836282,1553.0,1435.0,1350.0,1528.0,1471.0,993.0,107.0,294.2,1649338030.726711,1649338031.8581598,7d09efc3-de4a-4640-abb1-8254666585c8
0.0231036699032046,0.1491667939367052,0.045469096613909,-0.0881798183901587,-0.1293200685036402,0.0404624776814566,-0.2459389006542604,-0.2781026387008484,-12.27387315397566,22.469607681319328,14.001175219168449,0.4371079708011155,0.5363659552348082,0.4835419093882861,7551.91748046875,11.654333333333334,7.672222222222222,179.0276668678124,1.3439245985300068,46.1429578983049,1553.0,1435.0,1350.0,1528.0,1471.0,993.0,107.0,294.2,1649338031.96682,1649338033.0952132,7d09efc3-de4a-4640-abb1-8254666585c8
0.0149019176801037,0.1513327887205904,0.0500220855788755,-0.0884205406894207,-0.1261047063070697,0.0418961913035949,-0.2427599500703401,-0.2702144314558695,-12.32538347187974,22.59307261655746,14.50343354908956,0.4419720335988044,0.5407231942234574,0.4693117677201638,7551.91748046875,11.655,7.675,179.0180287119836,1.3303502423315792,46.05496153558799,1553.0,1435.0,1350.0,1528.0,1471.0,993.0,107.0,294.2,1649338033.2040806,1649338034.31678,7d09efc3-de4a-4640-abb1-8254666585c8
0.034388285687511,0.1405508580965235,0.0307592454841866,-0.3828593301168053,-0.1715071578966385,0.3357563928886559,-0.1770427594740946,-0.2077318202417397,-12.318536533786483,21.8079028633358,16.41983885005227,1.7606417011219884,0.5182681260707741,0.4629853183669269,7551.91748046875,11.649,7.67,178.99894971690205,1.4191424125037917,46.10942887912425,1553.0,1522.0,1350.0,1528.0,1471.0,993.0,107.0,294.2,1649338035.230138,1649338036.370227,6b170c0a-1d40-4923-8d63-f33d16d655c3
0.0267357444176852,0.1512275991517016,0.0391744111467005,-0.3882634452971923,-0.1692981767254847,0.3335737094664058,-0.1721777414287941,-0.1921243160705445,-12.162106854746575,22.091394339561507,16.93586316132981,1.7703865981577949,0.5538353618753525,0.4435444145989073,7558.5771484375,11.647333333333332,7.676666666666667,179.01008292524915,1.3996123759196883,46.1493980077823,1553.0,1522.0,1350.0,1528.0,1471.0,993.0,107.0,294.2,1649338036.4788263,1649338037.5977275,6b170c0a-1d40-4923-8d63-f33d16d655c3
0.0330997134410013,0.1429439207462726,0.0363342927376782,-0.3865278170348374,-0.1687722288339762,0.3399113806176374,-0.1714282656847181,-0.1948592448175591,-12.211044891029182,21.951079101944416,16.904102063648278,1.7796117566635707,0.5229982796129375,0.4446238152261058,7571.93115234375,11.650222222222222,7.633333333333332,179.02347768512143,1.3924181827271898,46.24174747773024,1553.0,1522.0,1350.0,1528.0,1471.0,993.0,107.0,294.2,1649338038.707167,1649338039.8462648,6b170c0a-1d40-4923-8d63-f33d16d655c3
0.0578061137527665,0.1382629850044275,0.0190832031133239,-0.7573869085900313,-0.2273628250252218,0.7009351011390098,-0.0875001318727055,-0.1109705562020815,-11.815889419406105,21.46642457303775,19.28624606731057,3.4239543271174684,0.5260910746109227,0.4284626158759111,7578.6259765625,11.6385,7.655,179.02220878775563,1.4897783968441145,46.37615801149701,1553.0,1613.0,1350.0,1528.0,1471.0,993.0,107.0,294.2,1649338041.7841957,1649338042.922406,86f93617-8238-4d11-a498-f1bc6be1b0b9
0.0491279742252486,0.1488608338925359,0.0255129156484782,-0.7613183704790853,-0.2234576618091257,0.6956493257616522,-0.0836870097712166,-0.1147179348590139,-11.840437153167896,21.46862066194617,19.53574827949885,3.421307029172444,0.5646935562336322,0.4105318651727746,7585.3330078125,11.635222222222222,7.614444444444445,179.02413034764217,1.4969017327529577,46.43658924854356,1553.0,1613.0,1350.0,1528.0,1471.0,993.0,107.0,294.2,1649338043.0325162,1649338044.1575167,86f93617-8238-4d11-a498-f1bc6be1b0b9
0.0469058445569093,0.1365010597550868,0.0227122433141136,-0.7571239345654831,-0.2230369034797806,0.7022631193315582,-0.0830032775311041,-0.1023713084228739,-11.839493660131245,21.43261700145532,19.295853183894906,3.426291593498908,0.5197618117776682,0.4110212415297963,7585.3330078125,11.636111111111113,7.61888888888889,179.01589465732292,1.4698602430610022,46.48935549552154,1553.0,1613.0,1350.0,1528.0,1471.0,993.0,107.0,294.2,1649338044.268365,1649338045.3799524,86f93617-8238-4d11-a498-f1bc6be1b0b9
0.0600676895016999,0.1380263084846359,0.0094978034409364,-1.1197651878259178,-0.2793790737763248,1.0544114732106182,-0.0022045363968875,-0.0246888076214621,-11.651414188393607,21.24685188929285,22.35709897479332,5.034338988469008,0.5408275221368571,0.392264129201749,7598.7822265625,11.610333333333331,7.62,179.02411213380435,1.577603512726126,46.568357258011446,1553.0,1710.0,1350.0,1528.0,1471.0,993.0,107.0,294.2,1649338047.2893212,1649338048.2396348,c8534c79-c71e-4117-a7d8-50ebb2878dd6
0.0599362025324248,0.1358699223479448,0.0055400458088936,-1.1143479210469631,-0.2810226610427464,1.0491519950103656,-0.0069249184511107,-0.0332354605710898,-11.732118704236226,21.162218775053795,21.986467010532152,5.0094423935577455,0.5356765539809843,0.4058605608863776,7598.7822265625,11.6095,7.678750000000001,179.007499975378,1.578100773620739,46.5822636654572,1553.0,1710.0,1350.0,1528.0,1471.0,993.0,107.0,294.2,1649338048.34808,1649338049.4731882,c8534c79-c71e-4117-a7d8-50ebb2878dd6
0.0514815908401193,0.126586943020338,0.001503395980313,-1.102658721553945,-0.2823506795576334,1.0454046167985596,-0.0116715978930183,-0.0416111803801487,-11.747353167805,21.232652514630544,21.656509713176188,4.974859213987,0.5021980682711331,0.4184043420273009,7598.7822265625,11.607222222222225,7.704444444444444,178.98673582084626,1.570932279607891,46.57163195426352,1553.0,1710.0,1350.0,1528.0,1471.0,993.0,107.0,294.2,1649338049.5830553,1649338050.7052028,c8534c79-c71e-4117-a7d8-50ebb2878dd6
0.0610012469130022,0.1266921325862343,0.0004777975883678,-1.321847670621546,-0.3145518414365097,1.2572695525704454,0.0391875597333114,0.0220548082841259,-11.60780706042501,21.671011065776323,23.281421570223173,5.948568708982801,0.5141326352074124,0.3915492195065828,7598.7822265625,11.56122222222222,7.712222222222222,178.9881185546982,1.6148469334446187,46.536357062840025,1553.0,1814.0,1350.0,1528.0,1471.0,993.0,107.0,294.2,1649338051.817315,1649338052.953303,66999337-3a5a-4010-913e-c521215ba453
0.0653403166904079,0.1258900621338406,0.0045012987500904,-1.3199148102340237,-0.3112120720331106,1.257782351682386,0.0421986112613845,0.0267488929648989,-11.62764217839575,21.79366533739936,23.52118925256904,5.946402646920055,0.5091588886962587,0.3774226193679244,7598.7822265625,11.568777777777775,7.691111111111111,178.9862637788836,1.6164125645843672,46.51359507797601,1553.0,1814.0,1350.0,1528.0,1471.0,993.0,107.0,294.2,1649338053.06151,1649338054.1867635,66999337-3a5a-4010-913e-c521215ba453
0.0640254470363719,0.1244963003588367,0.0030417934598184,-1.3164041048543933,-0.3122113730642856,1.2544820288830578,0.0396214668168065,0.0146257947809314,-11.643816135818811,21.83083256169456,23.301683262758967,5.931197670033543,0.5054672484878827,0.3839684525090989,7598.7822265625,11.56611111111111,7.704444444444444,178.97872932131915,1.6244752353025806,46.50614258268161,1553.0,1814.0,1350.0,1528.0,1471.0,993.0,107.0,294.2,1649338054.2951088,1649338055.3714764,66999337-3a5a-4010-913e-c521215ba453
0.0261046070185549,0.1677029150351272,0.079987964218852,0.2817415521990513,-0.0661334994828772,-0.3316977439458587,-0.3233220230818238,-0.3445440222996834,-12.35725695450618,23.83470931605274,11.922263358718013,-1.223242850676303,0.5815694175003102,0.462539260410002,7598.7822265625,11.650444444444446,7.76111111111111,178.97459022668212,1.085179803143424,46.491689902397866,1553.0,1349.0,1350.0,1528.0,1471.0,993.0,107.0,294.2,1649338057.1172447,1649338058.281455,a8eaa8be-7bb2-4472-8380-c2f64fd59307
0.002108236029358,0.1520822643828159,0.0685223011456067,0.2912875050819382,-0.0726815505162917,-0.3221780863471408,-0.3345115653979694,-0.3587183201710108,-12.711542102731464,23.993388530431776,12.261921115182323,-1.223027444398002,0.5205801634119773,0.5013781993455191,7598.7822265625,11.651333333333334,7.783333333333333,178.97799014306898,1.0754569695700742,46.54392111789086,1553.0,1349.0,1350.0,1528.0,1471.0,993.0,107.0,294.2,1649338058.390033,1649338059.5185077,a8eaa8be-7bb2-4472-8380-c2f64fd59307
0.0219890650558115,0.1603396453771016,0.07397901005618,0.2886577659986272,-0.0688289823532103,-0.3306458480821896,-0.3298043313870049,-0.3481204683622057,-12.569712808738188,23.85738875471233,11.90431416264307,-1.2367390512016307,0.5543833880558128,0.4826173836283796,7598.7822265625,11.652888888888889,7.754444444444443,178.97608679702026,1.069898464388186,46.56447543383315,1553.0,1349.0,1350.0,1528.0,1471.0,993.0,107.0,294.2,1649338059.6308253,1649338060.7398815,a8eaa8be-7bb2-4472-8380-c2f64fd59307
-0.0060225891577205,0.1781687290227729,0.1044401560303981,0.6490974669644913,-0.0104328811176463,-0.6961786066246551,-0.41146815947134,-0.4392447869366795,-12.86477378179224,25.321653198901373,9.395961639552215,-2.8605284479903457,0.6031511910452041,0.4788023537963999,7598.7822265625,11.638333333333334,7.65888888888889,178.97877333809382,0.9269077070620284,46.72955427588319,1553.0,1264.0,1350.0,1528.0,1471.0,993.0,107.0,294.2,1649338062.67397,1649338063.829757,ff799f8c-f961-4f45-82a0-e7e454a9209c
-0.005018357478631,0.1774723960074722,0.103169115404799,0.6440538467204509,-0.0117241927023165,-0.6908150321950635,-0.4105636385566901,-0.4350070704312309,-12.840493494730609,25.25942292911439,9.400415465886216,-2.837561497784958,0.6008675398402852,0.4809262127634608,7598.7822265625,11.628444444444446,7.665555555555555,178.98870898660644,0.9094969501113332,46.80743474898435,1553.0,1264.0,1350.0,1528.0,1471.0,993.0,107.0,294.2,1649338063.9377728,1649338065.04722,ff799f8c-f961-4f45-82a0-e7e454a9209c
-0.008923520334384,0.1730807316159718,0.1010784727358345,0.6473804665467897,-0.0131048058333516,-0.688974214013459,-0.41254909209125,-0.4437115097039201,-12.8528461841273,25.33301619681718,9.46930326389919,-2.8405404511425973,0.5833321411386941,0.4880393904930528,7598.7822265625,11.626,7.666666666666667,178.97710677193632,0.894488812993912,46.89102677805146,1553.0,1264.0,1350.0,1528.0,1471.0,993.0,107.0,294.2,1649338065.178079,1649338066.2696629,ff799f8c-f961-4f45-82a0-e7e454a9209c
-0.025346242341646,0.1758945525139812,0.1231025385503624,0.9787538798624772,0.0344540291617393,-1.009105683884597,-0.4930585777563705,-0.5250362158127602,-13.278977419903342,27.09737541437484,7.487443085933294,-4.295153463811189,0.575093880009546,0.5072982821133057,7598.7822265625,11.6,7.636666666666666,179.00835716411885,0.7958081964301739,47.01134625210555,1553.0,1178.0,1350.0,1528.0,1471.0,993.0,107.0,294.2,1649338067.179723,1649338068.317983,ae20dbbf-47a8-4783-b474-1fedd8fd9522
-0.0406644738955487,0.1786557786305028,0.1231156872621575,0.9684716001367508,0.034204203942931,-1.003017833710594,-0.4887063582021593,-0.5180279589756474,-13.15443946580851,26.85343488620315,7.410615053449416,-4.259844961833231,0.5865122978498389,0.5017468002412703,7598.7822265625,11.609,7.650000000000001,179.00057074846504,0.7840100407082308,47.10734000743063,1553.0,1178.0,1350.0,1528.0,1471.0,993.0,107.0,294.2,1649338068.4262974,1649338069.7504158,ae20dbbf-47a8-4783-b474-1fedd8fd9522
-0.0232818969730811,0.1801152838613499,0.1227343750619583,0.9695629418549678,0.0335204717186974,-1.0061998202303395,-0.4906523657455671,-0.5077325274724458,-13.19324690384374,26.893751807228064,7.29525791886216,-4.269246754276426,0.5931255497809034,0.5059483212663484,7598.7822265625,11.602333333333334,7.683333333333334,178.99077625719525,0.7909776162874862,47.15310113650485,1553.0,1178.0,1350.0,1528.0,1471.0,993.0,107.0,294.2,1649338069.858619,1649338070.9775364,ae20dbbf-47a8-4783-b474-1fedd8fd9522
-0.0151428538057891,0.1891878839229112,0.1326221943884155,1.0825628304929271,0.0463273018942337,-1.1243540867076292,-0.5222223938395958,-0.546889355383403,-13.239577458642902,27.903856192842085,6.459757147507291,-4.782623284777962,0.6216175154336055,0.520438976007089,7598.7822265625,11.583555555555556,7.638888888888889,178.98295189604605,0.7352121573539632,47.35401190985068,1553.0,1088.0,1350.0,1528.0,1471.0,993.0,107.0,294.2,1649338073.3241987,1649338074.6667843,315c156c-8702-49aa-a43b-8ff2ef866f13
-0.0231898561027428,0.1957622317844301,0.1323329230676346,1.0879406470872115,0.0443812948328531,-1.1365692348177945,-0.5269690745010189,-0.5483225638084592,-13.186087297275924,27.990721710658903,6.322362542167075,-4.821636927916427,0.6464354623860852,0.5308927012261099,7598.7822265625,11.570444444444444,7.65888888888889,178.97348070039695,0.7304516696560392,47.393279426299,1553.0,1088.0,1350.0,1528.0,1471.0,993.0,107.0,294.2,1649338074.7752273,1649338075.8913596,315c156c-8702-49aa-a43b-8ff2ef866f13
-0.0283835912668453,0.1865581447750354,0.1327010865628899,1.084035484324566,0.0466823166888272,-1.1230918106788628,-0.52251166519787,-0.5424319459784737,-13.291055284738546,27.97907233952084,6.464237799607499,-4.782631381398602,0.6119039920053387,0.5198939185220499,7598.7822265625,11.583000000000002,7.649999999999999,178.98671912482826,0.7277983842518192,47.405330915634536,1553.0,1088.0,1350.0,1528.0,1471.0,993.0,107.0,294.2,1649338076.0037105,1649338077.1304042,315c156c-8702-49aa-a43b-8ff2ef866f13
0.0273800305206469,0.1630351280161596,0.0544926422743814,-0.0848966898989383,-0.1247898366255997,0.0256707000172086,-0.2430623701427387,-0.2775514057444198,-12.154196962885589,22.629199339639253,14.302978671240105,0.3980785537312766,0.5850292527263885,0.4631266340929858,7598.7822265625,11.654,7.666666666666667,178.99969193079184,1.0826512932002137,47.42067265887524,1553.0,1435.0,1350.0,1528.0,1471.0,993.0,107.0,294.2,1649338078.2394698,1649338079.3780034,fde30ec5-7184-4b2c-8c75-a4c25c00cb64
0.0303516359017503,0.1570919175040035,0.0530725831076814,-0.0784669771103875,-0.1223967737185879,0.0252104956553592,-0.2436409128182079,-0.2755002079758826,-12.30570928132942,22.50902638198613,14.246002456937358,0.3815878560186603,0.56343224805852,0.4618268666749701,7598.7822265625,11.657,7.646666666666666,178.99786144009423,1.096482461843391,47.40161111872155,1553.0,1435.0,1350.0,1528.0,1471.0,993.0,107.0,294.2,1649338079.4856312,1649338080.450653,fde30ec5-7184-4b2c-8c75-a4c25c00cb64
0.0274720714233325,0.1601555636262756,0.0561756754101953,-0.0795451702791463,-0.1220812050039115,0.0232644885954573,-0.2423786378419412,-0.2587224696792374,-12.210843537351334,22.676521064059703,14.269227408416793,0.3809633689045558,0.5743778138862043,0.4557615871959086,7598.7822265625,11.659333333333333,7.639999999999999,178.995863989217,1.100657794428515,47.39458361297552,1553.0,1435.0,1350.0,1528.0,1471.0,993.0,107.0,294.2,1649338080.5587325,1649338081.6297748,fde30ec5-7184-4b2c-8c75-a4c25c00cb64
