raw_voltage_G-,raw_voltage_G0,raw_voltage_G1,raw_voltage_G2,raw_voltage_G3,raw_voltage_G4,raw_voltage_G5,raw_voltage_G6,load_x,load_y,load_z,load_l,load_m,load_n,rpm,voltage,current,roll,pitch,yaw,aileron1_pwm,elevator_pwm,throttle_pwm,rudder_pwm,aileron2_pwm,pbaro,pdiff,Tt,sample_start_time,sample_end_time,uid
0.1653498041965764,0.2833214185449277,0.4123303482778288,-0.1740635680717935,0.145955477824474,-0.012359881588697,0.1160042656298382,0.0900355908895272,-6.704388631158017,24.360866522296245,16.68771568497452,0.5461781853829195,1.010160429639931,-0.8844080717731901,4512.358723958333,11.966888888888889,0.1377777777777778,178.8754887352847,1.0427550791831437,87.3987044685113,1553.0,1435.0,1200.0,1528.0,1471.0,993.0,107.0,294.2,1649340591.0850675,1649340592.2176163,42e0b9fd-2772-4e60-85d8-e690bb2e852d
0.1703721002788449,0.2749962714376923,0.4124264348955994,-0.1660898945726818,0.1471252060335202,-0.0104093230212685,0.1148057114195382,0.0900861627586689,-6.802472441560341,24.58581808223461,16.842663896262792,0.5340460393641725,0.9772851538859388,-0.8853055803176619,4532.748046875,11.966,0.13,178.87916641269783,1.0567376622108906,86.70775570188363,1553.0,1435.0,1200.0,1528.0,1471.0,993.0,107.0,294.2,1649340592.33051,1649340593.448974,42e0b9fd-2772-4e60-85d8-e690bb2e852d
0.1746454264031752,0.275640557517464,0.4126894087966056,-0.1701396933442784,0.1475591129974557,-0.0105802560752579,0.1162126218869936,0.0983829900486436,-6.788535239591149,24.48305535313199,16.38583619557976,0.5420633462438439,0.9841653719688318,-0.8888081235681347,4539.683159722223,11.96622222222222,0.13,178.8901296252256,1.0719562248871943,86.14051532150324,1553.0,1435.0,1200.0,1528.0,1471.0,993.0,107.0,294.2,1649340593.5645046,1649340594.6725252,42e0b9fd-2772-4e60-85d8-e690bb2e852d
0.3829865063257682,0.6606343510708556,0.4564745636169048,-0.2625750377573262,0.1055227320234747,-0.3013636970073589,0.0435266296227502,0.0293917809061319,-6.574395921666619,24.39435363577499,16.462816711800404,0.0988578760470528,2.44008328063159,-0.741679134362243,4541.821723090277,11.940555555555555,0.1222222222222222,178.471322156978,1.0665624268712288,85.35704860692815,1658.0,1435.0,1200.0,1528.0,1551.0,993.0,107.0,294.2,1649340595.5831573,1649340596.7205455,272f200d-fbb8-4c9f-988d-47df997db56d
0.3802121316300431,0.658477965096877,0.446770826624774,-0.2612996140839749,0.0969366335055335,-0.2999699350209453,0.0346907057193421,0.0082881231510974,-6.548653110062894,24.346126720595738,16.456614006891606,0.0983218881657548,2.431095280250652,-0.7043975156379411,4540.752278645833,11.939666666666666,0.1266666666666666,178.47811136501298,1.081765965502952,85.06762692994793,1658.0,1435.0,1200.0,1528.0,1551.0,993.0,107.0,294.2,1649340596.851713,1649340597.9476812,272f200d-fbb8-4c9f-988d-47df997db56d
0.3828944654515813,0.6663408846849157,0.4527666316012737,-0.2676241378183235,0.1012362571224585,-0.3027443103668737,0.0411204182196678,0.0066971304932584,-6.456760351392405,24.209658067402888,16.378568456916206,0.1057817717808931,2.4617838025916514,-0.7266750854417906,4537.546875,11.94077777777778,0.13,178.48094209896897,1.0996401436740524,84.79958450397976,1658.0,1435.0,1200.0,1528.0,1551.0,993.0,107.0,294.2,1649340598.0565307,1649340599.1806304,272f200d-fbb8-4c9f-988d-47df997db56d
0.5926161519951293,1.0634577757199808,0.5042963676150727,-0.3523937953927273,0.0625790904971465,-0.6158805855079916,-0.0321967132798207,-0.0515515953420227,-6.12026106730865,24.35591958636417,15.994202203660612,-0.4030141332186643,3.965944708457231,-0.5929342606573043,4542.3564453125,11.909666666666666,0.12,178.26390297226305,1.081700497665439,84.40211075214977,1767.0,1435.0,1200.0,1528.0,1630.0,993.0,107.0,294.2,1649340600.2907202,1649340601.4271736,b56e332e-5b7f-435b-9065-42c754c739ac
0.5971393030660629,1.0671131130767038,0.5128561680880614,-0.350855397672651,0.0700081038432103,-0.6215739729171343,-0.0227165030057077,-0.034392545783508,-5.854250214370017,24.243258883415592,15.964786813949356,-0.4194695896578044,3.9783837197718026,-0.6275720321083831,4540.754123263889,11.908111111111111,0.12,178.25101516420915,1.099891651160677,84.26297145074761,1767.0,1435.0,1200.0,1528.0,1630.0,993.0,107.0,294.2,1649340601.5364711,1649340602.656381,b56e332e-5b7f-435b-9065-42c754c739ac
0.6076714077424026,1.063931128758088,0.5085433961166338,-0.3483176988041253,0.0689562081592971,-0.620929686477758,-0.0255303240663651,-0.0469889974053955,-5.970513567010929,24.061145195085643,15.92075664257282,-0.4252337624780479,3.967073525351615,-0.6166856808309005,4536.213053385417,11.910777777777778,0.1155555555555555,178.25216111816988,1.1083689712797538,84.19548386937853,1767.0,1435.0,1200.0,1528.0,1630.0,993.0,107.0,294.2,1649340602.7657735,1649340603.885813,b56e332e-5b7f-435b-9065-42c754c739ac
0.7554890366341609,1.3187397079683925,0.5613617039897525,-0.4198729178421843,0.0565175414975109,-0.8222757547296508,-0.0512360261796375,-0.076494673043692,-5.309624110406738,24.40051697942316,13.521397107672096,-0.7114442801822832,4.951512603249283,-0.6079982243816116,4539.683159722223,11.851222222222225,0.11,178.12399944858376,1.0944638207785349,83.99631707100077,1886.0,1435.0,1200.0,1528.0,1710.0,993.0,107.0,294.2,1649340605.6130898,1649340606.7521863,26771fea-a691-4af7-9e71-c141e6cba0eb
0.7488094995638257,1.3155840207897325,0.5668841558940796,-0.4187421299954203,0.0608040164533352,-0.8183179953355085,-0.0470810380621683,-0.0713403836461531,-5.386170835787347,24.653847347743,13.826928718163485,-0.7031369360247003,4.937725883770006,-0.6273785865071482,4530.884494357639,11.845,0.11,178.12331642966677,1.116964396753228,83.87353683157072,1886.0,1435.0,1200.0,1528.0,1710.0,993.0,107.0,294.2,1649340606.860489,1649340607.9867191,26771fea-a691-4af7-9e71-c141e6cba0eb
0.7693609098442651,1.3233811978034506,0.570776169619098,-0.4215428025420235,0.0596995259975241,-0.8245110341104698,-0.0483170155007888,-0.0667251910121378,-5.346078017976397,24.972328135656632,13.672258598024268,-0.7084353196504354,4.968654065357541,-0.6288216236425694,4527.696343315973,11.854666666666668,0.11,178.1473678024641,1.1306383168919207,83.85178116124442,1886.0,1435.0,1200.0,1528.0,1710.0,993.0,107.0,294.2,1649340608.0951145,1649340609.2159252,26771fea-a691-4af7-9e71-c141e6cba0eb
-0.0782677237733942,-0.1758715139497194,0.3773851621672127,-0.058633179424586,0.1962998111556536,0.3345001867614183,0.2032660912808374,0.1634786432595288,-6.824738518987409,26.3272378136349,17.324061851108514,1.0765725283845575,-0.7332743088755442,-1.0841309614969836,4530.35205078125,11.948666666666664,0.13,179.2229981355162,1.2361004575278356,83.69878871838567,1449.0,1435.0,1200.0,1528.0,1386.0,993.0,107.0,294.2,1649340610.120314,1649340611.2589033,f722d1cb-fe55-48e6-9f58-9a9170dd52af
-0.064240087131227,-0.1739396668771141,0.3710211936604237,-0.0543128210937162,0.1941317935129676,0.3253426261748335,0.1970245065697483,0.1771699758928129,-6.953580249514015,25.96380392553219,16.81372167480066,1.043376259989134,-0.7215351994501161,-1.0640056637058062,4534.884874131944,11.949888888888887,0.13,179.1509882100067,1.243450464410775,83.5676673001592,1449.0,1435.0,1200.0,1528.0,1386.0,993.0,107.0,294.2,1649340611.3667405,1649340612.4865992,f722d1cb-fe55-48e6-9f58-9a9170dd52af
-0.0950449553035126,-0.1845951689674942,0.3718348956134907,-0.0485567262426627,0.1935057133160674,0.3335013916306097,0.1958193780370616,0.1673979661632167,-7.020680956034074,26.47240676102533,17.235326391075475,1.0521712916253203,-0.7654100489815137,-1.0634461146999925,4540.485134548611,11.951555555555556,0.1211111111111111,179.14967681368606,1.2468209730386992,83.47938103385754,1449.0,1435.0,1200.0,1528.0,1386.0,993.0,107.0,294.2,1649340612.594756,1649340613.601571,f722d1cb-fe55-48e6-9f58-9a9170dd52af
-0.31155393816186,-0.6021533419790905,0.331903825153348,0.0691797359684324,0.2436497813036892,0.6400697921472256,0.274128457527155,0.2433473610038968,-7.268237401647792,27.143373673651013,18.20747491476975,1.4779767806107211,-2.3553869714976,-1.237378774572104,4547.17578125,11.904,0.11,179.3000062416784,1.2779202472858442,83.39142792900537,1342.0,1435.0,1200.0,1528.0,1293.0,993.0,107.0,294.2,1649340614.6238868,1649340615.7591126,f4236f83-4f20-433d-aa5a-8fc3edc5a023
-0.3100944326428344,-0.6100031162207163,0.3244222174943588,0.0723748691563389,0.2386532769776711,0.6444614562654932,0.2674094741256551,0.2440310933637448,-7.404322924194491,27.17669550301565,18.102363346225985,1.480401101551783,-2.3838007346702224,-1.2119876021722975,4547.17578125,11.90577777777778,0.1177777777777777,179.3030525060482,1.271783251168784,83.25964777697897,1342.0,1435.0,1200.0,1528.0,1293.0,993.0,107.0,294.2,1649340615.8671494,1649340616.9983816,f4236f83-4f20-433d-aa5a-8fc3edc5a023
-0.3090688341952238,-0.6020218549720501,0.3339813190202451,0.0735582518092638,0.245267070862348,0.6351653289250128,0.2744045801368364,0.2421902757094231,-7.235647015806426,27.22527617744018,18.10971106144591,1.4577261458656934,-2.354664001423138,-1.242900983189081,4553.617838541667,11.907000000000002,0.1166666666666666,179.31014679586613,1.2688062136121083,83.15757363547274,1342.0,1435.0,1200.0,1528.0,1293.0,993.0,107.0,294.2,1649340617.13317,1649340618.2204435,f4236f83-4f20-433d-aa5a-8fc3edc5a023
-0.5545024522700437,-1.032878542187943,0.2854889304085355,0.220586969204681,0.2839768304369264,0.927684347456268,0.3305495095354194,0.3127987707332822,-7.602821909123298,28.99465991944075,18.935985953668865,1.792656421978882,-3.9965095504239865,-1.3601251444112683,4551.737358940973,11.818555555555555,0.0911111111111111,179.46557609843876,1.297226642606499,83.00265583817797,1227.0,1435.0,1200.0,1528.0,1189.0,993.0,107.0,294.2,1649340619.1313229,1649340620.2684376,f8e8689f-525d-4ecf-97fd-22aa0895bb30
-0.5389080939628815,-1.0298806374443348,0.2791512591983134,0.2189565309441639,0.2773893340056478,0.9250546084219584,0.3221474932045602,0.3091697308530171,-7.720880819840735,29.02232445949712,18.709977953633544,1.7901972795296497,-3.982627453314623,-1.3306153405083834,4528.229871961806,11.820222222222222,0.1,179.4579854815412,1.2909998935348763,82.81682232796999,1227.0,1435.0,1200.0,1528.0,1189.0,993.0,107.0,294.2,1649340620.3763418,1649340621.6667583,f8e8689f-525d-4ecf-97fd-22aa0895bb30
-0.5623390774135226,-1.0218862248807368,0.273957524459954,0.2208236457287894,0.2707229453767539,0.916757781743656,0.3126146890423387,0.2914058433119414,-7.780197228488029,29.0947591072846,18.831147037659065,1.76755247006455,-3.9538555456519817,-1.2997997799195806,4497.077962239583,11.818,0.1,179.46765551158606,1.2894396814861884,82.66096424129947,1227.0,1435.0,1200.0,1528.0,1189.0,993.0,107.0,294.2,1649340621.7770855,1649340622.9340746,f8e8689f-525d-4ecf-97fd-22aa0895bb30
0.1700565315665821,0.2671596489271175,0.3853927175534901,-0.1716780909357269,0.1232340255301727,-0.001481358089648,0.0880218175515772,0.0626579822969921,-7.179910492277839,24.61775665497606,16.083645365637313,0.565268611899465,0.956266405382157,-0.7801252566763575,4484.267469618056,11.96288888888889,0.13,178.80987490247793,1.1992494288055662,82.4821756917654,1553.0,1435.0,1200.0,1528.0,1471.0,993.0,107.0,294.2,1649340624.5643728,1649340625.799806,022cf83d-b4ed-4e9f-bf1e-2dfc4309cd98
0.1620752731947513,0.2713803801804312,0.3910335078139415,-0.1751361983529041,0.1231419846726562,-0.0006529902108967,0.0903096906820841,0.0593839572228658,-7.0431414452564205,25.0289200072676,16.361307093107854,0.5780503403950447,0.9694581233122866,-0.7901474534931079,4489.229166666667,11.96,0.1333333333333333,178.80200804237387,1.2159902106033005,82.73631488822305,1553.0,1435.0,1200.0,1528.0,1471.0,993.0,107.0,294.2,1649340625.9083643,1649340627.029164,022cf83d-b4ed-4e9f-bf1e-2dfc4309cd98
0.1613257975135027,0.2684219236909884,0.3943995737838199,-0.1700608011683772,0.1268367682349228,-0.0018495215920933,0.0932287012139723,0.0706129435982955,-7.01684677201458,25.100033763104324,16.466659575974578,0.5645817812048033,0.956831975768733,-0.8040999292565345,4504.1650390625,11.961,0.13,178.80859234473377,1.2311345898361188,82.98421432741894,1553.0,1435.0,1200.0,1528.0,1471.0,993.0,107.0,294.2,1649340627.1376889,1649340628.2574942,022cf83d-b4ed-4e9f-bf1e-2dfc4309cd98
0.1659278411050618,0.2778758357454522,0.3884300661579359,-0.4338631332693478,0.0969760795995368,0.2422560195652795,0.1639029419420061,0.1308602689735243,-6.681356618854174,23.81578053395926,18.21377438756878,1.6998296209296877,1.006510241026613,-0.8538598259369459,4518.4111328125,11.955333333333336,0.13,178.79583962264346,1.2985998545107236,83.42023614910468,1553.0,1522.0,1200.0,1528.0,1471.0,993.0,107.0,294.2,1649340630.1908925,1649340631.3287337,adb6d7e0-af3b-4ff6-b1ba-07b6eeb8f7af
0.1640602205804239,0.2755459880547072,0.3910775053717316,-0.4311206180715251,0.0953329983099469,0.2427880360187312,0.160393757312909,0.1372191808342057,-6.795169627231461,24.44362631058056,18.313562183199345,1.6990911970596716,0.9975338384911404,-0.8506887047164048,4522.914659288194,11.960333333333333,0.13,178.81545744375956,1.2991870610518677,83.53320747797667,1553.0,1522.0,1200.0,1528.0,1471.0,993.0,107.0,294.2,1649340631.4363215,1649340632.7589138,adb6d7e0-af3b-4ff6-b1ba-07b6eeb8f7af
0.1964009549694423,0.2724358158520011,0.3840100816811113,-0.4287943097423953,0.0907309546782128,0.242762750067746,0.1544389152511231,0.1323010628400914,-6.8472987227365945,24.31493451057572,18.13307556585902,1.692526759433716,0.987100769168926,-0.8269025841476926,4518.940755208333,11.959333333333335,0.13,178.81096166146588,1.300092096690796,83.63806530102461,1553.0,1522.0,1200.0,1528.0,1471.0,993.0,107.0,294.2,1649340632.8690002,1649340633.990326,adb6d7e0-af3b-4ff6-b1ba-07b6eeb8f7af
0.2020604570016665,0.2755485166479696,0.3912175895440254,-0.7459080918476515,0.0596995260295854,0.5468586934209518,0.2453985578188978,0.2206790097224883,-6.531048106988342,24.026345403014183,20.662791885948728,3.090210184441547,1.013611650974914,-0.9224647334165248,4525.833550347223,11.951666666666666,0.13,178.810236143594,1.3788062678995563,83.80015100239838,1553.0,1613.0,1200.0,1528.0,1471.0,993.0,107.0,294.2,1649340635.1059506,1649340636.2498722,f1217446-5a2b-41ba-8ee4-270942c330e9
0.2027047430904158,0.2807685487515864,0.3918881729961381,-0.7464734860229442,0.0598178642931543,0.5445182257102814,0.2457009778082542,0.2115538147768274,-6.492383729181703,23.94876953133212,20.98743861788752,3.085816575710703,1.030149760264513,-0.9228271450058764,4528.490776909723,11.943222222222223,0.1222222222222222,178.79743636908944,1.3917084478098412,83.83463359187814,1553.0,1613.0,1200.0,1528.0,1471.0,993.0,107.0,294.2,1649340636.3612254,1649340637.4723384,f1217446-5a2b-41ba-8ee4-270942c330e9
0.2011926430927691,0.2806326788972535,0.3902325331242735,-0.7496499932382239,0.0580225193952467,0.5474827085727058,0.2455694908491298,0.2223127354153645,-6.439637207338588,23.89756393954248,20.967583974358863,3.0992450849996955,1.0297280788676058,-0.917952184311559,4539.9501953125,11.942333333333332,0.12,178.80357595024336,1.3858770077944005,83.84627071640404,1553.0,1613.0,1200.0,1528.0,1471.0,993.0,107.0,294.2,1649340637.5807068,1649340638.708924,f1217446-5a2b-41ba-8ee4-270942c330e9
0.2126057109514635,0.2764031818545805,0.3922957825477459,-1.0351927142734596,0.0250527112951346,0.8276096288230755,0.3216609914728412,0.3050278915825549,-6.29580603844697,23.94916602834002,23.12002632735384,4.37370242348545,1.0290579443731134,-0.9840968322418872,4541.555013020833,11.928333333333336,0.1133333333333333,178.77681830471485,1.509639715389914,83.93786810663336,1553.0,1710.0,1200.0,1528.0,1471.0,993.0,107.0,294.2,1649340639.621338,1649340640.760064,150814d5-b384-4f50-9f89-d1e797f7eebb
0.2153932344088158,0.2814917269965788,0.3918092808181764,-1.0410570367319751,0.0227779868017798,0.8284116992236686,0.3207931775713065,0.2999261978273784,-6.282300584155296,23.95534845045089,23.16977158599961,4.388764744937701,1.0482978900561262,-0.978458473580653,4544.2294921875,11.930444444444444,0.1177777777777777,178.7602634439866,1.4919084968726917,83.91689335460215,1553.0,1710.0,1200.0,1528.0,1471.0,993.0,107.0,294.2,1649340640.8691351,1649340641.983817,150814d5-b384-4f50-9f89-d1e797f7eebb
0.2205869692089901,0.2797166531088882,0.3986466023347661,-1.0397027200792393,0.0290236175964538,0.8267549636475178,0.3285509078422466,0.3047912152155074,-6.123485023276178,23.96077568443044,22.91972018071096,4.38240334715002,1.0429992219391797,-1.0077773740161524,4553.349175347223,11.929666666666668,0.1155555555555555,178.77018087866142,1.494932444548042,83.89584422939998,1553.0,1710.0,1200.0,1528.0,1471.0,993.0,107.0,294.2,1649340642.1031764,1649340643.4126394,150814d5-b384-4f50-9f89-d1e797f7eebb
0.2153406396213539,0.2713803801759025,0.372401806649643,-1.1358066097640864,-0.0121186535916808,0.9307085474337852,0.3215689505860188,0.2943511508556147,-6.2961562484055325,24.685740267518057,23.819654381613773,4.836343358191897,1.0151601210435837,-0.9070251003736596,4552.005859375,11.878,0.1,178.78570665755478,1.539287289847216,83.87560410215951,1553.0,1814.0,1200.0,1528.0,1471.0,993.0,107.0,294.2,1649340644.0638063,1649340645.0505705,007b9e1c-7c72-4dcd-9d2e-ebed3bcead0f
0.2159060335324236,0.2731423053716259,0.3594634905149821,-1.1252481986778884,-0.0220985142643253,0.9200844016713436,0.3042521187655005,0.2859491346371398,-6.53915425279097,24.64286239115224,23.82223921279997,4.787601904163242,1.0213444687859827,-0.8509832620207242,4537.546875,11.88588888888889,0.11,178.78087543708185,1.5455693563363353,83.81098975370129,1553.0,1814.0,1200.0,1528.0,1471.0,993.0,107.0,294.2,1649340645.1590087,1649340646.2782204,007b9e1c-7c72-4dcd-9d2e-ebed3bcead0f
0.2220333257144316,0.2725506140737513,0.3729014570641809,-1.1390937863186403,-0.0126314527617441,0.9328254873497216,0.3218450731806008,0.2994002500713502,-6.318642580646467,24.741590242929348,23.855701834049214,4.848905012400786,1.0198262188705245,-0.9072758968155116,4543.694769965277,11.885333333333334,0.1077777777777777,178.77658000700384,1.5215733602463304,83.74402582016857,1553.0,1814.0,1200.0,1528.0,1471.0,993.0,107.0,294.2,1649340646.386628,1649340647.5198414,007b9e1c-7c72-4dcd-9d2e-ebed3bcead0f
0.1267760819524525,0.2631052992371939,0.3985621472590762,0.1863497885079595,0.1681186161086054,-0.3373602815011933,-0.0019294252111485,-0.0281383175156471,-7.446723877307276,26.13509223210069,14.327232811392602,-0.9868192938294212,0.915295318188106,-0.7317776220699801,4524.772677951389,11.963555555555557,0.1288888888888889,178.8050497532843,1.1083657221967111,83.69317961525728,1553.0,1349.0,1200.0,1528.0,1471.0,993.0,107.0,294.2,1649340648.6268752,1649340649.757293,2cd0314e-66f4-498a-b46f-18600f4bacff
0.1359422401757325,0.2679728451709376,0.4041629856890178,0.1860210711187568,0.1700782774961135,-0.3429358353317112,0.0009531736177622,-0.0076819799791598,-7.289746485068864,26.32416653543917,14.199218966250838,-0.9970159088169592,0.933973852983588,-0.7457477999986946,4499.704155815973,11.960666666666668,0.13,178.78898970181584,1.0807889875763597,83.91523968991311,1553.0,1349.0,1200.0,1528.0,1471.0,993.0,107.0,294.2,1649340649.8663952,1649340650.990134,2cd0314e-66f4-498a-b46f-18600f4bacff
0.1537521487511857,0.2647534376432968,0.3966611493622978,0.1822716699453337,0.1675451306837426,-0.3387848923964047,-0.0014550606982584,-0.015997519477058,-7.401836447692705,25.8686541444578,13.818218364261968,-0.9827408003307488,0.9260475912187878,-0.7294941492036415,4494.45556640625,11.96022222222222,0.12,178.77773962134293,1.0790072331244365,84.07777770159188,1553.0,1349.0,1200.0,1528.0,1471.0,993.0,107.0,294.2,1649340651.0983677,1649340652.2268307,2cd0314e-66f4-498a-b46f-18600f4bacff
0.1249828020877475,0.2684745184748882,0.4234450414415386,0.4791429139568702,0.2153011935628487,-0.6258210030981031,-0.0665016630019781,-0.0985581866440204,-7.632832867751309,27.52947572232274,12.22882580956957,-2.2854442495580733,0.9209005067489006,-0.7384681499026817,4499.177354600694,11.95188888888889,0.12,178.79866124968055,0.9914779201659324,84.42435060699722,1553.0,1264.0,1200.0,1528.0,1471.0,993.0,107.0,294.2,1649340654.0654118,1649340655.2920806,c81276f5-1c2f-4176-902b-74770f7af585
0.1226291854888138,0.2627811333212864,0.4105987662654327,0.470504221292734,0.2044929657301579,-0.6143290387211948,-0.0739832714721966,-0.1040017471319331,-7.61827846882113,27.32953586997392,11.86290661389176,-2.2421495845111377,0.9029328027901108,-0.6967723539422777,4518.679416232639,11.941,0.12,178.79487125360114,0.9593227887936552,84.5658728855098,1553.0,1264.0,1200.0,1528.0,1471.0,993.0,107.0,294.2,1649340655.4007523,1649340656.5213883,c81276f5-1c2f-4176-902b-74770f7af585
0.131018053527806,0.2761796540276972,0.420341949387423,0.4613921755898396,0.2128949822575593,-0.6174584294578492,-0.0635037601304107,-0.0762711453459639,-7.605819324993601,27.038026454055853,12.172622721521758,-2.23001886421006,0.9520868227734414,-0.7343113183029764,4534.617892795139,11.941222222222224,0.12,178.80042192066665,0.9693717638998728,84.71673582716731,1553.0,1264.0,1200.0,1528.0,1471.0,993.0,107.0,294.2,1649340656.6301756,1649340657.9535084,c81276f5-1c2f-4176-902b-74770f7af585
0.1237994194731893,0.2667125932767931,0.435305164465197,0.7348192880968459,0.246726576055851,-0.8713335648020504,-0.1340465193797278,-0.1481419230953865,-7.967235385412072,29.003613132795685,10.321915057623524,-3.4039965284400324,0.902857571531673,-0.7027676239781888,4533.813802083333,11.921555555555557,0.11,178.81412176232186,0.894608584392717,84.92898319671556,1553.0,1178.0,1200.0,1528.0,1471.0,993.0,107.0,294.2,1649340659.2806256,1649340660.4203827,f8915816-7507-42b5-9b3c-52659376a20a
0.0946882064735649,0.2611506950759672,0.4243391527121232,0.739197803520256,0.2409937447950201,-0.8687038240910627,-0.140607719265977,-0.1631182894899211,-7.971424699533226,28.632039820405293,10.431152152819374,-3.4109579423106857,0.8798179797128778,-0.6710006276449068,4534.879557291667,11.915444444444445,0.11,178.79657728307382,0.8789133788624586,85.01998636048708,1553.0,1178.0,1200.0,1528.0,1471.0,993.0,107.0,294.2,1649340660.5284874,1649340661.641011,f8915816-7507-42b5-9b3c-52659376a20a
0.0996058187657303,0.2614531150747551,0.4311764741898045,0.7376331088197554,0.2474234569230789,-0.8677439687640878,-0.1337440993474413,-0.1467350127240427,-8.011828975915325,28.653641666490103,10.457591268897868,-3.404803921063198,0.8816303443791916,-0.6988274400971426,4537.546875,11.916666666666666,0.11,178.80861966549048,0.8835357864600524,85.13344946297934,1553.0,1178.0,1200.0,1528.0,1471.0,993.0,107.0,294.2,1649340661.748804,1649340662.8741786,f8915816-7507-42b5-9b3c-52659376a20a
0.0975283248092448,0.2677513402198176,0.4317287193667868,0.8415340969353292,0.2513943629438355,-0.9769045070203052,-0.172309228498815,-0.1871935548069974,-8.158205236849989,29.624881294007604,9.261432604397692,-3.878275792911609,0.9041491026760744,-0.6505951579651046,4526.896267361111,11.893333333333334,0.1044444444444444,178.80776816857394,0.843432390038159,85.30870376907288,1553.0,1088.0,1200.0,1528.0,1471.0,993.0,107.0,294.2,1649340665.2123191,1649340666.2741048,e74de593-578d-4f16-9bf4-5e8618529aac
0.0993822909518152,0.2568905177205465,0.4222616588437489,0.8327902147451769,0.2432816177691169,-0.954880427813223,-0.1755964029719514,-0.1995533297892661,-8.195143354999216,29.63994048614979,9.68556509045152,-3.809383242014901,0.8603934316655298,-0.6227850627435789,4514.710232204861,11.903555555555556,0.11,178.79120420092673,0.8179197895742448,85.3393477922391,1553.0,1088.0,1200.0,1528.0,1471.0,993.0,107.0,294.2,1649340666.38355,1649340667.5887136,e74de593-578d-4f16-9bf4-5e8618529aac
0.0977518526427289,0.2652136419869875,0.4330435888896009,0.8487264331837524,0.2528670168542232,-0.9801390885235756,-0.1728088789597132,-0.1872198519927806,-8.155759506752359,29.75555953692982,9.391121191794738,-3.9008148200682418,0.89266449583805,-0.6537948887029167,4518.4111328125,11.904222222222224,0.11,178.81504763240935,0.8355014020469125,85.37825786212085,1553.0,1088.0,1200.0,1528.0,1471.0,993.0,107.0,294.2,1649340667.6972787,1649340668.814186,e74de593-578d-4f16-9bf4-5e8618529aac
0.1664143428164326,0.2708281349667265,0.4016970996194193,-0.1656559875688017,0.1331612909833603,-0.0083712750876938,0.0990141274811311,0.067785974126482,-6.911885902959523,25.134804616785427,16.500684316451366,0.5406424766313259,0.9647331704532256,-0.830461809584697,4504.1650390625,11.95988888888889,0.13,178.8034742563157,1.1234367480437557,85.39315222797092,1553.0,1435.0,1200.0,1528.0,1471.0,993.0,107.0,294.2,1649340669.7175896,1649340670.8548143,8561a95c-d363-44c8-b77e-658a5c1e5df2
0.1831258294732154,0.2748379813704601,0.4030377608162032,-0.1656686305570439,0.1328699967996603,-0.0120564501481105,0.0998971129976831,0.0872035637629925,-6.746129722991632,25.13102777101843,16.54138090290612,0.5325215592224837,0.9783251414610488,-0.8324897611079632,4510.74951171875,11.96,0.1222222222222222,178.81013141402673,1.1230624631636128,85.36126435146585,1553.0,1435.0,1200.0,1528.0,1471.0,993.0,107.0,294.2,1649340670.9626207,1649340672.0807345,8561a95c-d363-44c8-b77e-658a5c1e5df2
0.1663991712594809,0.271803667030124,0.3999402316602735,-0.16630077946403,0.1300758989116661,-0.00830148584662,0.0963697224209102,0.0793902041632619,-6.8687114578292405,25.234391317660258,16.543680446329766,0.5428550736400379,0.9676750576343488,-0.8199371714372317,4509.959147135417,11.960666666666668,0.1222222222222222,178.80892778291297,1.1262534540244458,85.33160463445003,1553.0,1435.0,1200.0,1528.0,1471.0,993.0,107.0,294.2,1649340672.189263,1649340673.3130395,8561a95c-d363-44c8-b77e-658a5c1e5df2
0.2393764552257291,0.3195177541419403,0.6345736376522005,-0.1780683578703977,0.3400560162687959,-0.0578235231252063,0.3326401521011333,0.3073289132862575,-5.04699766534292,25.046014140444456,16.415043030057227,0.4694481182515103,1.1511985148215145,-1.7553275111118976,4516.0302734375,11.958000000000002,0.12,178.7755888706643,1.1067068637179789,85.17660259815548,1553.0,1435.0,1200.0,1424.0,1471.0,993.0,107.0,294.2,1649340675.247612,1649340676.3839362,378ada6a-7f31-4e18-9534-e5c38cf3326a
0.2419535995676008,0.3100638421603859,0.6338110133433759,-0.1736898416463391,0.3415023727468769,-0.0528007209488062,0.332797936441493,0.297730365679476,-5.165368656703578,25.13093048075661,16.38270870228247,0.4713183733977705,1.1162789808155154,-1.7577513800496578,4513.65283203125,11.955,0.12,178.77014748662546,1.0909760842857932,85.15724128858821,1553.0,1435.0,1200.0,1424.0,1471.0,993.0,107.0,294.2,1649340676.4922574,1649340677.614436,378ada6a-7f31-4e18-9534-e5c38cf3326a
0.2370622848040324,0.3061192335466647,0.6301425274478097,-0.1708497230203484,0.3402663953897237,-0.0505917399225816,0.3304574686727422,0.302989843821168,-5.240487493158534,25.037727375170768,16.497392049636037,0.4690555844505452,1.100415714755553,-1.7480399817025951,4514.70947265625,11.955888888888888,0.12,178.77586814951033,1.0950225326242355,85.16063437478589,1553.0,1435.0,1200.0,1424.0,1471.0,993.0,107.0,294.2,1649340677.7256565,1649340678.8494036,378ada6a-7f31-4e18-9534-e5c38cf3326a
0.323107347956535,0.3466435126199681,0.904687279567794,-0.1357427013373598,0.5894473165076497,-0.1372416528235804,0.5911040520752183,0.5680017949575964,-3.481682550639665,25.640739709780483,16.463642847263248,0.2136967159692996,1.2533496033590756,-2.8266271701308265,4522.915961371527,11.941666666666666,0.1155555555555555,178.7235048836934,1.076701226079813,85.04570885290136,1553.0,1435.0,1200.0,1304.0,1471.0,993.0,107.0,294.2,1649340680.7758074,1649340681.9151974,41bc7be3-7b7c-4e96-b4b0-e1aed1f4a88b
0.3078993646090558,0.3429456949241728,0.8985159900718513,-0.1259570363160805,0.5823910187703933,-0.1413941124914868,0.5804819294015021,0.5562074155237067,-3.5126345865555373,25.98997808608238,16.57050036864478,0.1843008294794567,1.2371624053222956,-2.793856352219948,4522.385308159723,11.94077777777778,0.12,178.7152631220949,1.0630113214011878,85.02933992510047,1553.0,1435.0,1200.0,1304.0,1471.0,993.0,107.0,294.2,1649340682.0237496,1649340683.142933,41bc7be3-7b7c-4e96-b4b0-e1aed1f4a88b
0.3295107625954711,0.3458151448158745,0.904135034373279,-0.1350063742606709,0.5894867625913626,-0.1383461433286026,0.5913275798879856,0.564714621221757,-3.432291276821569,25.572494889587286,16.28703474362692,0.2090706135208102,1.251331589911337,-2.8265266992290736,4521.060329861111,11.941555555555556,0.1144444444444444,178.72328631763992,1.057896683651612,85.01799498088907,1553.0,1435.0,1200.0,1304.0,1471.0,993.0,107.0,294.2,1649340683.2512856,1649340684.3792932,41bc7be3-7b7c-4e96-b4b0-e1aed1f4a88b
0.3594634905162941,0.3615015382960775,1.0573173349599998,-0.0764157804276706,0.7308220848209046,-0.2161206885366891,0.7254574172705073,0.6961752735634318,-2.4794367349482034,26.346002029447003,16.177367095512476,-0.0846479098788617,1.3069033171385969,-3.416201165142304,4529.554361979167,11.893666666666666,0.1033333333333333,178.6691244353416,1.033750589411409,84.98055795513832,1553.0,1435.0,1200.0,1166.0,1471.0,993.0,107.0,294.2,1649340685.248504,1649340686.1950142,a055ba4f-8965-4040-a8a2-703a3246d892
0.3586614201025888,0.3591479218416229,1.0524523176049363,-0.0802551998876434,0.7250761051127631,-0.2100591388902037,0.721105199230482,0.6909683903067512,-2.4909431634939097,26.463500878908285,16.171794114861175,-0.0618360205565872,1.2983729485666005,-3.395929330577715,4528.756673177083,11.902,0.1,178.66659271188917,1.047399904267935,84.93547642988652,1553.0,1435.0,1200.0,1166.0,1471.0,993.0,107.0,294.2,1649340686.304014,1649340687.445336,a055ba4f-8965-4040-a8a2-703a3246d892
0.3594766391999421,0.3597396131282487,1.048691790707472,-0.0840814706773133,0.7212629835708683,-0.208468146482263,0.7185937984903176,0.6866161722988778,-2.4497607830829136,26.388875192045298,15.956166473642334,-0.0503253126825483,1.3024432070918437,-3.3822406601127035,4525.56787109375,11.898,0.1077777777777777,178.68997017268845,1.0420735780859578,84.91026468384018,1553.0,1435.0,1200.0,1166.0,1471.0,993.0,107.0,294.2,1649340687.5537813,1649340688.669471,a055ba4f-8965-4040-a8a2-703a3246d892
0.0716385421824346,0.2301329222459816,0.1776170316515739,-0.1319821739225305,-0.0656207002967777,0.0099448591192632,-0.1318769843267638,-0.1604622520997972,-8.403828445125663,25.16849707918944,16.100207770795343,0.4940922182308844,0.8078595190924054,0.0682211079737534,4528.75732421875,11.964666666666666,0.1233333333333333,178.8168659805484,1.0904435785478457,85.05546691649558,1553.0,1435.0,1200.0,1623.0,1471.0,993.0,107.0,294.2,1649340689.7875786,1649340690.9322708,34951ea6-89cc-4e6d-a634-4952d188277f
0.106964537124205,0.236352760981872,0.1778789941211851,-0.136728853614108,-0.0646638797492929,0.0076792375882313,-0.1303947215859795,-0.1429239132753896,-8.418338887610812,24.900631838350048,16.033186970800624,0.4979277558278964,0.8324808830589395,0.0651666180360852,4530.086154513889,11.961444444444444,0.1211111111111111,178.82822382622822,1.0702210248149266,85.05999305518557,1553.0,1435.0,1200.0,1623.0,1471.0,993.0,107.0,294.2,1649340691.044917,1649340692.1630528,34951ea6-89cc-4e6d-a634-4952d188277f
0.1055864526333531,0.2398422224998338,0.185300421444354,-0.1376770769531592,-0.0626030743900453,0.0062379381723703,-0.1273224779397842,-0.1457685829595371,-8.332351196514242,25.34345082292632,16.2247125532696,0.5002067755143492,0.843857134608962,0.048431717099672,4538.615017361111,11.963333333333331,0.12,178.82557674846987,1.0942520019084931,85.04241290717187,1553.0,1435.0,1200.0,1623.0,1471.0,993.0,107.0,294.2,1649340692.2744482,1649340693.329945,34951ea6-89cc-4e6d-a634-4952d188277f
0.0341384604474869,0.2040722074713092,0.0230672581347657,-0.0814780286895645,-0.2066930723116591,-0.0041505434864572,-0.3088979010897958,-0.3371544539345308,-9.71357472168982,26.1311803686446,15.79667839257155,0.3464715081417173,0.7060767829820682,0.7186255336283258,4542.3564453125,11.961,0.12,178.87344271417334,1.061093650927968,85.03832541840856,1553.0,1435.0,1200.0,1712.0,1471.0,993.0,107.0,294.2,1649340695.113683,1649340696.2512057,5a4624c1-14ac-4b3c-8188-e551658ddf1d
0.0330339699726318,0.2033884752981155,0.0253814286921542,-0.0790718171678189,-0.203327005731044,-0.0044661121964843,-0.3057159161150517,-0.329330978427633,-9.698901852635466,26.047641137656328,15.993534482302938,0.3399347639829145,0.7015128232720659,0.7066164529659111,4546.639973958333,11.964111111111112,0.12,178.86447847034262,1.0508788302909662,84.98082281469614,1553.0,1435.0,1200.0,1712.0,1471.0,993.0,107.0,294.2,1649340696.358699,1649340697.4794395,5a4624c1-14ac-4b3c-8188-e551658ddf1d
0.034361988300014,0.2112382466151233,0.0277481940406689,-0.084160362850723,-0.2017886081141384,-0.0063595244937676,-0.3024944850506957,-0.3260963986439505,-9.625439420873889,25.85602697461908,16.17496988395066,0.3460720427432557,0.7295995314523976,0.6979994276506291,4537.280110677083,11.961333333333336,0.12,178.88125037930456,1.0401098038358407,84.96581840690945,1553.0,1435.0,1200.0,1712.0,1471.0,993.0,107.0,294.2,1649340697.5875409,1649340698.7046063,5a4624c1-14ac-4b3c-8188-e551658ddf1d
-0.012868129296962,0.1803256629938568,-0.1230673572845183,-0.0383108572126877,-0.3370624128835213,-0.0123816275173623,-0.4697196361392083,-0.4886932099341121,-10.820236080919528,26.547226793555105,15.788788156946008,0.2255237713674055,0.6103435091647543,1.3209161021748086,4546.3720703125,11.952000000000002,0.1133333333333333,178.9099477985573,1.0301625700891348,85.01081569316149,1553.0,1435.0,1200.0,1801.0,1471.0,993.0,107.0,294.2,1649340700.642897,1649340701.7774093,18c01edc-869c-40a0-9a81-ed966fe9c68a
0.0022923178057543,0.1863609143412353,-0.1210950527125555,-0.0408091095774517,-0.3371807511900526,-0.015195448572061,-0.4696933387604419,-0.4927693065378332,-10.811363727300357,26.609372245291407,15.90922484517917,0.2253700267390533,0.6322828233300677,1.319210298584912,4541.821723090277,11.951666666666666,0.1177777777777777,178.90803079213026,1.0324454185236036,84.95615444814378,1553.0,1435.0,1200.0,1801.0,1471.0,993.0,107.0,294.2,1649340701.8879976,1649340703.0098655,18c01edc-869c-40a0-9a81-ed966fe9c68a
-0.0300008809126455,0.183704877797509,-0.1193988707839604,-0.0406118791116599,-0.3367862902335327,-0.0115664083136356,-0.4686019966970878,-0.5000010913132061,-10.803828179871063,26.80702662661377,16.08918548868546,0.2345072744281369,0.6207593477257637,1.3146654232838642,4541.554361979167,11.951666666666668,0.1166666666666666,178.92145439057904,1.0303419337026511,84.9417465435446,1553.0,1435.0,1200.0,1801.0,1471.0,993.0,107.0,294.2,1649340703.1190288,1649340704.2381012,18c01edc-869c-40a0-9a81-ed966fe9c68a
0.1451791990482623,0.2596648924781725,0.3601340739437276,-0.2207227328038018,0.1201703793042233,0.0477342123806645,0.1162520679353766,0.0936889055320624,-6.0552306456199405,21.02952669020937,15.664778866194233,0.7619501098286352,0.9282850354827968,-0.7813844863275974,7485.241102430556,11.654777777777776,7.562222222222222,178.72347908075653,0.7396899629692064,73.33237079952646,1553.0,1435.0,1350.0,1528.0,1471.0,993.0,107.0,294.2,1649340709.197334,1649340710.3721657,2a493d7a-0bd4-4a5f-bb3e-dcc17c2e326c
0.1373557249889619,0.251078794298561,0.3608835495835995,-0.2146611831419425,0.1195655393133767,0.0557812145246756,0.1141614252806576,0.0918743855052378,-6.200041361812742,21.53854025020899,16.395295259895132,0.7698146129329367,0.8899421720803079,-0.7788712803045128,7485.9619140625,11.659555555555556,7.527777777777778,178.72690024662077,0.6676889902249883,68.06694229959797,1553.0,1435.0,1350.0,1528.0,1471.0,993.0,107.0,294.2,1649340710.4805677,1649340711.6141546,2a493d7a-0bd4-4a5f-bb3e-dcc17c2e326c
0.1626669645096926,0.2592704316139249,0.3731907283520091,-0.2097172728315109,0.1302291317433516,0.0514684421631808,0.122957902901003,0.1065351815157066,-6.273926415180617,21.63833676735174,17.650082777681508,0.7504081942290675,0.910240783432034,-0.8199841510789544,7485.9619140625,11.65688888888889,7.554444444444446,178.74965540129563,0.6410585984726865,64.08746387110408,1553.0,1435.0,1350.0,1528.0,1471.0,993.0,107.0,294.2,1649340711.722247,1649340712.8426125,2a493d7a-0bd4-4a5f-bb3e-dcc17c2e326c
0.3663457367656866,0.642468333253993,0.4005597374593226,-0.3007314639713417,0.0769374666531275,-0.2508348942232232,0.0369572122110544,0.0037019672317911,-5.965255736566736,21.00010888802749,15.918038168855013,0.273409133018986,2.373562289744719,-0.6186554197700822,7485.9619140625,11.63111111111111,7.598888888888889,178.4381638652873,0.6775707620631648,56.95741991015392,1658.0,1435.0,1350.0,1528.0,1551.0,993.0,107.0,294.2,1649340714.772405,1649340715.91101,afc365b4-98eb-402d-801b-650843e4920a
0.365840607725888,0.6369141053559858,0.3879698617875893,-0.3035595297119399,0.0667735245200671,-0.2464284367898875,0.0262886887049185,0.0052113281945031,-6.076126850400742,20.9032519033178,15.31317062082227,0.2882692571733771,2.3584246243002456,-0.5740484266260021,7485.9619140625,11.631,7.641111111111111,178.4606017956207,0.7435966355179934,54.92347874723829,1658.0,1435.0,1350.0,1528.0,1551.0,993.0,107.0,294.2,1649340716.019284,1649340717.1511135,afc365b4-98eb-402d-801b-650843e4920a
0.3577278627373256,0.6403196173512933,0.3844197140940376,-0.297760953778822,0.06167183042948,-0.2500574773960424,0.0190569057334464,0.0031206856344649,-6.078191077759386,21.10391632943879,15.986366852227086,0.268293879092212,2.364309867590353,-0.5506353809747253,7492.50537109375,11.629666666666663,7.636666666666667,178.47250605643416,0.7980448995848596,53.09085057991961,1658.0,1435.0,1350.0,1528.0,1551.0,993.0,107.0,294.2,1649340717.2822573,1649340718.3699276,afc365b4-98eb-402d-801b-650843e4920a
0.5744183581379079,1.0373050203863656,0.4356733279103476,-0.3944038877841898,0.0250658599358534,-0.557145340906623,-0.0459239526308276,-0.0629383663071361,-5.502886443724972,20.682042080173265,14.926249223020472,-0.2038947345550447,3.873711289924652,-0.4318539792436961,7505.62744140625,11.594,7.639999999999999,178.28032730048722,0.8972389424171453,50.1239511109747,1767.0,1435.0,1350.0,1528.0,1630.0,993.0,107.0,294.2,1649340720.0994942,1649340721.2335856,27f16028-a70b-4e6f-92ee-b0a6f45bbd67
0.5922216911441075,1.0380807934210683,0.4427473259007412,-0.382188746590672,0.0325211707685587,-0.5661916466505449,-0.0440305402804567,-0.0660151614484715,-5.672926526849146,20.874272541525297,15.380169197848332,-0.2501640368026677,3.872749099614708,-0.4537034576587977,7505.62744140625,11.592,7.610000000000001,178.2794393758951,0.9649324136726126,49.09111950217178,1767.0,1435.0,1350.0,1528.0,1630.0,993.0,107.0,294.2,1649340721.3417585,1649340722.465669,27f16028-a70b-4e6f-92ee-b0a6f45bbd67
0.5727191421691428,1.036476146862073,0.4346452010994557,-0.3870345478089259,0.0278574293267955,-0.5662867218630195,-0.0466223507011792,-0.0627927191542745,-5.54635689824769,20.39553883717317,14.473263873603036,-0.2431046124949558,3.8739476210227832,-0.4338477659168589,7505.62744140625,11.590333333333332,7.643333333333334,178.2897226051455,1.00373178942953,48.25881693503107,1767.0,1435.0,1350.0,1528.0,1630.0,993.0,107.0,294.2,1649340722.574031,1649340723.6909094,27f16028-a70b-4e6f-92ee-b0a6f45bbd67
0.72445811645424,1.2887475316535753,0.4878867960911488,-0.4702850313930783,0.0115884459673915,-0.7544941947064797,-0.0742199484828638,-0.0999125021419197,-5.118937573686423,21.24151903797198,12.0467995580156,-0.470151698865817,4.852238713720463,-0.4186455779053618,7505.62744140625,11.527,7.612222222222223,178.18941141135508,1.040686421212178,47.22896632434591,1886.0,1435.0,1350.0,1528.0,1710.0,993.0,107.0,294.2,1649340724.5604076,1649340725.7408388,778aab7f-1a1b-4501-9247-62ee0b6c6fad
0.7351743028691121,1.297018061508699,0.4918708507284992,-0.4702324359354206,0.0152700810060463,-0.7628699176093757,-0.0733126881952953,-0.0975851827262276,-5.2586850144589645,21.170631114046618,12.035449403524392,-0.4894354089125272,4.884592813262128,-0.4294659955726287,7505.62744140625,11.531777777777778,7.604444444444444,178.2058235970207,1.0893492897506647,46.72590657541145,1886.0,1435.0,1350.0,1528.0,1710.0,993.0,107.0,294.2,1649340725.8490136,1649340726.9737024,778aab7f-1a1b-4501-9247-62ee0b6c6fad
0.7357396967529835,1.2973073329472231,0.491870850740728,-0.4700220574390714,0.014218185377396,-0.7596484857238426,-0.0739175282985427,-0.0942717113026684,-5.26292932171065,21.29411553320556,12.55712664863124,-0.4817713686499008,4.881060377053756,-0.4264531344767697,7505.62744140625,11.535888888888888,7.63,178.19196438428486,1.1480239942417572,46.3233985947082,1886.0,1435.0,1350.0,1528.0,1710.0,993.0,107.0,294.2,1649340727.081959,1649340728.205582,778aab7f-1a1b-4501-9247-62ee0b6c6fad
-0.077704352680584,-0.2100065440944952,0.3203724193051711,-0.0894461391510603,0.1747506159296951,0.3953199824425443,0.2039538691907493,0.1860190481960268,-6.256909679193236,22.49213132955385,17.00830336504878,1.254722476640726,-0.8624074292045895,-0.9809195508264636,7507.820149739583,11.641,7.666666666666667,179.2545854836978,1.2906597596005838,45.517660151069485,1449.0,1435.0,1350.0,1528.0,1386.0,993.0,107.0,294.2,1649340730.1347606,1649340731.279926,621d7878-8756-4214-be7c-1d5300da1838
-0.0703405767306547,-0.2048365773422174,0.3263581100088197,-0.1022767387144776,0.1767537691757579,0.3989161505851696,0.2122046757231087,0.2018121487119713,-6.0007933541050935,22.479515078768728,16.613899097331736,1.292026700624052,-0.8393750755427327,-1.0034133833395276,7524.662977430556,11.639,7.661111111111111,179.19559238092654,1.3550799812759955,45.25332727673055,1449.0,1435.0,1350.0,1528.0,1386.0,993.0,107.0,294.2,1649340731.399169,1649340732.5041993,621d7878-8756-4214-be7c-1d5300da1838
-0.1103176725868918,-0.211524712941296,0.3298602144371189,-0.0873706678169835,0.1826327533250433,0.3992827968844442,0.2113449533074615,0.1931264239553362,-6.370355230573237,22.77956488483716,17.693590885628826,1.261375688791632,-0.8730214163404477,-1.0145078112998438,7525.396484375,11.640777777777778,7.650000000000001,179.21029398366002,1.37876117204988,45.01949233540058,1449.0,1435.0,1350.0,1528.0,1386.0,993.0,107.0,294.2,1649340732.611739,1649340733.7259758,621d7878-8756-4214-be7c-1d5300da1838
-0.3161033877899398,-0.6383780123324719,0.308130983898369,0.0225676076413641,0.2489487055715518,0.7190014080334103,0.3138901124897299,0.2891837137421318,-6.32526395133578,23.538762538803564,18.380546585292187,1.7359153280383703,-2.495288826391189,-1.2712121687614888,7529.805013020833,11.590333333333334,7.636666666666667,179.3520113020189,1.4269726196308783,44.7021287339808,1342.0,1435.0,1350.0,1528.0,1293.0,993.0,107.0,294.2,1649340734.640067,1649340735.774901,d58423a1-b343-4944-b8c6-1943de082b0d
-0.327306078766903,-0.6447814296492856,0.2980722319077182,0.0290499149520155,0.2407965143262918,0.7190803002023977,0.3012016214358515,0.2815311729039924,-6.568128675042699,23.72140577512698,18.25998696351144,1.7220385477264215,-2.517950765383869,-1.229464512401245,7529.805013020833,11.593333333333332,7.646666666666666,179.35545827082004,1.4342017345371023,44.56990196347366,1342.0,1435.0,1350.0,1528.0,1293.0,993.0,107.0,294.2,1649340735.884638,1649340737.0026035,d58423a1-b343-4944-b8c6-1943de082b0d
-0.326793279528382,-0.6383911610169097,0.307591887365422,0.0289052792538365,0.2463058177503287,0.7155564499517404,0.3099718012582355,0.2951926674515723,-6.251504995700104,23.82323212780019,18.6974483050078,1.715824397044299,-2.499478536108845,-1.2608630017299671,7531.274522569444,11.59288888888889,7.649999999999999,179.35492248042513,1.4434936258625066,44.44613362334368,1342.0,1435.0,1350.0,1528.0,1293.0,993.0,107.0,294.2,1649340737.1117594,1649340738.23607,d58423a1-b343-4944-b8c6-1943de082b0d
-0.5787618041477756,-1.0931259098118729,0.2630441072062559,0.1252457759777027,0.2913138024847482,1.068533172220456,0.3955172128754811,0.3839595097219841,-6.474877142588342,25.03294002082204,18.292053134282472,2.2973137207030545,-4.214501493267106,-1.4386431139935625,7525.396484375,11.49522222222222,7.592222222222222,179.52403948209448,1.5071768511537265,44.28895123888408,1227.0,1435.0,1350.0,1528.0,1189.0,993.0,107.0,294.2,1649340740.1701252,1649340741.30662,3fc6f2cf-428b-4f99-825a-4b4b4838e48e
-0.5516967220386786,-1.0897947358291236,0.2678211294091924,0.123640623556675,0.2907934175552045,1.0756314449750912,0.3956669057069399,0.3822400649768117,-6.56222041322387,25.58648674056918,19.56700930522433,2.3209519788630293,-4.212179421528767,-1.4427601242640349,7525.396484375,11.498333333333331,7.6,179.51553058420845,1.5108755883167655,44.27016138847737,1227.0,1435.0,1350.0,1528.0,1189.0,993.0,107.0,294.2,1649340741.4152858,1649340742.537163,3fc6f2cf-428b-4f99-825a-4b4b4838e48e
-0.5555907600201023,-1.0751541579156922,0.2634213735839568,0.12562557098453,0.2886188255974838,1.0553268247250889,0.3888776274923154,0.369331586243175,-6.609993448487659,25.08675838606871,18.94323817170894,2.26719191240159,-4.151933544976221,-1.423053583922996,7523.74609375,11.505,7.6175,179.52598646546286,1.4961520572372202,44.2629239492781,1227.0,1435.0,1350.0,1528.0,1189.0,993.0,107.0,294.2,1649340742.6455529,1649340743.7630508,3fc6f2cf-428b-4f99-825a-4b4b4838e48e
0.137513509306546,0.2343536535305266,0.3298657773538225,-0.203221816295105,0.0984881795955907,0.0577272215717116,0.0845768591664444,0.0681015428156124,-6.664929117366753,21.29360448341267,15.61233588068744,0.7448561339829699,0.8340634896559377,-0.6690127165327279,7512.20556640625,11.647888888888888,7.688888888888887,178.88470949066422,1.3665797786824756,44.301522960961385,1553.0,1435.0,1350.0,1528.0,1471.0,993.0,107.0,294.2,1649340745.6998072,1649340746.8423245,a17e4d02-8767-40fa-806c-233930bedb38
0.1337792796891394,0.2423349117540695,0.3328899772662704,-0.2039055486294753,0.0986328152180337,0.0517051186646208,0.0844585208995117,0.0541639248855472,-6.60920825329643,21.39745633014375,15.787986106499549,0.7337610768276065,0.8623245599533917,-0.6719597229656823,7518.794921875,11.648333333333332,7.697777777777778,178.86879211425844,1.3577970091834857,44.29552909050975,1553.0,1435.0,1350.0,1528.0,1471.0,993.0,107.0,294.2,1649340746.9542017,1649340748.068774,a17e4d02-8767-40fa-806c-233930bedb38
0.143930072916068,0.2424401013143098,0.3360851102479782,-0.2008419019934831,0.1016438666607395,0.0484705394065961,0.0860495131361785,0.0593576598088173,-6.643686452203365,21.46810927426896,15.761639724668692,0.720187617114666,0.8630231724386362,-0.6827321134687643,7520.995442708333,11.647666666666668,7.680000000000001,178.86635753127428,1.3481882373976817,44.28598238332485,1553.0,1435.0,1350.0,1528.0,1471.0,993.0,107.0,294.2,1649340748.177426,1649340749.2951891,a17e4d02-8767-40fa-806c-233930bedb38
0.1569341331453004,0.2427162239216014,0.3426726065899123,-0.523800237806848,0.0739264152330616,0.3613043078471372,0.1854405056022124,0.1696620706356885,-6.134146853448757,20.60889299264481,18.409159081999704,2.146992429350959,0.8771536309300835,-0.793826274761666,7532.00927734375,11.647,7.673333333333334,178.83353619558267,1.421393778035055,44.417158443064665,1553.0,1522.0,1350.0,1528.0,1471.0,993.0,107.0,294.2,1649340751.232561,1649340752.3668573,d4a6e12d-22b2-4e5c-b337-a62c18f5f4a3
0.1499258782416731,0.2362996604786206,0.3483791403468745,-0.5090342479665627,0.0820128633561545,0.3559659375685745,0.1875705943174367,0.167334751472484,-6.351063391291919,20.794880805932383,18.71834855274965,2.103145122449728,0.8504294688753619,-0.8160906141456153,7532.00927734375,11.64,7.66,178.86940379564413,1.4322508617554175,44.46363674200174,1553.0,1522.0,1350.0,1528.0,1471.0,993.0,107.0,294.2,1649340752.475747,1649340753.5978277,d4a6e12d-22b2-4e5c-b337-a62c18f5f4a3
0.161667663635288,0.239218670894277,0.3394774736440988,-0.5182909325992555,0.0722696795462686,0.3610150365601807,0.1808121647194366,0.1524109817640731,-6.285447503009299,20.68681577256085,18.57170801152713,2.1342219689635016,0.8627863360614001,-0.7809080780836676,7532.00927734375,11.634222222222222,7.680000000000001,178.8921619859586,1.4218003877340826,44.51906979839565,1553.0,1522.0,1350.0,1528.0,1471.0,993.0,107.0,294.2,1649340753.7069328,1649340754.820562,d4a6e12d-22b2-4e5c-b337-a62c18f5f4a3
0.1820086960215029,0.2284104431145713,0.3404504770945861,-0.8946988104616742,0.0331654568965568,0.734648355056325,0.2880529260124145,0.266199794064558,-5.955829955041789,20.10416912835563,21.327798123281983,3.8197011478216063,0.8418844697480197,-0.8819123334965928,7532.00927734375,11.637666666666668,7.67,178.85931788296975,1.5291655898274918,44.62283820627098,1553.0,1613.0,1350.0,1528.0,1471.0,993.0,107.0,294.2,1649340756.7585468,1649340757.726157,6a4878b6-24b6-4444-a080-7e9f27b78474
0.1983919709269298,0.2282395100766377,0.3447501004595991,-0.890504374127443,0.0363868874808261,0.7329127273208467,0.2901172711973356,0.2702890383637745,-5.971461048759787,20.28590939962825,21.62854416311898,3.8077982829455617,0.8384477259047195,-0.8947453367453604,7532.00927734375,11.639,7.656666666666666,178.8649823865214,1.553173598038381,44.67478065654407,1553.0,1613.0,1350.0,1528.0,1471.0,993.0,107.0,294.2,1649340757.8355205,1649340758.926067,6a4878b6-24b6-4444-a080-7e9f27b78474
0.1871892821488039,0.2359577943836905,0.3495756716368578,-0.8926081666136357,0.0398055485367954,0.7268380302379128,0.294390597216505,0.2834377337156537,-5.857574957227071,20.168881345290536,21.60050994817393,3.798410614568462,0.8674013461605787,-0.9110601661836378,7543.794813368056,11.636666666666663,7.654444444444445,178.85195342122466,1.54249497672602,44.707636143181546,1553.0,1613.0,1350.0,1528.0,1471.0,993.0,107.0,294.2,1649340759.0572786,1649340760.150431,6a4878b6-24b6-4444-a080-7e9f27b78474
0.2050715083097872,0.2230852213898441,0.3578462009898808,-1.2602722697889914,0.0052639231478976,1.091004292970527,0.4044714743071067,0.3746896795861146,-5.384804221717285,19.94402141798259,23.90207735965122,5.445627027172528,0.8411642965799803,-1.033130810632189,7535.689290364583,11.602666666666668,7.654444444444445,178.85732346773207,1.6458254935845578,44.80126627359885,1553.0,1710.0,1350.0,1528.0,1471.0,993.0,107.0,294.2,1649340762.2888234,1649340763.4254978,cb899c77-96fb-4d57-899e-59adc73c77e3
0.2008244796174914,0.2207973483563353,0.3563472497178895,-1.262073642634069,0.0037123769567645,1.096447852933911,0.4040375673590475,0.37480801787798,-5.396946533777482,19.98818952662411,24.11340046976017,5.46216862100362,0.8309238816939526,-1.028377715692283,7538.63330078125,11.606125,7.66125,178.86906228618562,1.6464730349456165,44.8630849876843,1553.0,1710.0,1350.0,1528.0,1471.0,993.0,107.0,294.2,1649340763.5338905,1649340764.6529634,cb899c77-96fb-4d57-899e-59adc73c77e3
0.183429260910738,0.2157699951474396,0.3563093207938885,-1.25151118456014,0.0049736403998135,1.093344255047601,0.4013056730765457,0.3794838961796715,-5.514665686387922,20.16600846286781,24.34230216726396,5.432522230592266,0.8095728343427915,-1.0265024214343457,7534.953287760417,11.605444444444446,7.66,178.85812791223435,1.6427562129001854,44.90675968369456,1553.0,1710.0,1350.0,1528.0,1471.0,993.0,107.0,294.2,1649340764.761217,1649340765.806454,cb899c77-96fb-4d57-899e-59adc73c77e3
0.2119088300625498,0.207056961394235,0.3490234264327749,-1.4524538031501006,-0.0310264793405707,1.2922450847776576,0.4435888423808803,0.4116243643532481,-5.225036348038516,20.68626850589253,25.226044276993363,6.336129012408365,0.7912984247424197,-1.02932040549484,7532.00927734375,11.579,7.649999999999999,178.85602117833034,1.7135872785896926,44.9746821204408,1553.0,1814.0,1350.0,1528.0,1471.0,993.0,107.0,294.2,1649340767.613641,1649340768.7551568,5ef3a7ae-f725-4afb-a27e-0f1b718227f2
0.2081614517933758,0.2104230274848865,0.355413692322541,-1.4655104724680887,-0.0256486624771837,1.3043024392985902,0.4521354941901432,0.429624928078319,-5.412980208711445,20.648150057916883,25.75842146591058,6.392731903651487,0.8025470117592587,-1.0565965392283188,7532.00927734375,11.570666666666666,7.637777777777777,178.83246765043253,1.7154610390099667,44.98054394056848,1553.0,1814.0,1350.0,1528.0,1471.0,993.0,107.0,294.2,1649340768.8635108,1649340769.9800308,5ef3a7ae-f725-4afb-a27e-0f1b718227f2
0.1898979134984305,0.2094631726972536,0.349299549012102,-1.4434732343747183,-0.0288306470299403,1.2827517261976658,0.4415376459137142,0.4149115382245938,-5.3018649751719,20.58908078326558,25.38190033290941,6.293893855887665,0.7983957621607632,-1.0291912521934674,7526.223083496094,11.57675,7.658749999999999,178.80954743285272,1.725571961619653,45.00373523128096,1553.0,1814.0,1350.0,1528.0,1471.0,993.0,107.0,294.2,1649340770.0884058,1649340771.2081034,5ef3a7ae-f725-4afb-a27e-0f1b718227f2
0.1602344558033627,0.2650953037271331,0.3591873678752822,0.1735409358981545,0.1564213339380478,-0.3338935766401548,-0.0019415625287487,-0.024636212729258,-6.634099416080069,22.44440446794506,13.309548524485088,-0.97631529836149,0.9250455001438131,-0.6613799192395518,7532.00927734375,11.645666666666664,7.686666666666666,178.8228492262613,1.1647085811324136,45.089893371905625,1553.0,1349.0,1350.0,1528.0,1471.0,993.0,107.0,294.2,1649340773.1433494,1649340774.28325,b052dca4-4e7e-48a9-8257-71152faffd89
0.151464275676645,0.2573638707628339,0.3516531654963941,0.171397698482043,0.1496234582106428,-0.3180625438293976,-0.0090418585921124,-0.0316181706085035,-6.921840469750588,22.699327135216286,14.144204501010757,-0.9346032676728712,0.8904775249020267,-0.6318246477107675,7525.396484375,11.645444444444443,7.690000000000001,178.84262186499862,1.1492835000974553,45.15262107033311,1553.0,1349.0,1350.0,1528.0,1471.0,993.0,107.0,294.2,1649340774.3921173,1649340775.510321,b052dca4-4e7e-48a9-8257-71152faffd89
0.1163967036270208,0.2642537872124435,0.3528496967671149,0.1614046896409344,0.1508988816999849,-0.3228618187461388,-0.0052550340107488,-0.0376402742645737,-6.811360381736545,22.326538637906893,13.13720384762864,-0.92536268916071,0.9257618558347528,-0.6410284197471182,7518.794921875,11.647333333333334,7.686666666666666,178.8380668877321,1.138090053276405,45.21186916683343,1553.0,1349.0,1350.0,1528.0,1471.0,993.0,107.0,294.2,1649340775.618374,1649340776.739128,b052dca4-4e7e-48a9-8257-71152faffd89
0.1204990967450744,0.2709727706208478,0.3732301744430998,0.5412836467270928,0.2017185908963923,-0.690197043295,-0.1014377506588731,-0.1267621412851573,-7.296391939660149,24.161741907600486,11.27123403042623,-2.595088845422791,0.9254850131919112,-0.6006642105253325,7518.794921875,11.62788888888889,7.694444444444445,178.85637483034736,1.01913888192808,45.31288424956334,1553.0,1264.0,1350.0,1528.0,1471.0,993.0,107.0,294.2,1649340778.6714916,1649340779.8104184,929f5341-a4d6-48e7-9953-242367e25ddb
0.118500494966102,0.2745755131794161,0.374321516135826,0.5318297350122024,0.2042694378587347,-0.684096045865572,-0.0968751528142748,-0.1149940575455745,-7.409133624722247,23.85779020843823,11.428736181586672,-2.562045616519092,0.9396275178806852,-0.6115012555424645,7512.20556640625,11.615111111111112,7.681111111111111,178.85603787434832,0.991796863912644,45.30412680868252,1553.0,1264.0,1350.0,1528.0,1471.0,993.0,107.0,294.2,1649340779.9228127,1649340780.9637043,929f5341-a4d6-48e7-9953-242367e25ddb
0.1236942298561238,0.2731554540696653,0.3701796771262076,0.5301335533498246,0.1988916213080307,-0.6855292543408228,-0.1011090332591091,-0.1307856427630396,-7.280392863229853,23.931617695757726,10.771728910219446,-2.561196807599988,0.9391607940648316,-0.5935561679356953,7512.20556640625,11.627,7.690000000000001,178.83944203248498,0.9984732908205606,45.36958848005278,1553.0,1264.0,1350.0,1528.0,1471.0,993.0,107.0,294.2,1649340781.0774186,1649340782.0262363,929f5341-a4d6-48e7-9953-242367e25ddb
0.1190921863050237,0.2838847895735065,0.3836044949843777,0.8387597222580198,0.238219369998137,-0.9985209768179976,-0.1837485951841466,-0.2142798709673091,-7.655370255534426,25.160463837182107,7.895071609584021,-3.952548696596202,0.97042547954419,-0.5485798896422867,7512.20556640625,11.60388888888889,7.684444444444444,178.83059617859993,0.8978508609621613,45.44928540401821,1553.0,1178.0,1350.0,1528.0,1471.0,993.0,107.0,294.2,1649340784.202892,1649340785.3398864,12694452-e403-42b1-a9bb-4f61ac85dcba
0.1077843077229239,0.2893940929681148,0.3923615259900394,0.8503700200245735,0.244806866462309,-1.0094475503584202,-0.180553461748332,-0.2039712923852742,-7.608077332550462,25.400442377840683,8.67141490687496,-4.001117705419831,0.9830030209503032,-0.5722403127365644,7516.598470052083,11.592999999999998,7.663333333333333,178.82707483662782,0.8647637585782127,45.55334902784767,1553.0,1178.0,1350.0,1528.0,1471.0,993.0,107.0,294.2,1649340785.4479158,1649340786.5699186,12694452-e403-42b1-a9bb-4f61ac85dcba
0.0982914549085299,0.2852305079814303,0.3871328967685322,0.8552770118825769,0.2422949599021877,-1.0138862496174974,-0.1852652468800424,-0.2202230827463742,-7.625287416896162,25.2699078659274,8.066577868637932,-4.023391784249434,0.971931673249641,-0.5562555301446157,7521.2705078125,11.60825,7.668749999999999,178.83006873621406,0.8499180911765075,45.64056371335956,1553.0,1178.0,1350.0,1528.0,1471.0,993.0,107.0,294.2,1649340786.678214,1649340787.794932,12694452-e403-42b1-a9bb-4f61ac85dcba
0.1117946600205182,0.3037393196723957,0.3878120774545672,1.0171480705584537,0.2485673933960556,-1.1882699492095146,-0.2443114964925273,-0.2701749858682876,-7.706368062345449,26.48970126636418,6.806134806231732,-4.772518450417635,1.0332300656188471,-0.4803315336784529,7525.396484375,11.573888888888888,7.638888888888889,178.82861997720005,0.7948392107735475,45.75216862494261,1553.0,1088.0,1350.0,1528.0,1471.0,993.0,107.0,294.2,1649340789.7328415,1649340790.8666923,6d87aacf-f317-4066-bf08-426ada8bfcdb
0.0974494326245934,0.2998341571370037,0.3977261936301362,1.0227494147085334,0.2567721793969971,-1.185337787245098,-0.2352651924594338,-0.2605238411165467,-7.615660006719199,26.76593159180764,7.48104136526926,-4.776086685909458,1.0119031840977686,-0.5174222413978538,7525.396484375,11.559,7.66,178.80436673436725,0.7625712508423244,45.77729727035405,1553.0,1088.0,1350.0,1528.0,1471.0,993.0,107.0,294.2,1649340790.9795082,1649340792.106758,6d87aacf-f317-4066-bf08-426ada8bfcdb
0.1224188063841839,0.3008992014664394,0.4010659621706842,1.005616664524395,0.2587707810623241,-1.1709268042816603,-0.2264555650533384,-0.2555273357997376,-7.565929137577394,26.620416569438746,7.483528559857491,-4.705828904898976,1.0178423849988136,-0.5371632566557512,7525.396484375,11.56,7.649999999999999,178.79871589119392,0.7923778050673388,45.81856071985981,1553.0,1088.0,1350.0,1528.0,1471.0,993.0,107.0,294.2,1649340792.238098,1649340793.327941,6d87aacf-f317-4066-bf08-426ada8bfcdb
0.1755789838127841,0.259152093360217,0.3525604254769862,-0.2101117337829789,0.1130963808957236,0.041291351253943,0.1025511267073911,0.0782654848606951,-6.314939119099206,21.30882317824185,15.982402066855489,0.72493059990822,0.923602959989833,-0.7417357870480573,7532.00927734375,11.645444444444443,7.688888888888887,178.83055064400548,1.153478066305555,45.85455505787586,1553.0,1435.0,1350.0,1528.0,1471.0,993.0,107.0,294.2,1649340794.236905,1649340795.3769586,c02a25dd-8622-4d5e-a7e6-fbe63b82e9fd
0.1685707289584183,0.2519729055955445,0.3554531384297819,-0.1901783083076868,0.1169358001021717,0.039069221569377,0.100066023131742,0.0883242372398571,-6.498896707966593,21.743174824546585,17.272446451972584,0.6781087019521064,0.8842815342822474,-0.7465513653996312,7532.00927734375,11.646,7.67,178.8235868866917,1.1490707918798655,45.83113623648667,1553.0,1435.0,1350.0,1528.0,1471.0,993.0,107.0,294.2,1649340795.485382,1649340796.6053343,c02a25dd-8622-4d5e-a7e6-fbe63b82e9fd
0.1446795485934859,0.2538005742757752,0.3510877715917175,-0.1973969432473682,0.1147005217871822,0.0377806493060129,0.0996715622493536,0.0804876142958836,-6.433395501439678,21.33070408973967,16.385711300958736,0.6884365163401271,0.8991369451350352,-0.7378724468555249,7535.689290364583,11.648999999999996,7.674444444444445,178.8347717009125,1.1613830023426237,45.76344602617221,1553.0,1435.0,1350.0,1528.0,1471.0,993.0,107.0,294.2,1649340796.7133734,1649340797.8296702,c02a25dd-8622-4d5e-a7e6-fbe63b82e9fd
