raw_voltage_G-,raw_voltage_G0,raw_voltage_G1,raw_voltage_G2,raw_voltage_G3,raw_voltage_G4,raw_voltage_G5,raw_voltage_G6,load_x,load_y,load_z,load_l,load_m,load_n,rpm,voltage,current,roll,pitch,yaw,aileron1_pwm,elevator_pwm,throttle_pwm,rudder_pwm,aileron2_pwm,pbaro,pdiff,Tt,sample_start_time,sample_end_time,uid
-0.0559781541086875,0.0789856290048518,-0.1082695101896762,-0.0497830950624803,-0.2691766955786997,0.0873173508630437,-0.4416901493130875,-0.4696437790781073,-16.59285885457245,25.94037730774033,14.548134695033564,0.4690496425031785,0.2844501435819668,1.1504737415181077,4676.808051215277,11.968444444444446,0.15,178.99031635779116,0.989834204311454,90.18417400198813,1553.0,1435.0,1200.0,1528.0,1471.0,993.0,107.0,294.2,1649339788.3074322,1649339789.276891,1dece1b8-e3bf-4156-b802-9ec5fb51016f
-0.0741936506287389,0.0794488676769197,-0.1037650700148965,-0.0499737511928453,-0.2656781304605357,0.0854709705045154,-0.4381101630709711,-0.4724940126577321,-16.576692339889348,26.015236211027347,14.355478757272078,0.4660286199273602,0.2880909532441993,1.134234622119323,4721.979437934027,11.968222222222222,0.1555555555555555,178.96743674189142,0.9656849439939796,90.1428574287888,1553.0,1435.0,1200.0,1528.0,1471.0,993.0,107.0,294.2,1649339789.3856385,1649339790.5164728,1dece1b8-e3bf-4156-b802-9ec5fb51016f
-0.0830164262160903,0.0793568268097091,-0.1091823331727265,-0.0486457327952589,-0.2701223903723621,0.0861284052985854,-0.4431198174515468,-0.4660511494716874,-16.591241165945107,25.9537400313054,14.570505138033456,0.4638598233496274,0.2854349676364846,1.1551237190145494,4743.45703125,11.967555555555556,0.15,178.94994993979634,0.9236446553338588,90.10670751424163,1553.0,1435.0,1200.0,1528.0,1471.0,993.0,107.0,294.2,1649339790.6247396,1649339791.7381794,1dece1b8-e3bf-4156-b802-9ec5fb51016f
0.1550670183149643,0.4784986279043783,-0.0810572704173591,-0.2874392256805985,-0.3398236395931475,-0.0789929249775111,-0.4907312579395671,-0.5163054790720821,-16.253740053698095,24.894060758750367,15.369881513063596,0.626142775182062,1.8041513930158648,1.327511150359781,4716.494249131944,11.937111111111111,0.1422222222222222,178.68279999187973,0.9153044963226462,90.03352051946514,1658.0,1435.0,1200.0,1528.0,1551.0,993.0,107.0,294.2,1649339793.6737804,1649339794.8169577,7d419465-3e11-418c-972a-5f577a46a2b7
0.1540151226644907,0.4881497700903671,-0.0728919296679585,-0.2911471585598898,-0.3343800784360212,-0.0829506827653442,-0.4841569081683123,-0.5085214488630545,-16.192720258458944,24.88720627326114,15.722469428884867,0.6260614137177873,1.8377662318635488,1.3012841494436072,4702.397786458333,11.938111111111112,0.15,178.6928342986804,0.9186955548079172,90.03221139987423,1658.0,1435.0,1200.0,1528.0,1551.0,993.0,107.0,294.2,1649339794.9304378,1649339796.038194,7d419465-3e11-418c-972a-5f577a46a2b7
0.1668613984618457,0.4840473772273374,-0.0706303537947794,-0.287268292631795,-0.329633398298546,-0.0831610619047956,-0.4797389451197291,-0.5143857686885722,-16.16976120661426,24.727940920196133,15.6564533324202,0.6158967482610214,1.8224654642615887,1.2849719162929525,4700.105794270833,11.931333333333336,0.1466666666666666,178.6947558585669,0.9170523251300984,90.02517175156966,1658.0,1435.0,1200.0,1528.0,1551.0,993.0,107.0,294.2,1649339796.1470363,1649339797.1920424,7d419465-3e11-418c-972a-5f577a46a2b7
0.3780820430111456,0.890171120110299,-0.0470547405137037,-0.5260881114729036,-0.4117864675653006,-0.2558429044276787,-0.5402098151893555,-0.5554360100412329,-15.679344460423945,24.32575225279011,16.274464907880727,0.7654297201717999,3.367619529770359,1.499255541860241,4696.671875,11.907666666666668,0.1377777777777778,178.36162476544814,0.964391417630072,89.8711638872543,1767.0,1435.0,1200.0,1528.0,1630.0,993.0,107.0,294.2,1649339799.2018192,1649339800.3388326,7aaf821b-923d-456a-8c93-9e4d7e4fc2b4
0.3956881459144452,0.8707636460965054,-0.0534976018907166,-0.516476411869519,-0.4136404341128752,-0.2457447044571571,-0.5435758823742906,-0.5577107352600921,-15.778529908226645,24.432562254551225,16.22646270276256,0.766769750080381,3.294367117545314,1.5129106705093427,4696.671875,11.902444444444445,0.1322222222222222,178.3703431224687,0.9743062316941552,89.85050560065466,1767.0,1435.0,1200.0,1528.0,1630.0,993.0,107.0,294.2,1649339800.4478328,1649339801.5687618,7aaf821b-923d-456a-8c93-9e4d7e4fc2b4
0.3878252261699357,0.8804936804851085,-0.0453322612214864,-0.5208812263257776,-0.4079601961441762,-0.252384796893919,-0.5364624356750474,-0.5587363343506746,-15.65891978917907,24.34782055054315,16.12047606486276,0.7616728882647023,3.332011977026914,1.4850233448185504,4669.392740885417,11.902666666666669,0.1355555555555555,178.38360127855762,0.9882282205089528,89.81443840728745,1767.0,1435.0,1200.0,1528.0,1630.0,993.0,107.0,294.2,1649339801.6768825,1649339802.803359,7aaf821b-923d-456a-8c93-9e4d7e4fc2b4
0.4641665502493152,1.0249715440686922,-0.0251753092630324,-0.617432132100033,-0.4339683228301417,-0.3279766623191077,-0.5579211141484143,-0.5775652726463048,-15.755926222460484,25.085928756731924,12.848432161467016,0.8149293386100629,3.91675628169574,1.5351733625098063,4643.24267578125,11.841888888888889,0.13,178.1881182288722,1.0104980878716812,89.65775842118678,1886.0,1435.0,1200.0,1528.0,1710.0,993.0,107.0,294.2,1649339804.731281,1649339805.8735764,97f326f6-83dd-41e0-9361-a7ac1ecfb133
0.4610240121129393,1.0177923563828508,-0.0214410794355904,-0.6065187106725205,-0.4287088432000932,-0.3330126138000879,-0.5545156008258193,-0.5721611568772612,-15.659390463231848,25.145420669993065,12.587576788394555,0.7795822088670482,3.890352724616592,1.5169730565983548,4634.596028645833,11.84022222222222,0.1222222222222222,178.19167296288026,1.0098927149246195,89.55491778067375,1886.0,1435.0,1200.0,1528.0,1710.0,993.0,107.0,294.2,1649339805.9819076,1649339807.2260334,97f326f6-83dd-41e0-9361-a7ac1ecfb133
0.4575001618351092,1.017319003340174,-0.020546968073394,-0.6139214290787468,-0.428511612716764,-0.3248998668994369,-0.5507024777954576,-0.5799451872327116,-15.603863075178529,25.098795491945992,12.724189019546424,0.8142965181231578,3.887940887193382,1.5101850381098922,4614.911295572917,11.841,0.1266666666666666,178.21913335898333,1.0195085422009724,89.47603820267899,1886.0,1435.0,1200.0,1528.0,1710.0,993.0,107.0,294.2,1649339807.361022,1649339808.5314796,97f326f6-83dd-41e0-9361-a7ac1ecfb133
-0.3241635398130766,-0.378796382149245,-0.112600994393923,0.221744054430857,-0.1666421398422883,0.2748910818654306,-0.3621238322446395,-0.3905513188867318,-16.896814597038333,27.58408288348401,13.265266043735922,0.2883772801851066,-1.452666891554475,0.8477293384403756,4598.130805121527,11.959,0.16,179.16253881880309,0.9921090011861202,89.25835931492078,1449.0,1435.0,1200.0,1528.0,1386.0,993.0,107.0,294.2,1649339809.6459124,1649339810.788707,2468d84f-c7b3-4c17-97ae-5eced405a8c0
-0.3372338517513808,-0.3728617675623055,-0.112745124351594,0.2174009391177889,-0.1689178759373885,0.2715508074867861,-0.3630508155192228,-0.3847588120261072,-16.791656903979565,27.573134139319187,13.044097049550386,0.2906061625628442,-1.428667136022568,0.852791366579167,4605.8173828125,11.955666666666666,0.1522222222222222,179.213199090787,0.9844375722413016,89.07562063931671,1449.0,1435.0,1200.0,1528.0,1386.0,993.0,107.0,294.2,1649339810.898061,1649339812.0183294,2468d84f-c7b3-4c17-97ae-5eced405a8c0
-0.3093449568148612,-0.3791908431143334,-0.1205954022113034,0.2211260657320646,-0.1728483250057872,0.2759561262002585,-0.3683957615112221,-0.3850946088978344,-16.898971721610945,27.40841878373489,13.228049475613926,0.2905950230536177,-1.4542349372405554,0.8759744839329936,4616.291666666667,11.957,0.16,179.22981466430792,0.9919842435120616,88.99345574033117,1449.0,1435.0,1200.0,1528.0,1386.0,993.0,107.0,294.2,1649339812.1277816,1649339813.2342892,2468d84f-c7b3-4c17-97ae-5eced405a8c0
-0.5665861076323268,-0.8129007293679529,-0.1414492358870696,0.4948950506492613,-0.0934038967834184,0.4490061047930931,-0.3177469750164621,-0.3468581933805421,-17.348424962673455,29.458986974202148,13.347072442281052,0.0742534869942876,-3.1137785494387287,0.6730147491874067,4619.331651475694,11.910222222222224,0.14,179.38907646191484,1.0132056175473565,88.6601857666993,1342.0,1435.0,1200.0,1528.0,1293.0,993.0,107.0,294.2,1649339815.1766732,1649339816.3126194,c39e06c0-014a-48da-8215-c18a90fbdc1d
-0.5672566913434092,-0.8039070168655763,-0.1336915045404923,0.4877947553146253,-0.0891568676840486,0.4461396892554286,-0.3103442578935295,-0.332828532255047,-17.17633015616234,29.43924183584736,13.32056418197334,0.0841665881370386,-3.0796640998496576,0.6472326587149417,4619.055013020833,11.915333333333333,0.1433333333333333,179.40305102895664,1.0134793705806533,88.50853052309805,1342.0,1435.0,1200.0,1528.0,1293.0,993.0,107.0,294.2,1649339816.4247067,1649339817.5420244,c39e06c0-014a-48da-8215-c18a90fbdc1d
-0.5573951661759273,-0.7972669221596437,-0.1312326982062329,0.4875449301071132,-0.0859617343615256,0.4435888424040002,-0.3084245479726675,-0.3320922051850766,-17.27998629663885,29.272764986731804,13.869220190672918,0.0780521572006517,-3.0587049685383727,0.6383668185784334,4597.582845052083,11.912333333333333,0.14,179.42443407451825,1.0160098845203391,88.34994036075953,1342.0,1435.0,1200.0,1528.0,1293.0,993.0,107.0,294.2,1649339817.650923,1649339818.770786,c39e06c0-014a-48da-8215-c18a90fbdc1d
-0.7888649014576629,-1.191386191759746,-0.1544007026612057,0.7277715875807776,-0.0221642577497349,0.6088810876826937,-0.2666248367248153,-0.2975111285347774,-17.55462049228947,31.42083317839057,13.964072265415709,-0.0794435131408482,-4.566798071719293,0.4770169796212619,4593.47607421875,11.814666666666666,0.1122222222222222,179.5659844326974,1.012566093654445,87.98182731544169,1227.0,1435.0,1200.0,1528.0,1189.0,993.0,107.0,294.2,1649339820.706174,1649339821.8542156,184c72e2-842b-4d23-9b00-47fbf27b4c4b
-0.7734940686673039,-1.1936872155221363,-0.1575169439355107,0.7304276239677877,-0.0254251345215989,0.6083288424928149,-0.2715030036885398,-0.2950128759154472,-17.622689562500327,31.57055231684517,13.880577159756928,-0.0858860847676864,-4.574728547548836,0.4921697138297968,4591.289008246527,11.818444444444443,0.1188888888888888,179.57547232436448,1.0241434421671265,87.72238789218811,1227.0,1435.0,1200.0,1528.0,1189.0,993.0,107.0,294.2,1649339821.9663527,1649339823.071977,184c72e2-842b-4d23-9b00-47fbf27b4c4b
-0.7969579277296569,-1.1939855900190972,-0.1569323326411919,0.7323872852430597,-0.0235109877336172,0.6075884698215046,-0.2689238360112556,-0.289519248762634,-17.524779659370523,31.39684646449837,14.00396999281313,-0.0930237691938315,-4.577841404060286,0.4853883786524509,4588.55810546875,11.822500000000002,0.1149999999999999,179.59067177199745,1.0200406744129498,87.49397536214923,1227.0,1435.0,1200.0,1528.0,1189.0,993.0,107.0,294.2,1649339823.1807368,1649339824.2979355,184c72e2-842b-4d23-9b00-47fbf27b4c4b
-0.0563771664817083,0.0959767786890702,-0.0949948891307922,-0.057718333541854,-0.2584200492120307,0.0782786337248979,-0.4300368618167098,-0.4551640261699,-16.582912817586216,25.70923440968253,14.689764055999454,0.4657946885165799,0.3486662502329116,1.1034241626940031,4585.0126953125,11.969444444444443,0.16,179.12951864871562,1.079048854589691,87.24706060855868,1553.0,1435.0,1200.0,1528.0,1471.0,993.0,107.0,294.2,1649339825.212293,1649339826.3521087,1b2bc5a0-a592-4e7a-8cb0-8e0a460af4fd
-0.0620837008993263,0.0946093143050456,-0.0995048921746173,-0.0617286860821331,-0.2628511603968271,0.0839983165438657,-0.4330084678040881,-0.4571626285368717,-16.594758425446926,25.696008600095663,14.758789585317556,0.4873867490641511,0.3432171219470251,1.1197319328146822,4584.195692274306,11.966888888888889,0.16,179.13172707654724,1.0941209476537936,87.35984828123301,1553.0,1435.0,1200.0,1528.0,1471.0,993.0,107.0,294.2,1649339826.4598072,1649339827.7829106,1b2bc5a0-a592-4e7a-8cb0-8e0a460af4fd
-0.0473966066436372,0.101394041477938,-0.0870004813949789,-0.0653971725370928,-0.2540283841347024,0.0760039092410023,-0.4215953970094098,-0.4459204914639143,-16.346235427069292,25.7231536702248,14.177925020418948,0.4785325461828479,0.3732980197512012,1.0745525093295851,4593.47607421875,11.967777777777776,0.16,179.12128447621623,1.1109731469123636,87.46196947515351,1553.0,1435.0,1200.0,1528.0,1471.0,993.0,107.0,294.2,1649339827.8920405,1649339829.011911,1b2bc5a0-a592-4e7a-8cb0-8e0a460af4fd
-0.0304140534190065,0.0914768903211053,-0.115615080334353,-0.3100640895007119,-0.3036414561079655,0.3273442621840744,-0.3791326854128535,-0.4052151524505249,-16.420045287845127,25.104341167689807,16.55823929408411,1.5900517827169875,0.3438276427068505,1.1208886412623211,4598.680121527777,11.965111111111112,0.16,179.12600793148223,1.1883025328408054,87.50358885340603,1553.0,1522.0,1200.0,1528.0,1471.0,993.0,107.0,294.2,1649339829.5954933,1649339830.8513763,d004e7d7-0484-4405-ad35-6a440b5c8a3a
-0.050907308661985,0.083261989572345,-0.1224362197992262,-0.3078460052825219,-0.3080826817880298,0.3330872077269845,-0.3837139954817374,-0.3991111219574288,-16.455764594690283,25.083069066019323,16.47734389182067,1.5974419556779793,0.3132806783901249,1.14165362431217,4593.202690972223,11.968,0.151111111111111,179.13157529456572,1.205038666315354,87.49308629919226,1553.0,1522.0,1200.0,1528.0,1471.0,993.0,107.0,294.2,1649339830.9594002,1649339832.0868428,d004e7d7-0484-4405-ad35-6a440b5c8a3a
-0.0718956629797026,0.0831957403697374,-0.1199389787867503,-0.3092422958358392,-0.3068274868183224,0.3342093983100359,-0.3816612813205034,-0.4057588005108584,-16.433912218001844,25.18399459063297,16.461059539073158,1.603915154687128,0.3133538023065547,1.133547994985035,4595.93896484375,11.966444444444445,0.16,179.14026177737014,1.211239066983616,87.51840808717523,1553.0,1522.0,1200.0,1528.0,1471.0,993.0,107.0,294.2,1649339832.1957028,1649339833.312703,d004e7d7-0484-4405-ad35-6a440b5c8a3a
-0.0517225278467844,0.0656164393290958,-0.15203393714485,-0.6079782163420707,-0.3665154975973205,0.6450794449288604,-0.3282922310630301,-0.3529065948686364,-16.53043472170971,24.756581286928643,19.185040648561312,2.972310845722076,0.2587002100608856,1.1818114398688837,4611.60400390625,11.948666666666668,0.1366666666666666,179.1263646191389,1.2946050120460104,87.53123062897706,1553.0,1613.0,1200.0,1528.0,1471.0,993.0,107.0,294.2,1649339835.2467442,1649339836.3836324,e4185450-f1d7-4fb7-8324-99a68bdd782b
-0.0444512985755923,0.0720724491497491,-0.1390561729952262,-0.6048356769316466,-0.3558913491334319,0.6331798759848991,-0.3171158375010495,-0.3410990634325256,-16.286426772556606,24.73981236249988,18.896122969595424,2.939093941489036,0.2841833367199589,1.1343168033798423,4615.73876953125,11.954,0.16,179.1245796630358,1.3276216484592251,87.48310511608514,1553.0,1613.0,1200.0,1528.0,1471.0,993.0,107.0,294.2,1649339836.4919157,1649339837.612777,e4185450-f1d7-4fb7-8324-99a68bdd782b
-0.0443066629115677,0.0767665336824725,-0.1433952430841396,-0.6061111009097364,-0.3614663973487049,0.6296560257340247,-0.3246500416285473,-0.3447938478353063,-16.40319377065955,24.842042009367404,18.83577563402577,2.9344456621887933,0.3030340045500592,1.158900024264227,4604.169270833333,11.952333333333334,0.1533333333333333,179.12866411615948,1.3492861547328592,87.455900472621,1553.0,1613.0,1200.0,1528.0,1471.0,993.0,107.0,294.2,1649339837.7213624,1649339838.8418934,e4185450-f1d7-4fb7-8324-99a68bdd782b
-0.0407828122080139,0.055491943240782,-0.1700608011592256,-0.8850871082831503,-0.4154155084522006,0.9219383676531702,-0.27100335312876,-0.2844676199939463,-16.34616079382748,24.61473497575093,21.008394895202176,4.218085058249355,0.2362354289921477,1.1905244491906828,4586.1025390625,11.928777777777778,0.1422222222222222,179.0870804066726,1.4551517271325625,87.40501252766477,1553.0,1710.0,1200.0,1528.0,1471.0,993.0,107.0,294.2,1649339840.5865047,1649339841.7160194,da8d93a4-72d6-48ca-9a3f-8a31e7faa497
-0.039652024313097,0.0626974287706211,-0.1698767193916553,-0.8884400276567489,-0.4169539062459951,0.9182830303937984,-0.2723313716354804,-0.2950391739773887,-16.32676962998007,24.597262258285987,21.04917624393855,4.217343991084669,0.2631858802891009,1.1951804103905237,4584.740234375,11.930333333333332,0.1444444444444444,179.10161201358676,1.4641943758430975,87.3076163068301,1553.0,1710.0,1200.0,1528.0,1471.0,993.0,107.0,294.2,1649339841.8298724,1649339842.937966,da8d93a4-72d6-48ca-9a3f-8a31e7faa497
-0.056127341235488,0.0580164929231305,-0.1704158159844823,-0.8830622079919229,-0.4159020103357643,0.91755985215638,-0.271818572419951,-0.2999962325347768,-16.265599287809632,24.55691756916198,20.99843393798399,4.2033162791797,0.2449493192327013,1.1932209493684376,4583.650390625,11.931,0.1466666666666667,179.09687641576224,1.467475143374427,87.24176038176273,1553.0,1710.0,1200.0,1528.0,1471.0,993.0,107.0,294.2,1649339843.0467436,1649339844.374295,da8d93a4-72d6-48ca-9a3f-8a31e7faa497
-0.0287123086878946,0.0659057106386204,-0.1445523284774047,-0.984386120131327,-0.4125490921967902,1.006155761098232,-0.2274022711416105,-0.2534366931476326,-15.905722180761131,25.246627886012952,21.688094696315115,4.637116128289131,0.2800055612206429,1.0911675092277218,4581.20068359375,11.90311111111111,0.14,179.09996214344727,1.5089134741820711,87.12105500202057,1553.0,1814.0,1200.0,1528.0,1471.0,993.0,107.0,294.2,1649339845.2823956,1649339846.416547,6d99b43d-c649-45c2-b564-ea433bd1c235
-0.035681117901023,0.0578455598637757,-0.1516131789149805,-0.97319657256985,-0.4155338468603416,1.002079665488664,-0.2358831812683839,-0.2592221200142367,-16.10637288551806,25.24978023620595,21.392087167783803,4.602236845693676,0.2519935192934576,1.1154963040891068,4578.210883246527,11.894555555555556,0.13,179.09329284317766,1.4770168583550984,87.01751540548243,1553.0,1814.0,1200.0,1528.0,1471.0,993.0,107.0,294.2,1649339846.5249264,1649339847.5644026,6d99b43d-c649-45c2-b564-ea433bd1c235
-0.031046202329971,0.0629669770404738,-0.150206268290992,-0.9776704199335482,-0.4158784523378842,1.0026330065592024,-0.2347962221888058,-0.2466711406196878,-16.071554949435214,25.253981958848204,21.60769807730908,4.613721985087448,0.2696846489164249,1.1134074866586308,4571.969346788194,11.89611111111111,0.1377777777777778,179.11570952403366,1.514639354572527,86.97546041294284,1553.0,1814.0,1200.0,1528.0,1471.0,993.0,107.0,294.2,1649339847.673879,1649339848.672703,6d99b43d-c649-45c2-b564-ea433bd1c235
-0.0719978182764378,0.1037476580642095,-0.0621757417648182,0.2641091515440806,-0.1997242626106276,-0.2407744967197078,-0.4912835033321397,-0.5213019855934558,-16.53156037189867,26.882627251531225,12.4225205295862,-0.968047079304254,0.3600194418488922,1.0660631098248177,4572.240397135417,11.967999999999998,0.16,179.08004682964733,1.108898963128632,86.93259186898212,1553.0,1349.0,1200.0,1528.0,1471.0,993.0,107.0,294.2,1649339849.7881048,1649339850.9273093,2d50ec68-b448-4d29-a173-d32717862533
-0.0588359727811437,0.1061407207467865,-0.0681058040000815,0.2597306359531351,-0.2053256077524104,-0.239630559995068,-0.4981339757886933,-0.5301379110956772,-16.71719804817258,26.86069081363802,12.297425424236646,-0.9561537252794108,0.3715802771131519,1.0914832013311837,4580.385091145833,11.965,0.16,179.08624864141368,1.109682371596871,87.09131863510405,1553.0,1349.0,1200.0,1528.0,1471.0,993.0,107.0,294.2,1649339851.0359118,1649339852.3633463,2d50ec68-b448-4d29-a173-d32717862533
-0.0622414852581871,0.0984355848591362,-0.0689867666940929,0.2644510176386488,-0.2048917007449715,-0.2368298873873384,-0.4972267155235357,-0.5146881888207246,-16.628286886866807,26.891160110262955,12.23953034487966,-0.9603146191688086,0.3419286525177824,1.0898783912746175,4578.482204861111,11.967,0.1588888888888889,179.09861583727084,1.1109101692479852,87.2215824851347,1553.0,1349.0,1200.0,1528.0,1471.0,993.0,107.0,294.2,1649339852.4711983,1649339853.5487206,2d50ec68-b448-4d29-a173-d32717862533
-0.0771389587620425,0.1140956818367291,-0.0416243287650738,0.5483970907343989,-0.1554525984333049,-0.5258645835580672,-0.5583155751690166,-0.5786829120475052,-16.880714545978318,28.005443821058872,10.361373073084051,-2.242004214437506,0.3858899098873602,1.0733217638979076,4580.656955295139,11.959222222222223,0.1577777777777777,179.10469925909163,1.028043883354092,87.53081778198722,1553.0,1264.0,1200.0,1528.0,1471.0,993.0,107.0,294.2,1649339855.6770923,1649339856.66521,11b580c8-6540-449d-9227-34dae91e5fff
-0.0806102147303568,0.1154762949152709,-0.0430049419265091,0.5466220169086256,-0.157030442114958,-0.525746245282172,-0.559590999077032,-0.585191518794795,-16.88088290839815,27.977767510580765,10.328263604609685,-2.237991738389586,0.3914932450461167,1.0792847370894754,4581.474175347223,11.954444444444444,0.15,179.11069009390363,1.0323607763529516,87.63939198685357,1553.0,1264.0,1200.0,1528.0,1471.0,993.0,107.0,294.2,1649339856.7731812,1649339857.896829,11b580c8-6540-449d-9227-34dae91e5fff
-0.0820171253031382,0.1056542189987115,-0.045305963857483,0.5472005594919979,-0.1586082857971257,-0.515319326304761,-0.5592228354797514,-0.5849022473280998,-16.849002004300583,28.10374700336433,10.508912929756429,-2.2151007072160653,0.3526127860079047,1.0830881581120229,4586.1025390625,11.942,0.14,179.11688887003035,1.0404938359651117,87.71308441562866,1553.0,1264.0,1200.0,1528.0,1471.0,993.0,107.0,294.2,1649339858.0101154,1649339859.1242669,11b580c8-6540-449d-9227-34dae91e5fff
-0.0719320747690723,0.1131489757271698,-0.0251621605842679,0.7937122930087369,-0.1201351978177327,-0.7621730361184548,-0.6160646672204103,-0.6394036112594944,-17.04624752899248,29.28865249890713,8.576879671504237,-3.3174333857496565,0.370188532084083,1.0838779530940137,4591.015625,11.926333333333336,0.1466666666666666,179.09056532096915,0.9482296485180712,87.8573744385749,1553.0,1178.0,1200.0,1528.0,1471.0,993.0,107.0,294.2,1649339860.233663,1649339861.374143,6d25f4bc-3273-4f9e-9239-ccd5ed5389ab
-0.1002149218389887,0.1137669644385867,-0.0230057743500428,0.7878742724329934,-0.1192936812322943,-0.7565848379042238,-0.6125013694114163,-0.6352617704226337,-17.005140055482666,29.314142686769205,8.714553189217957,-3.291387824535164,0.371851140954942,1.0749550589847645,4588.831163194444,11.926,0.1411111111111111,179.0900659582498,0.9392526573725264,87.93490771039325,1553.0,1178.0,1200.0,1528.0,1471.0,993.0,107.0,294.2,1649339861.482104,1649339862.6003444,6d25f4bc-3273-4f9e-9239-ccd5ed5389ab
-0.075955576044174,0.1166859749496878,-0.0231635587032801,0.7861649420652538,-0.1192936812133974,-0.7573737599225321,-0.6122120979850354,-0.62742514472463,-17.000740993057732,29.209875488166773,8.786924983574018,-3.2899901127335283,0.382325324409898,1.0752444321285444,4583.650390625,11.924222222222223,0.14,179.10405722130963,0.937307749148398,87.98607796983518,1553.0,1178.0,1200.0,1528.0,1471.0,993.0,107.0,294.2,1649339862.7089405,1649339863.750532,6d25f4bc-3273-4f9e-9239-ccd5ed5389ab
-0.092969989832116,0.1282042326146401,-0.0047422348556059,0.945540275772192,-0.095836405794942,-0.921916627481441,-0.6500409101119513,-0.6841091949999947,-17.011454058477263,30.515276401170933,7.773461565381008,-4.009847637226906,0.4161513564503495,1.0728631257318797,4604.443142361111,11.903888888888888,0.1355555555555555,179.1027002903945,0.8742195151538605,88.06964761105999,1553.0,1088.0,1200.0,1528.0,1471.0,993.0,107.0,294.2,1649339864.7367926,1649339865.8776925,272e362d-59b8-4afd-9f82-e244e1a0a16c
-0.0934564916015262,0.1251931812308517,-0.0092259404335365,0.942331994066116,-0.0986239295965491,-0.9159339669768436,-0.6531965984233357,-0.6770483424980702,-17.186471724882505,30.461795944383063,7.756731245560053,-3.9898352561181087,0.4063549536074631,1.0867481365668494,4617.120496961806,11.910222222222222,0.1377777777777778,179.1011763992997,0.8702186844156565,88.11657328738771,1553.0,1088.0,1200.0,1528.0,1471.0,993.0,107.0,294.2,1649339865.9863143,1649339867.1072066,272e362d-59b8-4afd-9f82-e244e1a0a16c
-0.0908136035040561,0.1310180535404073,-0.0116453005425551,0.9370725159951168,-0.1036335830819523,-0.9154080191805406,-0.6569965729667503,-0.678100238336244,-17.160888612855878,30.55057739473856,7.929100035563669,-3.9762808577966258,0.4269886805156092,1.1031629328068115,4623.20703125,11.902666666666669,0.13,179.11170855099988,0.8430731292025967,88.18085751003605,1553.0,1088.0,1200.0,1528.0,1471.0,993.0,107.0,294.2,1649339867.2208786,1649339868.3358462,272e362d-59b8-4afd-9f82-e244e1a0a16c
-0.0806698895348501,0.0894034420910037,-0.0940208741090311,-0.0327656472505898,-0.2547763427446867,0.0599705914414958,-0.4318286249321764,-0.4574053734937028,-16.323118857337825,25.731415360227363,14.433309119110872,0.3686523590548261,0.3214363510490307,1.098918984659987,4618.22509765625,11.968,0.16,179.10631118373576,1.1847379685778685,88.2274447125449,1553.0,1435.0,1200.0,1528.0,1471.0,993.0,107.0,294.2,1649339869.2450848,1649339870.3824704,4e35f743-d6e4-4bb4-8d2c-6aff460206c3
-0.0481900798785641,0.0869380615766176,-0.0943495915461916,-0.0302749806875058,-0.2532844712616277,0.0598568046546454,-0.4321194134655269,-0.4551675667961395,-16.443210808890697,25.685218311440643,14.398603874787442,0.3623897342040784,0.3130189714286352,1.0973586560810362,4622.653211805556,11.96922222222222,0.15,179.10085006803936,1.1804906937050803,88.21252302593813,1553.0,1435.0,1200.0,1528.0,1471.0,993.0,107.0,294.2,1649339870.491274,1649339871.6093323,4e35f743-d6e4-4bb4-8d2c-6aff460206c3
-0.0687222755910908,0.089289655292412,-0.0954116016742298,-0.0299209773139428,-0.2563567150836628,0.0580615018999361,-0.435785877628102,-0.4519183208841064,-16.44567204274924,25.87103340206364,14.49679391859872,0.3587502271322051,0.3208782818778755,1.1085592159367883,4619.608289930556,11.967888888888888,0.1455555555555555,179.10167272637938,1.1806182024275542,88.2068714238549,1553.0,1435.0,1200.0,1528.0,1471.0,993.0,107.0,294.2,1649339871.7201767,1649339872.8391063,4e35f743-d6e4-4bb4-8d2c-6aff460206c3
-0.005478561844544,0.1204596506911662,0.0698897655659608,-0.0456609786558519,-0.1082356269769374,0.0336519586850569,-0.2671639333304181,-0.2931194634132317,-15.293894562669244,25.747340004832854,14.5889361510474,0.3474097004904589,0.4412311222196346,0.4460270130121313,4622.376302083333,11.968333333333334,0.1566666666666666,179.07732386089822,1.1748343721508594,88.1508357929942,1553.0,1435.0,1200.0,1424.0,1471.0,993.0,107.0,294.2,1649339874.773946,1649339875.9166882,02f91290-89e9-4ef7-8a12-de0ea7118131
-0.0170888608912423,0.1103614521712184,0.0682330298542694,-0.0422817635914082,-0.1090114001012403,0.0394899798742201,-0.2659936992103774,-0.2923568389007514,-15.137302316145712,25.82041124377633,14.451129233065956,0.3533645933574755,0.4029499532554029,0.4463686937873544,4616.015028211806,11.967333333333334,0.151111111111111,179.0809605571763,1.1620615745218836,88.15168273645129,1553.0,1435.0,1200.0,1424.0,1471.0,993.0,107.0,294.2,1649339876.0252466,1649339877.1400926,02f91290-89e9-4ef7-8a12-de0ea7118131
-0.01495877203409,0.1104929391293384,0.0712835273756506,-0.037719165857483,-0.1043567613578375,0.0354533301021636,-0.2640871380147451,-0.2864530734540975,-15.26122540688,25.76491837139995,14.513245565732154,0.3337331471224549,0.4034003616898303,0.4332358444691941,4615.73876953125,11.967222222222222,0.1555555555555555,179.0898306961784,1.149952159016045,88.15964901375325,1553.0,1435.0,1200.0,1424.0,1471.0,993.0,107.0,294.2,1649339877.2488692,1649339878.3691208,02f91290-89e9-4ef7-8a12-de0ea7118131
0.0319557768946867,0.141550158985186,0.2666731471843798,-0.0506574834033415,0.0704946056030024,0.0083012720700913,-0.0655286594316226,-0.0916419714417167,-13.863694221499625,25.82574332031608,14.794018437587908,0.3127850747542466,0.5214846291077678,-0.3489677128277285,4616.843804253473,11.965666666666667,0.15,179.04105555640547,1.156336571621009,88.0724578544485,1553.0,1435.0,1200.0,1304.0,1471.0,993.0,107.0,294.2,1649339879.279584,1649339880.4180546,fd525d91-b9ab-4049-80e3-575bb1a7961b
0.0515473343375577,0.1436145042417858,0.2651873445760179,-0.0510387956220294,0.067312621100551,0.0043698118255051,-0.0685660084092265,-0.0912606594578501,-13.775604526818128,25.9149503497964,14.45400370025033,0.3053182285103701,0.5315715123920065,-0.3384920118077065,4618.501736111111,11.960777777777777,0.15,179.0274938363534,1.152265043681708,88.07907934339386,1553.0,1435.0,1200.0,1304.0,1471.0,993.0,107.0,294.2,1649339880.525934,1649339881.64211,fd525d91-b9ab-4049-80e3-575bb1a7961b
0.0451176218788964,0.1413660772379888,0.2666205524006494,-0.0489875989357766,0.0697845760057977,0.0070126998056169,-0.0660020125209788,-0.0982294686468445,-13.785494735833977,25.8802463015,14.800690290213662,0.3065217457276648,0.5199735930236686,-0.3472208848298349,4617.950358072917,11.960111111111113,0.15,179.04204062146573,1.1503482862719716,88.1079680079434,1553.0,1435.0,1200.0,1304.0,1471.0,993.0,107.0,294.2,1649339881.7503574,1649339882.8747642,fd525d91-b9ab-4049-80e3-575bb1a7961b
0.1166991236176783,0.1826792795326515,0.468518768331816,-0.0426236297509349,0.2486988803946888,-0.0504208068919314,0.126402861271976,0.1101510728975074,-12.484235776939602,26.29340421553835,14.729885136325825,0.1765412230569777,0.6783635094792203,-1.1343664007790366,4615.73876953125,11.945222222222222,0.1444444444444445,178.99617362445937,1.1345120420785393,88.05245602491908,1553.0,1435.0,1200.0,1166.0,1471.0,993.0,107.0,294.2,1649339883.7853072,1649339884.925782,80d363f2-b4f6-4d98-aa1e-f6ed23004a61
0.1245357464184811,0.1801152838575786,0.469741596974571,-0.0427682653689168,0.2500268986486666,-0.0478568110014726,0.1286512882716983,0.0991324652580434,-12.450597286223804,26.310696948165088,14.73128123778416,0.1828218063138799,0.6685921300505905,-1.1413364565587991,4608.844672309027,11.948777777777778,0.14,178.98661439526097,1.1335931089019244,88.05537251569466,1553.0,1435.0,1200.0,1166.0,1471.0,993.0,107.0,294.2,1649339885.0343497,1649339886.152283,80d363f2-b4f6-4d98-aa1e-f6ed23004a61
0.1089282442782396,0.1726731220486651,0.4645873084940086,-0.0415585852854909,0.2467660221405953,-0.0421634253418906,0.1263502664574362,0.1049967837027105,-12.411265989824525,26.264333947241973,14.634078349209078,0.1923271707699307,0.6407861497710533,-1.12757345583199,4618.22509765625,11.949,0.14,178.9857560681553,1.126422098035515,88.08236542329456,1553.0,1435.0,1200.0,1166.0,1471.0,993.0,107.0,294.2,1649339886.2610264,1649339887.380145,80d363f2-b4f6-4d98-aa1e-f6ed23004a61
-0.1525072902367261,0.0509950891220963,-0.3078723026460235,0.004843164905707,-0.4486028250380948,0.0743603222614609,-0.6594027851325843,-0.683688436183651,-17.852356127866493,26.356193645561497,14.35335400496268,0.308862572466384,0.1707369867996471,1.972681532244376,4614.911295572917,11.967666666666666,0.15,179.122726405041,1.140243341560055,88.24536561110718,1553.0,1435.0,1200.0,1623.0,1471.0,993.0,107.0,294.2,1649339888.2912848,1649339889.4289217,1cc6034b-af8b-4456-bcd1-f72ee2faa0e2
-0.1409232879735769,0.0569777459129903,-0.3007062621254642,0.0038175665703932,-0.4423571929170098,0.069955509052472,-0.6522104457127516,-0.6804407072577774,-17.75194815479107,26.239189102689856,14.48231885835216,0.300930151901122,0.1919004895420429,1.945181336271532,4620.71484375,11.966111111111111,0.15,179.12031458935408,1.138664144905705,88.21313850187335,1553.0,1435.0,1200.0,1623.0,1471.0,993.0,107.0,294.2,1649339889.537669,1649339890.6628597,1cc6034b-af8b-4456-bcd1-f72ee2faa0e2
-0.1266832489566326,0.0459985845413777,-0.2984972808363968,0.007564945059482,-0.4377419995181805,0.0768191284451232,-0.6485288094314451,-0.6745106427396501,-17.896000682814364,26.33198320218911,14.441656007976452,0.3085465949135784,0.1517821501832727,1.929150528280364,4625.980740017361,11.968666666666667,0.14,179.12258372997837,1.1421760597937896,88.18012743870476,1553.0,1435.0,1200.0,1623.0,1471.0,993.0,107.0,294.2,1649339890.7708924,1649339891.886577,1cc6034b-af8b-4456-bcd1-f72ee2faa0e2
-0.1927423042466326,0.0250395626049473,-0.4951097749273052,0.055846957998763,-0.6173795372942887,0.0617375739081836,-0.8689667981717719,-0.9032717661597428,-19.469813404477744,27.04467302943639,14.093003154378176,0.1598306589969823,0.0690055897577203,2.7516869943901736,4629.311577690973,11.941,0.1322222222222222,179.12731477434343,1.1255267029240086,88.12755471375327,1553.0,1435.0,1200.0,1712.0,1471.0,993.0,107.0,294.2,1649339894.2314465,1649339895.5717063,9d823a40-4702-460a-a748-0ca89017e5ec
-0.2096383805669352,0.0240665590720123,-0.4918620461690489,0.0552947127747564,-0.6137504959459609,0.0648275175331006,-0.8641017780773557,-0.880182642634194,-19.43862532386884,26.990305722658,14.356006047445128,0.1678788360543275,0.0630774652133112,2.735682835725324,4625.7021484375,11.943,0.14,179.12791734881023,1.1131171741235455,88.06951024836668,1553.0,1435.0,1200.0,1712.0,1471.0,993.0,107.0,294.2,1649339895.6799915,1649339896.802565,9d823a40-4702-460a-a748-0ca89017e5ec
-0.202958842248442,0.015533055117109,-0.4986467751031393,0.0586344816002964,-0.6183262437230667,0.0696399403381629,-0.8691771774097699,-0.8976835663262573,-19.469490706553746,27.00689372149327,14.243060770089937,0.1708978811062753,0.0314500944491331,2.757198825476913,4623.761501736111,11.937333333333337,0.1322222222222222,179.12660291684995,1.1177225833250015,88.01526033251899,1553.0,1435.0,1200.0,1712.0,1471.0,993.0,107.0,294.2,1649339896.9109917,1649339898.0299911,9d823a40-4702-460a-a748-0ca89017e5ec
-0.2621411307508825,-0.0057415357586458,-0.6503038843292608,0.117751019316677,-0.7550201424652024,0.0431453174337253,-1.0441864288901397,-1.0699447430818805,-20.65782621556948,27.73950262427685,13.99191773088327,-0.0253246697233329,-0.0545862737422231,3.395740263999265,4611.049533420139,11.934555555555557,0.1355555555555555,179.14172950913178,1.106987423224511,87.95552198021824,1553.0,1435.0,1200.0,1801.0,1471.0,993.0,107.0,294.2,1649339899.1458187,1649339900.300223,499001d5-e00b-4e3a-aec2-a5fde0d49d59
-0.2643106658749357,-0.0018889676782584,-0.6453073777709741,0.1169883949437826,-0.7506810706639763,0.0397003589979414,-1.040412750286452,-1.0706021777292538,-20.6929882927444,27.72641874075225,13.973105312740074,-0.0312042980440216,-0.039310773211206,3.378060309942025,4613.25439453125,11.932,0.135,179.1322363050954,1.1079501715903328,87.92080071357249,1553.0,1435.0,1200.0,1801.0,1471.0,993.0,107.0,294.2,1649339900.411864,1649339901.5130205,499001d5-e00b-4e3a-aec2-a5fde0d49d59
-0.2482166597238242,0.0036729309248796,-0.6339863463377118,0.1147794140038129,-0.741371789730322,0.0356242631295852,-1.030577518887176,-1.054928920963227,-20.673302447314896,27.757833207385467,13.960185150652284,-0.0346010980294999,-0.0174848937188125,3.3365819195624784,4610.77294921875,11.934333333333331,0.1333333333333333,179.13617277078706,1.119438194035275,87.86205084142662,1553.0,1435.0,1200.0,1801.0,1471.0,993.0,107.0,294.2,1649339901.6210887,1649339902.7372606,499001d5-e00b-4e3a-aec2-a5fde0d49d59
-0.0950575982724193,0.0735617918520105,-0.1432399873495356,-0.0216777560265902,-0.2748533930973277,0.0759766004434138,-0.4562548623008826,-0.4801500948357215,-16.672532098213537,23.32409432132179,15.700096069875174,0.3612252745667526,0.2487398786006552,1.2288442055172164,7545.26953125,11.663111111111112,7.595555555555555,179.00075744030235,0.8414795784788189,76.58770498311652,1553.0,1435.0,1350.0,1528.0,1471.0,993.0,107.0,294.2,1649339907.1091564,1649339908.2701428,23a1ce21-5cb5-4c9b-b207-c923a6d62f14
-0.0626030743919517,0.0757490268852243,-0.1447950736686836,-0.0242316374825081,-0.272274225430481,0.0695286821441794,-0.4543078433779851,-0.4731585267881532,-16.686530001241287,22.78102485357657,14.76250341506722,0.3486628621577052,0.265558916751317,1.2238118675960965,7543.794813368056,11.66022222222222,7.564444444444444,178.98954530532484,0.7711863012516953,71.14701231126567,1553.0,1435.0,1350.0,1528.0,1471.0,993.0,107.0,294.2,1649339908.3789928,1649339909.4999423,23a1ce21-5cb5-4c9b-b207-c923a6d62f14
-0.0625272165423504,0.0743077275017474,-0.1402688875347691,-0.018466439764366,-0.2682284722256862,0.0703631186267691,-0.4526516129932253,-0.4807822439114882,-16.831864716150662,23.024860914383435,15.456284461993109,0.3394123062548621,0.2546140993586116,1.210426554884409,7545.26953125,11.660666666666666,7.586666666666667,178.95713074534376,0.7383133715442989,66.88185439054683,1553.0,1435.0,1350.0,1528.0,1471.0,993.0,107.0,294.2,1649339909.6082828,1649339910.7270367,23a1ce21-5cb5-4c9b-b207-c923a6d62f14
0.1363827214707573,0.4615105138502899,-0.1420277786237654,-0.2462049089220839,-0.3620580888267566,-0.0991893234467149,-0.5290991637585143,-0.5597487841485398,-16.501308099139898,21.80523392018301,15.186441941848589,0.4640782636764349,1.7348192661290174,1.4946743498716413,7542.320095486111,11.629111111111111,7.608888888888889,178.74193880535336,0.8069159220055475,59.380783549687926,1658.0,1435.0,1350.0,1528.0,1551.0,993.0,107.0,294.2,1649339912.6609066,1649339914.0121052,dd5df8b1-5fe2-45fd-9726-81bc65c38037
0.11976276980561,0.4580918531235641,-0.1364395823299866,-0.2378028910788631,-0.3561937692812786,-0.0971775728223596,-0.5249704719891487,-0.5447592656847057,-16.566755266621964,21.995231206726945,16.13101145939314,0.4513014374355192,1.7134117488787728,1.4740597268124211,7545.26953125,11.633,7.63,178.76099503313768,0.8342025929585686,57.26478752972339,1658.0,1435.0,1350.0,1528.0,1551.0,993.0,107.0,294.2,1649339914.124889,1649339915.2416174,dd5df8b1-5fe2-45fd-9726-81bc65c38037
0.1479272764379006,0.4625492607639698,-0.1385170764812086,-0.2477696040503185,-0.3587183194243717,-0.0984004016507696,-0.5245234162039817,-0.5453246597844957,-16.450474744909698,21.74155891783409,15.270032588259248,0.4691722584401114,1.7380286782032457,1.4791166489094285,7551.91748046875,11.632666666666667,7.596666666666668,178.7452309565333,0.853792144680596,55.43595201466884,1658.0,1435.0,1350.0,1528.0,1551.0,993.0,107.0,294.2,1649339915.3501043,1649339916.4621418,dd5df8b1-5fe2-45fd-9726-81bc65c38037
0.3593057061640209,0.8572336388298235,-0.1288527840763457,-0.4748870751564725,-0.4494048957941419,-0.2663881601748173,-0.5985111520040272,-0.6294368964572449,-16.219448101767252,21.340465158030483,16.3893177545447,0.6021197373703165,3.235348600290143,1.7424746160871547,7551.91748046875,11.593,7.62,178.42606987699693,0.9460687118455068,53.51770818501396,1767.0,1435.0,1350.0,1528.0,1630.0,993.0,107.0,294.2,1649339917.0963123,1649339918.0619404,e34b0c8f-b7f2-4f37-982d-a2030a095eeb
0.3583590001023352,0.8570890031815993,-0.1279981187417735,-0.4781479525840816,-0.4492339626593982,-0.2654809000246021,-0.5974066611479933,-0.6304493465986534,-16.209984558452035,21.363634246954103,16.078682250966587,0.6116656065529695,3.2379483606337653,1.739017128870444,7545.26953125,11.6,7.657777777777779,178.4553440677796,0.9956083110549554,52.49934709087761,1767.0,1435.0,1350.0,1528.0,1630.0,993.0,107.0,294.2,1649339918.171218,1649339919.1259868,e34b0c8f-b7f2-4f37-982d-a2030a095eeb
0.3589264168788083,0.8624835082081711,-0.1226951480715529,-0.4790122267018736,-0.4444336760212148,-0.268177900246433,-0.5928496250246543,-0.6222192710980896,-16.235088646503463,21.296086954689883,16.37227712785992,0.6074051149430773,3.2561980360404728,1.7198315978042242,7545.26953125,11.596666666666668,7.641111111111112,178.46192229886023,1.028189392470941,51.60902434346738,1767.0,1435.0,1350.0,1528.0,1630.0,993.0,107.0,294.2,1649339919.2340746,1649339920.3528214,e34b0c8f-b7f2-4f37-982d-a2030a095eeb
0.4639035763329541,1.0572121453592052,-0.119490911787027,-0.60035197014363,-0.496582429355829,-0.3648456128907182,-0.640402912372266,-0.6703688030583294,-16.344347578483138,21.721958667097592,13.696312117625732,0.6663937322978658,4.026189011178205,1.872670968396328,7545.26953125,11.527111111111113,7.625555555555555,178.21126953451892,1.144547214510809,49.92120339619709,1886.0,1435.0,1350.0,1528.0,1710.0,993.0,107.0,294.2,1649339922.2890155,1649339923.4324682,5437e03a-087b-4399-be95-6f915228e140
0.4647582415140268,1.067402384389058,-0.1039097057403403,-0.6035865504735451,-0.4879568824205356,-0.3638857579146348,-0.6297787620784097,-0.6425067048428997,-16.294785026636998,22.179719769281288,14.92311862339924,0.6798779776062243,4.0545784312658055,1.827338984292464,7545.26953125,11.5325,7.62,178.22601192865997,1.1945675090345405,49.38242137844851,1886.0,1435.0,1350.0,1528.0,1710.0,993.0,107.0,294.2,1649339923.5453997,1649339924.650327,5437e03a-087b-4399-be95-6f915228e140
0.4381847286965149,1.021316206754008,-0.110299972510353,-0.5675854089421353,-0.4820794137309064,-0.3499481374384856,-0.6318957028819545,-0.6571280602093033,-16.575702888686905,22.46425049417833,15.163018543004007,0.6314527472997623,3.876756491135042,1.825822726632647,7545.26953125,11.532333333333334,7.613333333333334,178.23003889435813,1.2125100987835384,48.9829315824485,1886.0,1435.0,1350.0,1528.0,1710.0,993.0,107.0,294.2,1649339924.757905,1649339925.886061,5437e03a-087b-4399-be95-6f915228e140
-0.3143940569591324,-0.3801506981142201,-0.1609356052751633,0.2271613169814224,-0.1820524132397664,0.2682378419396428,-0.3798877241615092,-0.3966128690858611,-16.831982227715567,24.09761273977184,12.627470318100904,0.2356185385308987,-1.456342765801595,0.960356403072848,7541.582736545139,11.638555555555554,7.652222222222223,179.30888548759944,1.2437823333418534,48.360677063943285,1449.0,1435.0,1350.0,1528.0,1386.0,993.0,107.0,294.2,1649339926.7931206,1649339927.931031,a29e554b-16fb-48c4-9833-86f3e3667b69
-0.3103968526697148,-0.3807423895611198,-0.1579639997053145,0.2372989612807771,-0.1787389415098347,0.2604143681105944,-0.3804136721252273,-0.3944038882277494,-16.880140751439598,24.23152097065383,12.767927883319937,0.1962039143606045,-1.4605234921931254,0.9526683063911682,7545.26953125,11.644222222222222,7.680000000000001,179.27375403014852,1.2516855736895969,48.06775149991886,1449.0,1435.0,1350.0,1528.0,1386.0,993.0,107.0,294.2,1649339928.0392847,1649339929.1661465,a29e554b-16fb-48c4-9833-86f3e3667b69
-0.3473229491464878,-0.3779442453294011,-0.1543784510586816,0.2375032718103661,-0.1755554395504652,0.263800662932229,-0.3787913249771834,-0.4009291822754373,-17.09606261776422,24.34772628088649,13.685067223217276,0.2043388796441014,-1.4564249705756471,0.9425701066458008,7551.91748046875,11.640555555555556,7.678888888888888,179.24844286690424,1.283610292899092,47.794786025378926,1449.0,1435.0,1350.0,1528.0,1386.0,993.0,107.0,294.2,1649339929.2746613,1649339930.389822,a29e554b-16fb-48c4-9833-86f3e3667b69
-0.5708331377730214,-0.8173318421055299,-0.176582555151742,0.5045067467267539,-0.0976772233714422,0.4455217005850047,-0.3229275621713748,-0.344622914726528,-17.184479557277736,26.236832299260108,13.375417702812198,0.0217195209804376,-3.135274821150922,0.7351269809466981,7545.26953125,11.596666666666668,7.652222222222223,179.4213559359323,1.2917640565221735,47.38510976114176,1342.0,1435.0,1350.0,1528.0,1293.0,993.0,107.0,294.2,1649339932.0992055,1649339933.2567425,ada9ba85-6747-4e43-b3d9-c1634c739d76
-0.5671777991341748,-0.8170294219431595,-0.1753860236991663,0.5122644768030838,-0.0963623536738388,0.4399598025447311,-0.3245054059861688,-0.3491460669810904,-17.21873727459666,26.342923599921946,13.639676485227517,-0.0074905937067203,-3.1371177025576147,0.7343614182028425,7545.26953125,11.592666666666666,7.652222222222223,179.4271008839342,1.303028663005046,47.28718761574101,1342.0,1435.0,1350.0,1528.0,1293.0,993.0,107.0,294.2,1649339933.365139,1649339934.4857576,ada9ba85-6747-4e43-b3d9-c1634c739d76
-0.569557713849695,-0.8151754549101443,-0.17304555556413,0.5055980884137721,-0.0938509525537825,0.4410642929273911,-0.3204687555985323,-0.3387060006758466,-17.236903800592685,26.1917762058254,13.208994016696083,0.0090658500970065,-3.12525190798704,0.7216109217817243,7545.26953125,11.594444444444443,7.66,179.4142935203305,1.2962310239552963,47.1633881603048,1342.0,1435.0,1350.0,1528.0,1293.0,993.0,107.0,294.2,1649339934.5935917,1649339935.7139914,ada9ba85-6747-4e43-b3d9-c1634c739d76
-0.7919942927818565,-1.2224039917871186,-0.190822594480193,0.7647457178954425,-0.0191269089014062,0.6009392759171509,-0.2728967657020326,-0.2882149989426147,-17.586711256172944,28.284057509896616,13.22869367974808,-0.2034354130772419,-4.683303366319603,0.5282557369918116,7545.26953125,11.505333333333333,7.613333333333334,179.53957740354633,1.3197014037863606,47.038800197474416,1227.0,1435.0,1350.0,1528.0,1189.0,993.0,107.0,294.2,1649339937.648392,1649339938.7900708,f1659ee4-ef38-4b8f-95ae-c712e5fd8777
-0.7905479353634048,-1.21642133003243,-0.1831569038756046,0.7624841423592932,-0.0154978686426976,0.6020832123774867,-0.2665327958815284,-0.3012059127899393,-17.4246844614695,28.46907666518158,13.979058100652855,-0.1939538876516704,-4.667894443997451,0.5056025056016575,7540.108018663194,11.503666666666668,7.622222222222224,179.52152293684028,1.3090976418216216,47.023587468918016,1227.0,1435.0,1350.0,1528.0,1189.0,993.0,107.0,294.2,1649339938.8987854,1649339940.016467,f1659ee4-ef38-4b8f-95ae-c712e5fd8777
-0.8086142524019584,-1.2232455090464394,-0.197199712788939,0.7622080197679305,-0.0270687216429585,0.6043973826956369,-0.2801416982958424,-0.308174722928123,-17.583374906545302,28.45944037721267,13.216311627602249,-0.1890953582125161,-4.686462295687871,0.5578695421563946,7539.370659722223,11.507,7.611111111111111,179.52046956988826,1.313482706274541,46.998652724988034,1227.0,1435.0,1350.0,1528.0,1189.0,993.0,107.0,294.2,1649339940.124719,1649339941.260847,f1659ee4-ef38-4b8f-95ae-c712e5fd8777
-0.0661992429961713,0.0878640332132898,-0.1419751838217285,-0.0351551700648768,-0.2705431487561748,0.0663527663036899,-0.4503778994339798,-0.4713895211337523,-16.657663150548615,22.46892524836905,14.598266732625138,0.3642267846920151,0.3137672630861559,1.213301631362196,7545.26953125,11.650555555555554,7.690000000000001,179.08280015479275,1.3503157938922712,47.12017696852071,1553.0,1435.0,1350.0,1528.0,1471.0,993.0,107.0,294.2,1649339943.1781948,1649339944.3282268,931a3a39-e4a3-4480-bc66-2e45df4a2f7f
-0.0655549568288604,0.0882847914803509,-0.1390430243901033,-0.032854148169237,-0.2655597922824793,0.0643278670799436,-0.4474325908365681,-0.4761887966655003,-16.79491800725584,22.334985732076703,14.695148847001564,0.3536904778222831,0.3153584615054354,1.1984904884371,7556.357259114583,11.655,7.673333333333334,179.05942876527277,1.3380313903628531,47.10455556697898,1553.0,1435.0,1350.0,1528.0,1471.0,993.0,107.0,294.2,1649339944.4373658,1649339945.5450685,931a3a39-e4a3-4480-bc66-2e45df4a2f7f
-0.0644767637139421,0.0843138852649827,-0.1479446923683204,-0.0372063667127361,-0.2756185461995427,0.0701921856001547,-0.4544145501360271,-0.4819347782901649,-16.634143999519946,22.41704029986389,14.343187045914304,0.3768114540908276,0.3024195831325534,1.2333293552065518,7551.91748046875,11.653333333333332,7.666666666666667,179.0511369156204,1.339071713550811,47.11896840449258,1553.0,1435.0,1350.0,1528.0,1471.0,993.0,107.0,294.2,1649339945.652629,1649339946.7696276,931a3a39-e4a3-4480-bc66-2e45df4a2f7f
-0.0814158252346885,0.0756225971154682,-0.181434424477893,-0.3689677299877457,-0.3426197609355041,0.3991057952308999,-0.396693784097821,-0.4189327855032667,-16.549733220772346,21.904041395195392,16.55878126662248,1.859623977722659,0.2883029281553362,1.287489464717218,7558.5771484375,11.644333333333332,7.652222222222223,179.08890179045127,1.4366206531464427,47.20961412169754,1553.0,1522.0,1350.0,1528.0,1471.0,993.0,107.0,294.2,1649339948.709152,1649339949.8545082,54e18e17-692d-4216-850a-ab94bfd0135e
-0.0533661149434093,0.0792384885593279,-0.1748995218303721,-0.3664103081079982,-0.3344326732580313,0.3984362232056478,-0.3908800363244907,-0.4225684008005326,-16.75704647615762,21.789519675783453,17.351583155539537,1.851938679992072,0.2964029110277877,1.260633172412486,7560.0595703125,11.64711111111111,7.654444444444445,179.0652465686258,1.4179488606622666,47.235256549116535,1553.0,1522.0,1350.0,1528.0,1471.0,993.0,107.0,294.2,1649339949.9626486,1649339951.285902,54e18e17-692d-4216-850a-ab94bfd0135e
-0.0773827153357814,0.0694148953703414,-0.1809160623924762,-0.3626588832768605,-0.3392314425133804,0.4046434187790844,-0.395745560645546,-0.4268472909883175,-16.76125573887773,21.93308088565673,17.313157333499966,1.858068638848446,0.2590879605151884,1.2810261236045248,7565.248046875,11.636666666666668,7.648888888888889,179.06639707604597,1.4132456588044129,47.27720074080958,1553.0,1522.0,1350.0,1528.0,1471.0,993.0,107.0,294.2,1649339951.4026935,1649339952.7083943,54e18e17-692d-4216-850a-ab94bfd0135e
-0.0463710082978029,0.0719935569780427,-0.2181455880114878,-0.7382161014506646,-0.4161386870134644,0.7666654273647373,-0.3342354427528634,-0.3463848410254883,-16.752270686279743,21.335668532374413,20.07335754258392,3.5133759164999026,0.2881011773919764,1.3501107998405928,7565.248046875,11.629666666666663,7.663333333333335,179.08346647769176,1.5121338728018303,47.38416529776152,1553.0,1613.0,1350.0,1528.0,1471.0,993.0,107.0,294.2,1649339953.6257694,1649339954.7564647,897a40e4-5426-43f6-8a3c-307e053e18fb
-0.0528664644665348,0.0696925351425398,-0.2174618557108347,-0.7404382319083951,-0.4156916311979657,0.7690716385487153,-0.3312243908205207,-0.3527093645446444,-16.600196825750672,21.28596122039956,19.81818823860312,3.5235359803730715,0.2809722580022568,1.343751743069666,7565.248046875,11.632888888888887,7.642222222222222,179.08713049472652,1.5062753254731212,47.40645106665841,1553.0,1613.0,1350.0,1528.0,1471.0,993.0,107.0,294.2,1649339954.865805,1649339955.9894352,897a40e4-5426-43f6-8a3c-307e053e18fb
-0.0532477767038294,0.0746890396872517,-0.2196971343251529,-0.7434887307987367,-0.420333121958243,0.7651138813547156,-0.3356817995783208,-0.3617951158225581,-16.552427329126274,21.38250501255928,19.525191917616105,3.5220295887809927,0.302206420421758,1.3596253204237772,7565.248046875,11.628777777777778,7.66,179.09082031469814,1.4958764217516134,47.435959760602586,1553.0,1613.0,1350.0,1528.0,1471.0,993.0,107.0,294.2,1649339956.0982316,1649339957.2274597,897a40e4-5426-43f6-8a3c-307e053e18fb
-0.022874287353151,0.0703894160470448,-0.254620075615224,-1.1093251155468884,-0.4955173847109436,1.1243756825433613,-0.2743694198649654,-0.303349150589677,-16.49333438884833,21.09201197194251,22.21163667321732,5.151369416966308,0.3046755147073246,1.4225586525812073,7565.248046875,11.598666666666666,7.643333333333333,179.09233661669387,1.612077611901296,47.526818352036685,1553.0,1710.0,1350.0,1528.0,1471.0,993.0,107.0,294.2,1649339959.1549847,1649339960.2899792,a5617477-b2fd-4696-b04a-699e38add56f
-0.022032770768377,0.0663264689230012,-0.2526214735000633,-1.1020144350418812,-0.4909284884884044,1.1221404042574514,-0.2730545500351867,-0.2944606305291362,-16.639875510473974,21.06950581559056,22.29870755337632,5.12974577965217,0.2889286855411586,1.4113140475981454,7565.248046875,11.6055,7.65,179.08545292437535,1.5988883476379672,47.53026617461146,1553.0,1710.0,1350.0,1528.0,1471.0,993.0,107.0,294.2,1649339960.397749,1649339961.5150225,a5617477-b2fd-4696-b04a-699e38add56f
-0.0469101048394238,0.0652482758342959,-0.2490187303445656,-1.0993452477348802,-0.4878648415534671,1.121930025128511,-0.2711348401574291,-0.2866503045440233,-16.706191201461625,21.219890789723923,22.487720651775167,5.124425057919543,0.2835812648056752,1.39954848796944,7565.248046875,11.605333333333332,7.651111111111112,179.091998142875,1.610815580298561,47.55967497703903,1553.0,1710.0,1350.0,1528.0,1471.0,993.0,107.0,294.2,1649339961.6240408,1649339962.9529846,a5617477-b2fd-4696-b04a-699e38add56f
-0.0347738578525203,0.0705340517030674,-0.2362644935625064,-1.2494771817472217,-0.5016578275953593,1.2621477189980943,-0.2274811633542257,-0.2409322812440508,-16.526169749143293,21.90247559631841,23.711305746767604,5.783619476564472,0.3105919679148752,1.3396907859179583,7563.0244140625,11.562666666666669,7.63,179.07726011246598,1.687102437457126,47.6354388504074,1553.0,1814.0,1350.0,1528.0,1471.0,993.0,107.0,294.2,1649339963.6323814,1649339964.7962244,437d58ad-0f0c-4313-a4f7-39e62f5d56a6
-0.0260036771851145,0.0749651623066575,-0.2270998511438658,-1.255196869421188,-0.4945838270331437,1.2613062024694504,-0.214884710955051,-0.2468623438664902,-16.158462784008883,21.71833610251828,23.544288391685537,5.7940248164681245,0.3273711404209882,1.300211832153246,7558.5771484375,11.557222222222222,7.628888888888889,179.04930035364356,1.656966468900266,47.68869307645608,1553.0,1814.0,1350.0,1528.0,1471.0,993.0,107.0,294.2,1649339964.9070256,1649339966.0256157,437d58ad-0f0c-4313-a4f7-39e62f5d56a6
-0.0310001818955009,0.0633154174898111,-0.2359357760616282,-1.2568799041917065,-0.5008689055337721,1.277360760582726,-0.2206306918573067,-0.2358305867453344,-16.363801170056707,21.80935290896676,23.92718914539124,5.834019132101872,0.2813858199366252,1.3279324444334415,7558.5771484375,11.559,7.636666666666666,179.04993480232645,1.652291489004608,47.71559567377695,1553.0,1814.0,1350.0,1528.0,1471.0,993.0,107.0,294.2,1649339966.134198,1649339967.2532852,437d58ad-0f0c-4313-a4f7-39e62f5d56a6
-0.0950737813200407,0.0772661841250449,-0.1196881421800836,0.3158492681086786,-0.2151082388437506,-0.264323814604388,-0.5264431264065843,-0.5507156276837037,-16.88725065213835,23.80751403121998,11.841685074504172,-1.161199232120632,0.2582947851155374,1.212915710502442,7554.137369791667,11.65,7.680000000000001,179.0827925656937,1.289634697616553,47.77787447699398,1553.0,1349.0,1350.0,1528.0,1471.0,993.0,107.0,294.2,1649339968.1677496,1649339969.3078887,999b6cb2-061d-44f5-a899-e4fc43fcbc94
-0.0755742637964263,0.0834197739236077,-0.1078280174091519,0.31729562460108,-0.2042474145952479,-0.2648497624994226,-0.516778831992983,-0.534858294417418,-17.026921555366535,23.86833632450759,12.895635106392108,-1.1645522808365056,0.2735967347199577,1.1703174561783154,7565.248046875,11.651222222222223,7.663333333333333,179.06852505942737,1.115902290479324,47.83037472604928,1553.0,1349.0,1350.0,1528.0,1471.0,993.0,107.0,294.2,1649339969.4205945,1649339970.5308714,999b6cb2-061d-44f5-a899-e4fc43fcbc94
-0.0788614380402599,0.0825125138925217,-0.1150860982079179,0.3144292089953436,-0.212978149817148,-0.2640608406259869,-0.5246154571000956,-0.5484014554721871,-16.962217166593675,23.99139082339905,12.446514990662124,-1.155898219346189,0.2736114169083454,1.2024866702333892,7558.5771484375,11.653333333333332,7.66,179.06784811178966,1.106910382010904,47.91391704651744,1553.0,1349.0,1350.0,1528.0,1471.0,993.0,107.0,294.2,1649339970.6385615,1649339971.755724,999b6cb2-061d-44f5-a899-e4fc43fcbc94
-0.1053955084428992,0.0791990424615385,-0.0805444712612765,0.6825926716638143,-0.1457620086125425,-0.6170771171669618,-0.5951845307593736,-0.6134217788054265,-17.143888480894148,25.399485385040933,9.842165950118906,-2.769111725080005,0.2424368221225036,1.1627761420402765,7563.765625,11.635666666666667,7.649999999999999,179.0586622662659,0.961511247808344,48.00110365236274,1553.0,1264.0,1350.0,1528.0,1471.0,993.0,107.0,294.2,1649339972.6692302,1649339973.804753,74cbb78c-11b4-4f34-b7d9-004d259d7fdb
-0.1001623270457804,0.0819339712564681,-0.0782434493446714,0.6744141833938692,-0.1448415998264497,-0.6138293881177327,-0.5918053147679729,-0.6135532657507021,-17.132956333618424,25.368496062315643,9.636509497916071,-2.743483114764922,0.2555921147415805,1.1535642026169264,7558.5771484375,11.619777777777776,7.676666666666667,179.05600456376885,0.9756190865447768,48.07982917164621,1553.0,1264.0,1350.0,1528.0,1471.0,993.0,107.0,294.2,1649339973.915169,1649339975.2377615,74cbb78c-11b4-4f34-b7d9-004d259d7fdb
-0.0994260000053517,0.085142253117979,-0.0736282567199295,0.6707851435832116,-0.1400423253388302,-0.610870930509789,-0.5869402956093157,-0.5998391717741324,-17.27364748349278,25.30460131402624,10.066661106998655,-2.728844852720361,0.2655467843213787,1.1347005594964132,7558.5771484375,11.621555555555554,7.653333333333332,179.0603971343151,0.9538958359010934,48.097474585912,1553.0,1264.0,1350.0,1528.0,1471.0,993.0,107.0,294.2,1649339975.3505611,1649339976.4717076,74cbb78c-11b4-4f34-b7d9-004d259d7fdb
-0.1196223986470381,0.080303532946296,-0.0480014467164715,0.9878264796655244,-0.0893540981955634,-0.915605248908474,-0.6553135391580767,-0.6767590711123799,-17.411398340372152,26.8997952588245,7.393078575974345,-4.117435880938569,0.2346865851174405,1.1257506093617422,7558.5771484375,11.608,7.65,179.0615370169966,0.8443658077218418,48.17436923504295,1553.0,1178.0,1350.0,1528.0,1471.0,993.0,107.0,294.2,1649339977.080485,1649339978.1038826,6844cbd2-c467-4143-9c32-3d1c8e82b001
-0.1105629463843734,0.0879692227841178,-0.0477516214773444,0.991889426535268,-0.0900246817280488,-0.9215747604079926,-0.6581536585791493,-0.6911831964400809,-17.439131044522654,26.92016293699041,8.133561332739971,-4.139763646325824,0.2565869352688385,1.1323469597568652,7558.5771484375,11.585333333333333,7.631111111111112,179.04247168229335,0.827887134433507,48.2656338432777,1553.0,1178.0,1350.0,1528.0,1471.0,993.0,107.0,294.2,1649339978.21215,1649339979.3369331,6844cbd2-c467-4143-9c32-3d1c8e82b001
-0.1079726530752477,0.0970681204702875,-0.0393759017042835,0.985157294511237,-0.084015727268309,-0.9222979391203142,-0.6503959250025559,-0.6678836974270113,-17.434504165669534,26.87651856418585,8.47928022762381,-4.126017515238422,0.2889755932591847,1.1032508526439562,7558.5771484375,11.597666666666669,7.656666666666666,179.0326635306452,0.8194967035698879,48.32126763134223,1553.0,1178.0,1350.0,1528.0,1471.0,993.0,107.0,294.2,1649339979.4448164,1649339980.7673118,6844cbd2-c467-4143-9c32-3d1c8e82b001
-0.1180577036917964,0.0942017047289655,-0.022558718762296,1.1224033784201477,-0.0614525635294516,-1.0534694150784447,-0.6794808519568973,-0.7100778809401851,-17.51594485014833,28.1509465230189,7.337675680356779,-4.721308129018271,0.273109023555699,1.0896724902015749,7558.5771484375,11.583666666666666,7.639999999999999,179.02361125326524,0.7502919403098657,48.40030278586808,1553.0,1088.0,1350.0,1528.0,1471.0,993.0,107.0,294.2,1649339982.6691234,1649339983.8458498,37504653-aa15-4c16-95b0-4425eb8ec714
-0.1123117230509958,0.0933864855645536,-0.0281600635142803,1.120917575775976,-0.0681058041121799,-1.0507476328754342,-0.6843458713458752,-0.703030176126152,-17.38926109865966,28.2083311104938,7.374861782041149,-4.711669117403761,0.2686540520322491,1.1133022646295392,7558.5771484375,11.561444444444444,7.63,179.02024624673413,0.7650325913297128,48.47097740939487,1553.0,1088.0,1350.0,1528.0,1471.0,993.0,107.0,294.2,1649339983.953763,1649339985.0808094,37504653-aa15-4c16-95b0-4425eb8ec714
-0.1235275616925725,0.087877181896912,-0.031933739394777,1.1402067125542157,-0.0677113431479159,-1.0683143036575933,-0.6927215941504086,-0.7167179744479253,-17.532496120459335,28.20783175940988,6.58973800261068,-4.795043807153832,0.2533489831732944,1.1281293668111778,7558.5771484375,11.56277777777778,7.62,179.0180287119836,0.7676612062329465,48.51673436446461,1553.0,1088.0,1350.0,1528.0,1471.0,993.0,107.0,294.2,1649339985.1928055,1649339986.3021276,37504653-aa15-4c16-95b0-4425eb8ec714
-0.0858828421318684,0.081920822571306,-0.1336389097728542,-0.0524588548999981,-0.2661120375221159,0.0974494326360209,-0.4376762559839768,-0.4690884988277951,-16.76340967495766,22.85121267608458,16.002054557011448,0.4762578817252126,0.2824487342084557,1.1786968252054058,7558.5771484375,11.643666666666668,7.649999999999999,179.01523440570315,1.1093390360114053,48.626071273788256,1553.0,1435.0,1350.0,1528.0,1471.0,993.0,107.0,294.2,1649339987.210576,1649339988.35001,a66769dc-53be-4569-863a-71aa6b93e3ab
-0.0581259431766712,0.0768454258613409,-0.1432637561412097,-0.0496055877006681,-0.2713057732391046,0.0961871578290006,-0.444986932771139,-0.4641314390696624,-16.84955603816003,22.57413397921729,15.428103991511744,0.4645342137712813,0.2681433816201464,1.207954313656292,7558.5771484375,11.650444444444444,7.66888888888889,179.02758186990272,1.1206002273996925,48.591260835228326,1553.0,1435.0,1350.0,1528.0,1471.0,993.0,107.0,294.2,1649339988.4579551,1649339989.5770245,a66769dc-53be-4569-863a-71aa6b93e3ab
