raw_voltage_G-,raw_voltage_G0,raw_voltage_G1,raw_voltage_G2,raw_voltage_G3,raw_voltage_G4,raw_voltage_G5,raw_voltage_G6,load_x,load_y,load_z,load_l,load_m,load_n,rpm,voltage,current,roll,pitch,yaw,aileron1_pwm,elevator_pwm,throttle_pwm,rudder_pwm,aileron2_pwm,pbaro,pdiff,Tt,sample_start_time,sample_end_time,uid
-0.1972128613552265,-0.0052681826761669,-0.3751278952108382,-0.0470152944344878,-0.486168659161959,0.1913048239225041,-0.7015575212106847,-0.7354811714765057,-20.93197629422186,25.553863968448265,15.956402968013917,0.6786701743185669,-0.0305878448690159,2.1687177307294503,4375.418294270833,11.958333333333334,0.1533333333333333,179.02324242305005,1.0801581318575508,93.37315745125096,1553.0,1435.0,1200.0,1528.0,1471.0,993.0,107.0,294.2,1649341279.1653786,1649341280.14409,9633d00b-ce98-466a-9fc9-282edaac30b9
-0.1934128877859698,-0.0064778627555584,-0.3777970811105443,-0.0460817369695345,-0.4887458043316058,0.1933691691517799,-0.7054363882052016,-0.7381898043820272,-21.052430805712653,25.66366989570825,16.177554319645804,0.6817727849585953,-0.0365146828970794,2.181433395393438,4391.350748697917,11.962666666666667,0.1555555555555555,179.030204662544,1.0558462158024982,92.85001353106206,1553.0,1435.0,1200.0,1528.0,1471.0,993.0,107.0,294.2,1649341280.2525604,1649341281.3816888,9633d00b-ce98-466a-9fc9-282edaac30b9
-0.1952931515295922,-0.0022308337969037,-0.3715908952942408,-0.0514069591498994,-0.4832759452823978,0.1896349395661699,-0.6972710445915005,-0.7281441966559592,-20.876800221122657,25.45403517179619,15.598442078904164,0.6843092958591513,-0.0156506224030654,2.153757098523159,4392.850260416667,11.960666666666668,0.1588888888888889,179.03790456246833,1.0382302685854872,92.38511746411504,1553.0,1435.0,1200.0,1528.0,1471.0,993.0,107.0,294.2,1649341281.4932048,1649341282.6092107,9633d00b-ce98-466a-9fc9-282edaac30b9
0.0389114372045525,0.3684046033156417,-0.3580477357229205,-0.3146701796596992,-0.5658760777516065,0.0806453990128778,-0.7440935709993645,-0.7691418493984983,-20.58730387771884,24.558803237335784,17.148261800445347,1.0283851049188426,1.3919293330581175,2.3597603139810706,4395.60302734375,11.945666666666666,0.1555555555555555,178.9404999936247,1.0607304651052265,91.52672129761515,1658.0,1435.0,1200.0,1528.0,1551.0,993.0,107.0,294.2,1649341284.7446911,1649341285.882516,17766b3a-5e8a-4c26-9427-29cfe246e1de
0.0155462038051318,0.3608309548402231,-0.3604933936570285,-0.3068730016294598,-0.5686241560986939,0.0855630113473161,-0.7504575426882364,-0.7668013792702846,-20.831024342415148,25.018694857006057,17.774564592667573,1.024751166413659,1.3585903925077876,2.375574048075352,4398.863335503473,11.934333333333331,0.1588888888888889,178.95872142051044,1.0360834903258895,91.27362636119062,1658.0,1435.0,1200.0,1528.0,1551.0,993.0,107.0,294.2,1649341285.9906652,1649341287.107046,17766b3a-5e8a-4c26-9427-29cfe246e1de
0.0346644082708471,0.3695879858870558,-0.365884360099577,-0.3196009416055361,-0.5776573131810719,0.0844322234560851,-0.7574395034311293,-0.7810019778464522,-20.81893639303789,25.067595059324564,17.119537416915353,1.050878650118129,1.398380669590901,2.405179367350664,4412.95458984375,11.933666666666667,0.15,178.98328581640547,1.0506774345741892,91.09397796673105,1658.0,1435.0,1200.0,1528.0,1551.0,993.0,107.0,294.2,1649341287.2156773,1649341288.333129,17766b3a-5e8a-4c26-9427-29cfe246e1de
0.2610323567767318,0.7765006512245191,-0.3390347177265753,-0.604506959386128,-0.6574436287494226,-0.0424263992677767,-0.7977402755808604,-0.8274037496385942,-20.34362337880244,24.12884138970966,18.42505371426566,1.4040497489158508,2.9463798911737973,2.5839292952633355,4446.273328993056,11.931,0.1477777777777777,178.6971858880916,1.084379651225344,90.64464410635296,1767.0,1435.0,1200.0,1528.0,1630.0,993.0,107.0,294.2,1649341290.0491269,1649341291.2036774,9b50cc36-78b1-4b7b-bc11-9c5330cbc8e2
0.2770606166046725,0.7654031526395809,-0.3249130156761244,-0.5975249995143805,-0.6421648382981954,-0.0413350574577893,-0.7822905504204571,-0.8017374812934321,-20.28762139323661,24.25079843951737,18.0607047835669,1.392234293947082,2.9076280515690773,2.5200661273074947,4452.689453125,11.908888888888889,0.14,178.69065470942525,1.0858284576711636,90.52168324636484,1767.0,1435.0,1200.0,1528.0,1630.0,993.0,107.0,294.2,1649341291.312481,1649341292.4289496,9b50cc36-78b1-4b7b-bc11-9c5330cbc8e2
0.2559701090256243,0.7574613408588823,-0.3196009415093571,-0.5868482548492048,-0.6341309820101158,-0.0447142725461345,-0.7739674219174819,-0.7958468633395315,-20.043708624024205,24.09928333756382,17.924844975750805,1.3599178428444725,2.876338848026334,2.4892062162734665,4433.266167534723,11.908444444444443,0.14,178.70982780933542,1.1023762510509425,90.41836221588017,1767.0,1435.0,1200.0,1528.0,1630.0,993.0,107.0,294.2,1649341292.5372465,1649341293.6654403,9b50cc36-78b1-4b7b-bc11-9c5330cbc8e2
0.3810010532821859,0.9673671097570428,-0.2768282264583455,-0.7314708175561527,-0.6575882645028089,-0.1208452275399096,-0.7828033499165484,-0.8006724366100592,-20.18554907822893,25.0323212501079,17.528636536919848,1.5232549504537505,3.688662119028213,2.498522052883841,4353.92578125,11.884,0.1366666666666666,178.46163239527544,1.1018799832610915,90.08981949206382,1886.0,1435.0,1200.0,1528.0,1710.0,993.0,107.0,294.2,1649341295.5984104,1649341296.7346137,5dad0b81-4f2c-40ab-86ea-a89258d023c3
0.378976154263804,0.9659733480188836,-0.2854537723622065,-0.734928925952532,-0.6606387630910612,-0.116348373121454,-0.7811729108170276,-0.8020004553517013,-19.88493766330536,24.23868097957752,17.50211043599113,1.5356170879381272,3.681407605503457,2.5124126833296545,4342.163248697917,11.859333333333332,0.13,178.46540721315674,1.09820470115739,90.00196049204025,1886.0,1435.0,1200.0,1528.0,1710.0,993.0,107.0,294.2,1649341296.8438127,1649341297.9698646,5dad0b81-4f2c-40ab-86ea-a89258d023c3
0.3775429464853777,0.969576090533478,-0.289766545385096,-0.7424894294633382,-0.6660560280147054,-0.1157566817055742,-0.7864849865093528,-0.812545715990479,-19.998277226032148,24.25679467229297,17.061939895115998,1.55377945371552,3.700281250534228,2.532895366287928,4340.6953125,11.864,0.1366666666666666,178.46654102455898,1.0808693964526823,89.93085366932095,1886.0,1435.0,1200.0,1528.0,1710.0,993.0,107.0,294.2,1649341298.083625,1649341299.137637,5dad0b81-4f2c-40ab-86ea-a89258d023c3
-0.4110688520023995,-0.4547503476516333,-0.3868828319160376,0.2816651886065581,-0.3886781350095652,0.3128554113292224,-0.6510452685036187,-0.6691626615011205,-21.23846039604509,27.54738587749815,13.78145068436885,0.2225169353125425,-1.7361524740543517,1.9244311243847203,4368.228569878473,11.902444444444445,0.1388888888888889,179.3038873069468,0.9673933569180964,89.69327388705105,1449.0,1435.0,1200.0,1528.0,1386.0,993.0,107.0,294.2,1649341301.1265235,1649341302.264681,70f87ec1-5ee3-4282-a50a-5bdc57694eaa
-0.4483661484356498,-0.4568470594583814,-0.3846738505211631,0.2809657791384579,-0.3881977017756389,0.3150209002937917,-0.6499225717260891,-0.681124439912769,-21.22844780237261,27.76268812102147,13.71590735469248,0.2304926237701959,-1.7432765746170469,1.9187335512497168,4373.1767578125,11.949666666666666,0.15,179.3316801055895,0.9757115193999506,89.60670199823105,1449.0,1435.0,1200.0,1528.0,1386.0,993.0,107.0,294.2,1649341302.373041,1649341303.4894888,70f87ec1-5ee3-4282-a50a-5bdc57694eaa
-0.4485239328109152,-0.4514560927477851,-0.3872772928688096,0.2796772069941734,-0.3889997724053811,0.3125226481784359,-0.6511848470192111,-0.6740504381943998,-21.25530539096659,27.45504152688269,13.931820603370634,0.2256372586547991,-1.724792325073511,1.9262250075234093,4374.6650390625,11.951666666666666,0.1566666666666666,179.3414654899404,0.9831299586122308,89.50705181497028,1449.0,1435.0,1200.0,1528.0,1386.0,993.0,107.0,294.2,1649341303.59791,1649341304.720008,70f87ec1-5ee3-4282-a50a-5bdc57694eaa
-0.6797701231883728,-0.874449807321573,-0.4251323971079911,0.6058963339189006,-0.3220203019980156,0.4223799971172848,-0.636432004672631,-0.6603494918475153,-21.75278579671611,29.55448133809887,13.222648133974138,-0.25169999254994,-3.343998274562653,1.8150605797890609,4370.94677734375,11.94188888888889,0.1555555555555555,179.47001268575966,0.9604417895947084,89.33866033117278,1342.0,1435.0,1200.0,1528.0,1293.0,993.0,107.0,294.2,1649341305.6300976,1649341306.775111,2415950b-c029-4033-bc40-f12690984ba3
-0.6674103441488609,-0.8696373819791624,-0.4202279323533427,0.5981123064914594,-0.3196798336846539,0.4239709892455698,-0.632342758745227,-0.6579564283843021,-21.78082160808996,29.6338920405684,13.134050666659617,-0.229823564745737,-3.323694441848198,1.799702133339332,4366.988009982639,11.906333333333334,0.14,179.4805235879824,0.9773955286273454,89.19198353656657,1342.0,1435.0,1200.0,1528.0,1293.0,993.0,107.0,294.2,1649341306.88992,1649341308.0094678,2415950b-c029-4033-bc40-f12690984ba3
-0.6718020102672125,-0.8779210649556543,-0.434218148198523,0.6017939410806556,-0.326596049050808,0.4301245785500333,-0.6397323285675798,-0.6640048324910659,-21.816143230514548,29.1320746702936,13.260778749973564,-0.2283212997053406,-3.35698518308904,1.8381035929107616,4368.71875,11.908888888888889,0.1444444444444445,179.48922980244444,0.9776737046824482,89.05976094006392,1342.0,1435.0,1200.0,1528.0,1293.0,993.0,107.0,294.2,1649341308.1247766,1649341309.2293432,2415950b-c029-4033-bc40-f12690984ba3
-0.9363539034577356,-1.295668591523002,-0.469930015370365,0.9371908541204194,-0.2641923276095656,0.5318428837076471,-0.6345122943529309,-0.6602837492981506,-22.43653257766701,32.07289337095606,13.28836913370608,-0.7389110096953975,-4.9631545720799375,1.7451458495724348,4369.2138671875,11.88588888888889,0.1355555555555555,179.63269109577138,0.9543075800999652,88.79943511003808,1227.0,1435.0,1200.0,1528.0,1189.0,993.0,107.0,294.2,1649341310.1375206,1649341311.274204,1c218eef-67d6-448a-9e43-501c163f138f
-0.9222584931999492,-1.2949191151737898,-0.4517059181356007,0.9415036261438472,-0.2497682060692304,0.5238747745233914,-0.6207719020894218,-0.6481343488591591,-22.36191609786371,32.43881133174642,12.943069328393962,-0.7632293020059069,-4.957180791961194,1.680638321279555,4368.96630859375,11.809666666666669,0.12,179.64402010287472,0.9363731990288372,88.5452936368507,1227.0,1435.0,1200.0,1528.0,1189.0,993.0,107.0,294.2,1649341311.383054,1649341312.500266,1c218eef-67d6-448a-9e43-501c163f138f
-0.9187609378717256,-1.2975225593599822,-0.4651570374991505,0.936651757625654,-0.2637452719014738,0.5269384204624578,-0.6356167852404544,-0.6697771105492779,-22.501616394429405,32.60092533371298,12.271081915169356,-0.74517279673987,-4.9602533297247735,1.7376773291209475,4370.94677734375,11.817666666666668,0.1133333333333333,179.6515196505834,0.9462703447216296,88.37428998515063,1227.0,1435.0,1200.0,1528.0,1189.0,993.0,107.0,294.2,1649341312.6095345,1649341313.7322438,1c218eef-67d6-448a-9e43-501c163f138f
-0.1762538376956268,0.0021213847423162,-0.3807423895947028,-0.0584546605845875,-0.4938212023342906,0.1927117343644472,-0.7079477901450575,-0.7201497855735429,-21.01740718311972,25.53210921433253,15.642918707398849,0.7071193431420413,0.0015627205614576,2.196193206176813,4371.937879774306,11.889666666666669,0.1377777777777777,179.20023235610267,1.067616552733134,88.16067126539903,1553.0,1435.0,1200.0,1528.0,1471.0,993.0,107.0,294.2,1649341314.6415007,1649341315.7888114,c8a8ff48-1e87-4cd9-8a40-0dad173b9f46
-0.1703237751363959,0.0039359048489172,-0.3707625272687269,-0.0539052115194298,-0.4883250459014389,0.1876100404044993,-0.7052786037336365,-0.7382818447920608,-21.134117836839312,26.09882019776948,15.808364832481027,0.6896140631484876,0.0078101252101723,2.171481825820405,4379.88037109375,11.965,0.1677777777777778,179.18243440094545,1.0769591605847193,88.21730415835715,1553.0,1435.0,1200.0,1528.0,1471.0,993.0,107.0,294.2,1649341315.920607,1649341317.0110877,c8a8ff48-1e87-4cd9-8a40-0dad173b9f46
-0.1597785198511185,0.0019241542931969,-0.3717618283601366,-0.0511439851799013,-0.4877596518197738,0.189056396939466,-0.7036350160694629,-0.7316811972342009,-21.01165459862036,25.93846133596516,16.09879827519984,0.6856307141386005,-0.0035820674835433,2.170075652567902,4389.114908854167,11.96888888888889,0.16,179.18053105489673,1.0798692717739025,88.26350507572293,1553.0,1435.0,1200.0,1528.0,1471.0,993.0,107.0,294.2,1649341317.1204412,1649341318.2379692,c8a8ff48-1e87-4cd9-8a40-0dad173b9f46
-0.1681936861586077,-0.0038086773743105,-0.4014384414889347,-0.3239005659579795,-0.5410118858438269,0.4617734877328252,-0.6542616430467318,-0.674366007988886,-20.987448550065167,25.080977791667973,18.44863287066821,1.906959154136861,-0.0143952291857639,2.213360308922375,4402.3759765625,11.967,0.1555555555555555,179.19106927787618,1.1766496016444965,88.3461822388962,1553.0,1522.0,1200.0,1528.0,1471.0,993.0,107.0,294.2,1649341319.1487706,1649341320.2858837,2156957e-1ae2-4f6a-8db2-b27689062f85
-0.1843534353136498,-0.015524165982162,-0.4226078468503093,-0.3280818518890854,-0.5576844375570049,0.4733048933481035,-0.6706054784621309,-0.6944572228243178,-21.125706475941104,24.90545356079139,17.767544563450986,1.9399078875713909,-0.0521506087270475,2.285755795123201,4402.3759765625,11.966666666666669,0.16,179.16517830746236,1.181373246637991,88.35820716638497,1553.0,1522.0,1200.0,1528.0,1471.0,993.0,107.0,294.2,1649341320.394311,1649341321.5103514,2156957e-1ae2-4f6a-8db2-b27689062f85
-0.1790413614891736,-0.00683287756541,-0.4068031106604761,-0.323098495315943,-0.5437468154596288,0.4639693198196694,-0.6571017624417812,-0.6829915553560775,-21.00213324369024,24.885931197677937,18.415398440482743,1.908511405361237,-0.0257814793781096,2.228105752645728,4400.1162109375,11.965,0.1566666666666666,179.16857518820956,1.17512216501745,88.35283180750817,1553.0,1522.0,1200.0,1528.0,1471.0,993.0,107.0,294.2,1649341321.619077,1649341322.7438288,2156957e-1ae2-4f6a-8db2-b27689062f85
-0.1765562576711313,-0.026279799768218,-0.4439350368594675,-0.6131456557253745,-0.6089380715129844,0.7616557745655018,-0.6129615739127003,-0.6350908373850619,-21.02236056077247,24.62606353478779,20.08577371832263,3.228412418252489,-0.0800279509373961,2.302219465437359,4404.638671875,11.961222222222224,0.1555555555555555,179.17429585109437,1.289291290883283,88.34515846943061,1553.0,1613.0,1200.0,1528.0,1471.0,993.0,107.0,294.2,1649341323.6526558,1649341324.7922928,cce3e6fd-ba24-4b00-93ab-385a5c68681d
-0.1660372998136362,-0.0228348412635385,-0.4398457913738016,-0.6100820084670202,-0.606282033967958,0.7565672296014399,-0.612317287554764,-0.6360375439663762,-21.08098492090161,24.77966542473865,20.25987500795945,3.21128704602118,-0.068350747761461,2.2926956467688866,4404.890245225694,11.95022222222222,0.15,179.16002075572908,1.2922295054549882,88.30898578758621,1553.0,1613.0,1200.0,1528.0,1471.0,993.0,107.0,294.2,1649341324.900974,1649341326.2279568,cce3e6fd-ba24-4b00-93ab-385a5c68681d
-0.170968061293484,-0.0399675929668437,-0.4494048957025978,-0.6005229032154539,-0.6136453063005547,0.7615374363138914,-0.6219947312014105,-0.6526838000182699,-21.139000110117045,25.08479176544257,19.754221185107387,3.2023296969726056,-0.1294945209110564,2.3266651884036724,4400.870279947917,11.954666666666666,0.15,179.15105195843896,1.2966416535052416,88.25926580497806,1553.0,1613.0,1200.0,1528.0,1471.0,993.0,107.0,294.2,1649341326.3367078,1649341327.65822,cce3e6fd-ba24-4b00-93ab-385a5c68681d
-0.174846927038043,-0.0406513251968872,-0.4811590047862026,-0.8915168242079886,-0.6750102934281074,1.048534006349122,-0.5740677181061227,-0.5945796909260695,-21.044132958665937,24.515600826937607,22.432318338542064,4.498780581840879,-0.1226614005611582,2.386735986415208,4402.3759765625,11.95111111111111,0.15,179.16818814415663,1.425696026444288,88.18452987507979,1553.0,1710.0,1200.0,1528.0,1471.0,993.0,107.0,294.2,1649341328.5698788,1649341329.7035892,a5b42f1c-7195-4adc-96b9-29f4116550ab
-0.1891264123958426,-0.0409142991301651,-0.4832102017919155,-0.8909645787217326,-0.6745106426710524,1.0458779698531586,-0.5725293200411125,-0.604336026376681,-20.898663494718964,24.1592605513895,22.09214640167477,4.489121024271689,-0.1218664459986387,2.386402318973448,4400.618381076389,11.930333333333332,0.1422222222222222,179.1591070282001,1.419564888163079,88.1045544311782,1553.0,1710.0,1200.0,1528.0,1471.0,993.0,107.0,294.2,1649341329.8126366,1649341330.9407265,a5b42f1c-7195-4adc-96b9-29f4116550ab
-0.1548214609777866,-0.0438333097973041,-0.4724151195726435,-0.8810899025450526,-0.6642415071526528,1.0431956359772492,-0.5648110330739752,-0.5905956354105583,-20.95578680615052,24.42352983256301,22.664942360346178,4.463170560341858,-0.1380138336295499,2.347104154687555,4401.873806423611,11.927222222222222,0.1377777777777778,179.13818236422284,1.4228350190977317,88.01996177939769,1553.0,1710.0,1200.0,1528.0,1471.0,993.0,107.0,294.2,1649341331.048664,1649341332.16424,a5b42f1c-7195-4adc-96b9-29f4116550ab
-0.1671023442494306,-0.0341295716500545,-0.4598712603899915,-1.043976049700674,-0.6766407323448612,1.1874368277971548,-0.5149643115157126,-0.5361863138705252,-20.65565877198036,24.582738113136525,23.43525487347923,5.156684898857134,-0.0897177235935638,2.276899531243912,4399.865342881944,11.924444444444443,0.1388888888888889,179.154960344464,1.4609011455881264,87.86774190682506,1553.0,1814.0,1200.0,1528.0,1471.0,993.0,107.0,294.2,1649341334.1000822,1649341335.244264,eb04c2ad-8297-4977-b67d-51d6d375fb52
-0.159055341522699,-0.0383108571943177,-0.4558214609349111,-1.027645358127775,-0.6723148095831541,1.175681893677841,-0.5177649845032929,-0.5510837902933708,-20.82304620502052,24.94870425350224,23.320920074752227,5.09595715573742,-0.1049497284836283,2.2686834437390373,4393.913635253906,11.894,0.13,179.13169672015096,1.4486066034966592,87.75993780578764,1553.0,1814.0,1200.0,1528.0,1471.0,993.0,107.0,294.2,1649341335.359251,1649341336.4679124,eb04c2ad-8297-4977-b67d-51d6d375fb52
-0.1445523284512203,-0.0397703625242392,-0.4617383757403822,-1.0481967840945454,-0.6821631869105608,1.191447180061025,-0.5237213455720883,-0.5526221883910938,-21.05445374803399,25.284810471346127,22.62040575793026,5.179448156284753,-0.100416354711795,2.29699870102032,4389.600911458333,11.89,0.13,179.1411770227189,1.4981811125618656,87.680222098802,1553.0,1814.0,1200.0,1528.0,1471.0,993.0,107.0,294.2,1649341336.5779102,1649341337.6942418,eb04c2ad-8297-4977-b67d-51d6d375fb52
-0.1937021591254219,0.0206610467194133,-0.3389032306733432,0.2725374653727058,-0.4253822223259448,-0.143908042257461,-0.7630014042981731,-0.7842365582787285,-20.89105301662902,26.452897760966103,13.639168607529625,-0.7880158603373014,0.0498783881465009,2.126359890095708,4388.8515625,11.887999999999998,0.12,179.1397700037499,1.0437411640286296,87.5268251569624,1553.0,1349.0,1200.0,1528.0,1471.0,993.0,107.0,294.2,1649341339.5345104,1649341340.5576916,cd91ac85-a36a-40be-83cc-e29ecc0d6607
-0.1829859707438563,0.0136396428359672,-0.3454907286608141,0.2823858382609798,-0.4286562484398112,-0.1440000831785505,-0.7709695178215118,-0.7996336889160537,-21.11025864702956,26.51725635471531,13.881481269603388,-0.8104112939654052,0.0213186608973931,2.1505424245529885,4397.60888671875,11.957666666666666,0.1544444444444444,179.12295711365294,1.0337156914136183,87.67709842562158,1553.0,1349.0,1200.0,1528.0,1471.0,993.0,107.0,294.2,1649341340.6665182,1649341341.7909594,cd91ac85-a36a-40be-83cc-e29ecc0d6607
-0.1854928204515346,0.0258724819528731,-0.3316077259874286,0.2797940281165099,-0.4189201425077866,-0.1537463021134859,-0.7606725669719878,-0.7809771973544234,-21.008487927520555,26.58581926565597,13.95229472722272,-0.8252575510298765,0.0670516974932832,2.1052971283755904,4400.367296006944,11.961444444444444,0.15,179.11958603584264,1.0294163719223108,87.83599746429257,1553.0,1349.0,1200.0,1528.0,1471.0,993.0,107.0,294.2,1649341341.8999815,1649341343.019286,cd91ac85-a36a-40be-83cc-e29ecc0d6607
-0.1846821526831764,0.0372678501938254,-0.2985630243136599,0.5594025484521508,-0.3665286463097544,-0.4379523786795479,-0.8158065926792025,-0.8488361342993508,-21.15820939937947,27.954438560062982,11.64018023847731,-2.084360652498946,0.0990354360591828,2.067296585895515,4404.3558349609375,11.95675,0.14875,179.12889805013853,0.9517271767273184,88.05157151542156,1553.0,1264.0,1200.0,1528.0,1471.0,993.0,107.0,294.2,1649341344.1345985,1649341345.065183,afce58c8-cab0-463a-8e8b-376f43ce5649
-0.1850503162464537,0.0285239671455609,-0.3058737004996566,0.5589686415120102,-0.3723140737120098,-0.429169047742735,-0.8203823411470199,-0.8488098373626262,-21.162899372785468,27.98721470697822,11.56797466207542,-2.0638051639931003,0.0665042302791054,2.09047630775682,4389.600911458333,11.938,0.14,179.1177494738658,0.9299843634020672,88.18046060015428,1553.0,1264.0,1200.0,1528.0,1471.0,993.0,107.0,294.2,1649341345.1732645,1649341346.3989432,afce58c8-cab0-463a-8e8b-376f43ce5649
-0.1756621462842126,0.0366498614801466,-0.2996938123513021,0.5568911477020052,-0.3712095830147494,-0.4343101891084708,-0.8215657244009489,-0.8462326911971269,-21.33533993147156,28.43949289406977,11.7116503699204,-2.067429653580656,0.097583598497564,2.08309441441893,4387.853732638889,11.939444444444444,0.14,179.12218454336684,0.9336382537327432,88.30489298645358,1553.0,1264.0,1200.0,1528.0,1471.0,993.0,107.0,294.2,1649341346.5068965,1649341347.7316153,afce58c8-cab0-463a-8e8b-376f43ce5649
-0.1873644869887325,0.0420408269609357,-0.2693597660200956,0.7994845701271106,-0.3186673840058837,-0.6752075239288216,-0.8566727609841328,-0.8701764800791995,-21.08508083545379,28.88930059995615,9.949670172361568,-3.1516520884858776,0.1037103128761762,2.020451009648478,4375.4091796875,11.946333333333332,0.1433333333333333,179.11063697021007,0.8583836682023334,88.58304105675374,1553.0,1178.0,1200.0,1528.0,1471.0,993.0,107.0,294.2,1649341349.6619823,1649341351.0116825,99e50360-682f-4bff-a11a-5d7b83b33155
-0.1879167322799983,0.0411598643065361,-0.2696358886030479,0.7989191762505047,-0.3245054059875343,-0.6762725687020399,-0.8652457152712715,-0.8907541997927053,-21.289567242787022,29.63966336025739,9.559770088290716,-3.147974585476764,0.1053739794811515,2.0398726136018737,4373.1767578125,11.919666666666668,0.14,179.09882984986487,0.8604291319892423,88.68751563029825,1553.0,1178.0,1200.0,1528.0,1471.0,993.0,107.0,294.2,1649341351.1214716,1649341352.2367957,99e50360-682f-4bff-a11a-5d7b83b33155
-0.1740448565120058,0.0477736585466004,-0.2607342201433911,0.8020617143531727,-0.3133816072825076,-0.6796912309857085,-0.8551738088113772,-0.883522412810697,-21.34004472917657,29.30774268098552,10.483146195127398,-3.1643808883448914,0.1225249125891177,2.0004784856276667,4370.94677734375,11.921666666666669,0.1377777777777778,179.12002772140897,0.8418532230287271,88.75990121621213,1553.0,1178.0,1200.0,1528.0,1471.0,993.0,107.0,294.2,1649341352.3452046,1649341353.459898,99e50360-682f-4bff-a11a-5d7b83b33155
-0.18622055032637,0.0498774499395083,-0.2418132440557668,0.8992305712328132,-0.2919886754425309,-0.7833161497899721,-0.8696242337763058,-0.9054676006666116,-21.1840435005444,30.14296931666047,8.772307901767856,-3.6101442856432606,0.1337244754978613,1.9645833529919807,4379.134765625,11.919666666666666,0.14,179.1108828570202,0.8322374906161127,88.83474263458758,1553.0,1088.0,1200.0,1528.0,1471.0,993.0,107.0,294.2,1649341354.560379,1649341355.7159348,bb60184d-65d9-438c-a39b-f9afc7bbe8b2
-0.1880087731861328,0.0429217895947104,-0.2473619944554069,0.906173082374878,-0.2924094337157657,-0.7762684456818417,-0.8710048475453641,-0.889676006144756,-21.254953002158587,29.880956052355938,9.690448272645789,-3.611870303162368,0.0987899687973578,1.9752578377842,4375.905707465277,11.904666666666666,0.1322222222222222,179.09258250350402,0.7920642033348999,88.90044450094365,1553.0,1088.0,1200.0,1528.0,1471.0,993.0,107.0,294.2,1649341355.8333828,1649341356.9464824,bb60184d-65d9-438c-a39b-f9afc7bbe8b2
-0.1936101182641811,0.0562808649995955,-0.230965568403109,0.888921994169008,-0.2862821404704878,-0.7771888542834019,-0.8571198170678009,-0.8845743093637014,-20.895879485480783,30.246008461999725,9.272668358105062,-3.571673794724627,0.1532255778071244,1.9257700175014056,4375.1611328125,11.899555555555557,0.1288888888888889,179.09910305743165,0.8242141468464799,88.91623513939481,1553.0,1088.0,1200.0,1528.0,1471.0,993.0,107.0,294.2,1649341357.055464,1649341358.176149,bb60184d-65d9-438c-a39b-f9afc7bbe8b2
-0.1631314376413317,-0.0047948296050435,-0.3783493264307756,-0.0455163430310902,-0.4886669121021731,0.1882937725933575,-0.7045028303561728,-0.727171191802351,-20.8817334385824,25.460946621619204,15.76773257876622,0.6677415225557087,-0.0278862591174257,2.180582686370992,4376.402777777777,11.90577777777778,0.1322222222222222,179.0912453042465,1.122875795042234,88.91059719768992,1553.0,1435.0,1200.0,1528.0,1471.0,993.0,107.0,294.2,1649341360.1107204,1649341361.2533092,d14b85d0-8ba1-4898-ad99-7a1c619de464
-0.1660767458599686,-0.0060308070762677,-0.3843451330361367,-0.0422949123758736,-0.4922039122798874,0.1844675021207376,-0.7090391323740538,-0.7271843417849846,-20.82940759868304,25.238762324070148,15.43538466308059,0.6500785472318965,-0.0307271816746585,2.199569606639358,4388.853515625,11.958000000000002,0.1433333333333333,179.08322969780056,1.130097771452138,88.87299169393967,1553.0,1435.0,1200.0,1528.0,1471.0,993.0,107.0,294.2,1649341361.3703754,1649341362.4787276,d14b85d0-8ba1-4898-ad99-7a1c619de464
-0.1802378929681452,-0.0045318556730629,-0.3731029957030468,-0.0428208602452886,-0.4830392687413453,0.1852827212337223,-0.6997955953176062,-0.7218196703483829,-20.89607692262728,25.44224807347669,15.767792981522632,0.6550250061343084,-0.0267985620269839,2.15911738947531,4397.8583984375,11.958,0.1466666666666666,179.1025910073678,1.1542947838039654,88.85029269859798,1553.0,1435.0,1200.0,1528.0,1471.0,993.0,107.0,294.2,1649341362.5869083,1649341363.6253338,d14b85d0-8ba1-4898-ad99-7a1c619de464
-0.1085117496583509,0.0321530073357609,-0.1713625222045141,-0.0604401138018013,-0.3057553621998241,0.1556981557280884,-0.4976080278144714,-0.5134127657966623,-19.452785449270365,25.710773573855985,15.909646637822334,0.6408638016845951,0.1142826023642428,1.360167389630544,4406.90283203125,11.963666666666668,0.15,179.07416831350167,1.1345060063731789,88.77646518385933,1553.0,1435.0,1200.0,1424.0,1471.0,993.0,107.0,294.2,1649341365.639682,1649341366.7772267,4ac03a99-2ff1-45ec-a90f-997d3b53b8ca
-0.1146390424645833,0.0283661827860949,-0.1721514440368385,-0.0594408128873078,-0.3058868491751825,0.156934133115968,-0.4972004181301935,-0.5288098933583008,-19.401155556696214,25.700453713634165,15.687211839080168,0.6412698670118373,0.1015124944677277,1.3601186902221745,4406.90283203125,11.964666666666666,0.15,179.08416771044656,1.1431762674783408,88.75538949681038,1553.0,1435.0,1200.0,1424.0,1471.0,993.0,107.0,294.2,1649341366.8852406,1649341368.011275,4ac03a99-2ff1-45ec-a90f-997d3b53b8ca
-0.1169269157263158,0.0267488931313557,-0.1749652652928494,-0.059493407632929,-0.3074646929722378,0.1605631731867843,-0.499185871805585,-0.5188431784464629,-19.490488646890807,25.660003260773905,15.953277060797989,0.6491326293492139,0.0935482315253314,1.3690634186144215,4411.439453125,11.96622222222222,0.15,179.09493057075866,1.1353581673358764,88.76004616800452,1553.0,1435.0,1200.0,1424.0,1471.0,993.0,107.0,294.2,1649341368.1459472,1649341369.2351615,4ac03a99-2ff1-45ec-a90f-997d3b53b8ca
-0.0397177677657799,0.0686274907493267,0.0586607790096435,-0.058507255383848,-0.0975588850402026,0.1102299651881865,-0.2679791526404393,-0.282245490041592,-17.867151086536634,25.79395698431792,16.539398935244108,0.5472342631863125,0.2486255677440228,0.4424998969454125,4405.141818576389,11.964,0.15,179.06288787663243,1.1306233402792092,88.68357612896696,1553.0,1435.0,1200.0,1304.0,1471.0,993.0,107.0,294.2,1649341370.1447952,1649341371.2832005,4271f32d-9100-45d6-828b-2ac14ae11aad
-0.026542773722802,0.0676807846310413,0.0532303674709513,-0.0618338756575362,-0.0976640745998002,0.1127282174321311,-0.2661383348972864,-0.2938689396031236,-17.794763318868966,25.14313595017434,16.320965755062968,0.5557690590006438,0.246552750673724,0.4472904165188573,4408.918023003473,11.964777777777776,0.15,179.06936744942507,1.134967554034749,88.70347171110929,1553.0,1435.0,1200.0,1304.0,1471.0,993.0,107.0,294.2,1649341371.3921254,1649341372.5107815,4271f32d-9100-45d6-828b-2ac14ae11aad
-0.0306977618592268,0.075754084076346,0.059252470350818,-0.0610581025353408,-0.0948108073500441,0.1057988546362917,-0.2638241640540936,-0.2958675412216742,-17.736714734860406,25.28821490428501,16.591860108167765,0.5397819102152542,0.2743094640727779,0.4332472844567009,4412.701117621527,11.96388888888889,0.15,179.080699492168,1.14811837180357,88.69728811318072,1553.0,1435.0,1200.0,1304.0,1471.0,993.0,107.0,294.2,1649341372.6184845,1649341373.7398083,4271f32d-9100-45d6-828b-2ac14ae11aad
0.0264990678557011,0.1017096101811382,0.2538137229612373,-0.0549834046329504,0.0756225971055411,0.0606462321533138,-0.0776254605250779,-0.1035941371325821,-16.375173680544975,26.13226811131284,16.032487076563733,0.4404942883809961,0.3785800591859424,-0.3261941758471856,4409.169921875,11.959333333333332,0.15,179.0372306504702,1.1382386810386562,88.63094572686248,1553.0,1435.0,1200.0,1166.0,1471.0,993.0,107.0,294.2,1649341375.6739504,1649341376.811689,2b701688-4d85-4c22-b404-aa15c66adc65
0.0213184815159388,0.103103371953504,0.2504739542918904,-0.0569425604670625,0.0736765900733489,0.0586476302893661,-0.0782960440613862,-0.1079989505502023,-16.253536021527992,25.85367234208168,15.673523835936091,0.4384134039873572,0.3861528396193768,-0.318191817250923,4402.627387152777,11.948333333333332,0.14,179.0350100800801,1.1397223024764953,88.63524950494948,1553.0,1435.0,1200.0,1166.0,1471.0,993.0,107.0,294.2,1649341376.9197102,1649341378.0372713,2b701688-4d85-4c22-b404-aa15c66adc65
0.0240928564328002,0.0984618822522608,0.2488566647307793,-0.0503682121119822,0.0751755414360471,0.0607514217033318,-0.0803340920929667,-0.1002675167748173,-16.493600740967334,25.84550460990491,16.17370012192989,0.4281349984534853,0.365098391450173,-0.3150902058760689,4402.3759765625,11.948777777777776,0.14,179.04479546443093,1.1509302278756306,88.63404132037631,1553.0,1435.0,1200.0,1166.0,1471.0,993.0,107.0,294.2,1649341378.1494477,1649341379.2761614,2b701688-4d85-4c22-b404-aa15c66adc65
-0.2685445466404422,-0.0428866036316251,-0.6187470021923612,0.0094583573448049,-0.7107484635840581,0.1813907073339451,-0.9732754644141988,-0.9881597979081078,-22.75428407375711,26.77675371543496,14.711492681131656,0.5238614378951417,-0.1701248685143847,3.1859628750951656,4404.638671875,11.957,0.14,179.07346708074687,1.1449861964605903,88.74495296775859,1553.0,1435.0,1200.0,1623.0,1471.0,993.0,107.0,294.2,1649341380.1803796,1649341381.522375,3f2d9ec9-765b-481e-a06c-9da047b0e90d
-0.2505308304770351,-0.0431758749602198,-0.6136453063031696,0.02081883103629,-0.7012682497889072,0.179326362096117,-0.96476825269091,-0.9827951264704684,-22.653630586807022,26.38805589670657,15.92068424508138,0.491516857315267,-0.1837211360483669,3.155983835396176,4411.439453125,11.958777777777776,0.1422222222222222,179.09637249958348,1.1445194668673062,88.76222499834975,1553.0,1435.0,1200.0,1623.0,1471.0,993.0,107.0,294.2,1649341381.6305895,1649341382.7561047,3f2d9ec9-765b-481e-a06c-9da047b0e90d
-0.277154415198627,-0.0418812340493171,-0.6179965147854496,0.0159730306936616,-0.7048917284852974,0.1800915150455973,-0.9670187040078262,-0.9910150893418546,-22.61301049034768,26.197386515679792,15.552331772045363,0.5026482946144399,-0.175570701181402,3.1697557790966937,4413.963161892361,11.955777777777778,0.1488888888888889,179.1024619926835,1.149088697410502,88.73098826654555,1553.0,1435.0,1200.0,1623.0,1471.0,993.0,107.0,294.2,1649341382.8655586,1649341383.976016,3f2d9ec9-765b-481e-a06c-9da047b0e90d
-0.3241635398620858,-0.0609266155417813,-0.8186730098682565,0.0929394298775592,-0.8882953919000453,0.1356069484086216,-1.203483002285731,-1.228478695046633,-24.26011382370672,27.27990047326189,14.96401725466672,0.2253290695439897,-0.2523101241696121,4.0257215750385775,4406.90283203125,11.957,0.14,179.1287050972945,1.138857097749758,88.69853727888892,1553.0,1435.0,1200.0,1712.0,1471.0,993.0,107.0,294.2,1649341384.5311422,1649341385.6181462,4fbaf344-7e73-4ac2-af1b-12aeb95e0894
-0.3090293880987155,-0.0517882713000636,-0.7849991830677483,0.0997373057220279,-0.8578166980408892,0.1184084540961032,-1.1717551726838746,-1.1910969205339257,-23.9070534978009,27.227469229803788,14.932437900371166,0.1728492603832315,-0.2189578765290895,3.8945229179612384,4401.878146701389,11.909444444444444,0.1255555555555555,179.12776556682866,1.118218210784618,88.62236700926493,1553.0,1435.0,1200.0,1712.0,1471.0,993.0,107.0,294.2,1649341385.7268496,1649341386.7709656,4fbaf344-7e73-4ac2-af1b-12aeb95e0894
-0.319061844861992,-0.0567716273701431,-0.7936247318612354,0.0896128097677165,-0.8649564438398957,0.1359619632090806,-1.1764229636558288,-1.199157078308278,-24.12020343240135,27.18536542015377,15.358538720169964,0.2343847442019986,-0.2392173753197474,3.922428459914144,4394.10107421875,11.902,0.13,179.1370880161358,1.1188118087701415,88.58305016367262,1553.0,1435.0,1200.0,1712.0,1471.0,993.0,107.0,294.2,1649341386.8794594,1649341387.8329575,4fbaf344-7e73-4ac2-af1b-12aeb95e0894
-0.3558519030979447,-0.0707618407525607,-0.9125941960957648,0.1606946601114872,-0.9716318765150832,0.0886135088553412,-1.3212165324554228,-1.3480924936592904,-24.89004865528424,27.879591177553976,14.96431439659018,-0.0341289347639922,-0.2990283592531558,4.433599043532478,4393.35009765625,11.896444444444446,0.1277777777777777,179.16394128431267,1.106374662763816,88.44016184732605,1553.0,1435.0,1200.0,1801.0,1471.0,993.0,107.0,294.2,1649341389.6011136,1649341390.73625,559ac3d3-5a37-4f90-9b0a-633fddebb517
-0.3570352859669182,-0.0739569740827251,-0.9059015059439224,0.1620358271029836,-0.968331551756202,0.0874827209704133,-1.3200331484790917,-1.3440295422185085,-25.05012701946192,28.41505381906083,14.559057850357808,-0.0359575920475476,-0.3060190424110991,4.417017980813397,4384.361328125,11.88,0.12,179.1454663815177,1.106445075373697,88.32288370472739,1553.0,1435.0,1200.0,1801.0,1471.0,993.0,107.0,294.2,1649341390.8469093,1649341392.1679506,559ac3d3-5a37-4f90-9b0a-633fddebb517
-0.350631869813203,-0.0663044325485954,-0.8976835661946623,0.1523978330186302,-0.9632167057174232,0.0866412043758293,-1.31232800529043,-1.33784964949139,-25.01301445942845,28.418858289350045,14.304907407661522,-0.0156950515693702,-0.2736198221234414,4.388386323948103,4372.185655381944,11.874777777777776,0.12,179.15482222286084,1.108011299411811,88.2561861485723,1553.0,1435.0,1200.0,1801.0,1471.0,993.0,107.0,294.2,1649341392.276292,1649341393.4017437,559ac3d3-5a37-4f90-9b0a-633fddebb517
-0.1953669865766616,-0.0291876846061455,-0.4282633048315662,-0.0551690037465782,-0.4990892796174999,0.2038855970428393,-0.7157899793007432,-0.731302919497389,-21.333117206188657,21.80709512813453,13.135316580713216,0.6971984282882282,-0.0948862740450058,2.2733220506127627,7487.416015625,11.65622222222222,7.558888888888889,179.0081158307682,0.9002477830421436,76.86607769074938,1553.0,1435.0,1350.0,1528.0,1471.0,993.0,107.0,294.2,1649341397.5328658,1649341398.7254045,fdf0dc3f-268d-43b6-8c62-f6a92a04d56a
-0.1908534432960956,-0.0199835969875387,-0.3871483346164733,-0.0284291060459322,-0.4686449829998643,0.2124448922558623,-0.6923119613872679,-0.7204425968383296,-21.792946632081417,23.396828580091665,19.362761430177567,0.6694606600328009,-0.1129632994199018,2.151541282322115,7492.50537109375,11.658111111111111,7.562222222222222,179.0025074865497,0.8614743880916005,72.17988034774417,1553.0,1435.0,1350.0,1528.0,1471.0,993.0,107.0,294.2,1649341398.835109,1649341399.9551451,fdf0dc3f-268d-43b6-8c62-f6a92a04d56a
-0.201183768022594,-0.0172203478256222,-0.4107740178689794,-0.054404862099964,-0.4854849269068558,0.2005352082866638,-0.7006239634609197,-0.7265137577647225,-21.20829493915944,21.89005542746473,14.549200599955377,0.6896549582769417,-0.0624001124553686,2.212861582591288,7492.50537109375,11.660444444444444,7.59,178.9894466470368,0.8367921536464699,67.71593128905192,1553.0,1435.0,1350.0,1528.0,1471.0,993.0,107.0,294.2,1649341400.0635188,1649341401.1857033,fdf0dc3f-268d-43b6-8c62-f6a92a04d56a
0.0258021869602211,0.3590032861928645,-0.3935097763395656,-0.2975242774441407,-0.5663099850842106,0.0826177033329853,-0.755611834017785,-0.7908635056645084,-21.317705638151303,21.6191155104734,18.22136486446773,0.9726902566513018,1.3479184096080072,2.4263115373386004,7500.519856770833,11.649555555555557,7.661111111111111,178.86242789577182,0.8868097949500154,60.4367702586871,1658.0,1435.0,1350.0,1528.0,1551.0,993.0,107.0,294.2,1649341403.026722,1649341404.2550564,2d6600d8-ed53-450b-bd0e-4a6d4aca52a0
0.0230804067934209,0.3527050611501531,-0.3803742262603194,-0.2874392259008411,-0.552030496714259,0.080960967703252,-0.7404513807445622,-0.7655522527499931,-21.095186650751604,21.59615006466004,18.536589556231903,0.9468820260623636,1.319518121875695,2.367307877856249,7499.060546875,11.617111111111113,7.643333333333333,178.86330064216577,0.923492339743774,58.1118656933136,1658.0,1435.0,1350.0,1528.0,1551.0,993.0,107.0,294.2,1649341404.363323,1649341405.4915912,2d6600d8-ed53-450b-bd0e-4a6d4aca52a0
0.0278665322697755,0.3536912132903771,-0.3716960851180383,-0.2934876271249688,-0.5423924996480989,0.0787256893469812,-0.729761486212321,-0.7477357620211537,-21.126317509627,21.36652801068808,17.642461937516053,0.9542544899899148,1.3326527003535338,2.3260088576897,7476.531467013889,11.621,7.714444444444445,178.8641840132984,0.9756619175226968,56.286934010824666,1658.0,1435.0,1350.0,1528.0,1551.0,993.0,107.0,294.2,1649341405.6230838,1649341406.7092254,2d6600d8-ed53-450b-bd0e-4a6d4aca52a0
0.2459113569204183,0.7441154154443974,-0.3527356618306828,-0.5775652725196194,-0.6306334278994106,-0.0227559491435734,-0.777412382100692,-0.8039070176027235,-20.89705445848121,21.03808248315395,20.30175659725249,1.366327376385696,2.807961363412225,2.536992149921005,7464.955295138889,11.617777777777778,7.714444444444445,178.60471575146832,1.0672230698039182,54.13228215579748,1767.0,1435.0,1350.0,1528.0,1630.0,993.0,107.0,294.2,1649341407.6239522,1649341408.7580526,8c290fc7-f20a-4853-a9e5-70d8b5dc0d3b
0.2506448873066936,0.744878039753914,-0.3568117582402337,-0.5836794183408011,-0.6354852984138704,-0.019731748971188,-0.7770047721719472,-0.8023423222355943,-20.55712067586634,20.83375899157288,20.024212783820257,1.3854845973885015,2.8113664785608545,2.5485451905237104,7459.90087890625,11.58788888888889,7.664444444444445,178.62128579039484,1.1339829632931442,52.9873914278317,1767.0,1435.0,1350.0,1528.0,1630.0,993.0,107.0,294.2,1649341408.8664172,1649341409.915254,8c290fc7-f20a-4853-a9e5-70d8b5dc0d3b
0.2560095550921234,0.7505714246838545,-0.3498297994488297,-0.5845603813854118,-0.6283192566161531,-0.0273842903892376,-0.7711273024741794,-0.7934012048586504,-20.607052115625656,20.684268841546128,19.66584482504606,1.3695499583581945,2.836798291339197,2.521101504295703,7461.344997829861,11.589888888888886,7.706666666666667,178.63669317934256,1.157923558959881,52.13634871888326,1767.0,1435.0,1350.0,1528.0,1630.0,993.0,107.0,294.2,1649341410.024057,1649341411.2184613,8c290fc7-f20a-4853-a9e5-70d8b5dc0d3b
0.425430494361967,1.0660612175392177,-0.3325918558352667,-0.8265622321751402,-0.7034377860416384,-0.1091954819969101,-0.8118488338054103,-0.8272328154779616,-20.48348862486376,20.90145257371492,20.207083603290947,1.7340527188149173,4.045297377716389,2.694710273219658,7466.3994140625,11.565333333333337,7.703333333333333,178.40053862987943,1.3031022298342314,50.44652500836634,1886.0,1435.0,1350.0,1528.0,1710.0,993.0,107.0,294.2,1649341413.1538048,1649341414.2931166,3ae548b4-1216-4915-8c7a-39398e495086
0.4442462771472948,1.0670210722620843,-0.3299884134385041,-0.8106917479349611,-0.6981257104871733,-0.1124826561829905,-0.812269591888265,-0.8320978355847953,-20.68974526353,20.92975741145234,21.959113392435096,1.6913588049332682,4.033040582576461,2.6870958484636067,7460.622938368056,11.525222222222222,7.707777777777778,178.36107076121547,1.325038105689733,49.968220521168696,1886.0,1435.0,1350.0,1528.0,1710.0,993.0,107.0,294.2,1649341414.4011624,1649341415.518874,3ae548b4-1216-4915-8c7a-39398e495086
0.4184616859367441,1.0615117688694489,-0.345753702834059,-0.8254051465456378,-0.712392051578305,-0.1078148687912138,-0.822617620769133,-0.8449178208699533,-20.598121651042984,20.644881511720783,19.83291427472016,1.7320714785600957,4.031380572660637,2.7391368756811265,7459.90087890625,11.522888888888888,7.700000000000001,178.3628830380752,1.3328904990736552,49.5504797007965,1886.0,1435.0,1350.0,1528.0,1710.0,993.0,107.0,294.2,1649341415.6270304,1649341416.7454598,3ae548b4-1216-4915-8c7a-39398e495086
-0.430222966460953,-0.4716413691375955,-0.4088942597038073,0.2761907797461724,-0.3723560486161536,0.3334761056617999,-0.6331175207091742,-0.6573541165085678,-21.62873116848686,23.832851599480367,13.67460053253644,0.255269710381603,-1.7965792098076223,1.905687628610512,7468.569173177083,11.566,7.729999999999999,179.28812171252258,1.286377978042926,48.8448058052282,1449.0,1435.0,1350.0,1528.0,1386.0,993.0,107.0,294.2,1649341418.682646,1649341419.8184702,34fb50f6-da89-4184-bf30-d6dbe3684d54
-0.4697449221034502,-0.4972686902233486,-0.4031669898837316,0.3161425851202929,-0.3596624971829557,0.3393424466555619,-0.6328773040406704,-0.6656858423013472,-22.16670196680605,24.47360034483559,16.18542288470513,0.1829928966572811,-1.9156879525807848,1.880401131243886,7504.16943359375,11.640777777777778,7.732222222222223,179.30123264008938,1.2956729524398307,48.64462624157851,1449.0,1435.0,1350.0,1528.0,1386.0,993.0,107.0,294.2,1649341419.9301512,1649341421.0500362,34fb50f6-da89-4184-bf30-d6dbe3684d54
-0.443675097126496,-0.5056004143197583,-0.4216636692991665,0.3113256110950549,-0.3760351556270056,0.342111258465239,-0.6469995144564247,-0.6645606160266416,-21.998797375713057,24.28448844619804,14.664651408364984,0.1977481420834537,-1.9352295372352144,1.9450210581168377,7528.335503472223,11.641333333333334,7.680000000000001,179.30386150400992,1.2984326690296333,48.47395802805768,1449.0,1435.0,1350.0,1528.0,1386.0,993.0,107.0,294.2,1649341421.1586692,1649341422.2827206,34fb50f6-da89-4184-bf30-d6dbe3684d54
-0.711879251944853,-0.9432438242170972,-0.4433827916537549,0.6334428498794001,-0.2938820879104289,0.4681637535485177,-0.6108840792698771,-0.6343019154672122,-22.34581264289932,26.60864881952737,13.821181731919737,-0.2315961021532633,-3.607723657083041,1.758793742033815,7534.21728515625,11.626666666666669,7.683333333333334,179.5149295275615,1.3029613216086977,48.298966684247176,1342.0,1435.0,1350.0,1528.0,1293.0,993.0,107.0,294.2,1649341423.1886666,1649341424.326264,23b3f420-3926-438b-ab76-73b39b462534
-0.7043450460276938,-0.9361172266728712,-0.4452367582420152,0.6240283842767831,-0.298444686218547,0.4690578648166898,-0.6127380460744277,-0.6464250176426457,-22.270423331877083,26.5915699293778,13.694155313461756,-0.2085380197789769,-3.5793610374456915,1.770835323722291,7532.00927734375,11.593777777777778,7.662222222222222,179.529556757124,1.3243146748201426,48.19867977557379,1342.0,1435.0,1350.0,1528.0,1293.0,993.0,107.0,294.2,1649341424.4352105,1649341425.5551994,23b3f420-3926-438b-ab76-73b39b462534
-0.7092758091234187,-0.9335006346288568,-0.4466042230558699,0.6165993716189652,-0.2976557643184882,0.4713720351562289,-0.6113179864062799,-0.6447419847732921,-22.39688166178555,26.26824357842746,13.42003913823406,-0.1888985492640842,-3.5654002036010666,1.7695120429680935,7525.396484375,11.589777777777776,7.67111111111111,179.53604999029497,1.3188504167624266,48.12887258607158,1342.0,1435.0,1350.0,1528.0,1293.0,993.0,107.0,294.2,1649341425.6640005,1649341426.7806628,23b3f420-3926-438b-ab76-73b39b462534
-0.950804329027932,-1.36506747623298,-0.4693251753696861,0.9737179296368588,-0.2191711864946828,0.5677519697696064,-0.5924890472733183,-0.6208244973219386,-22.82496101079333,29.30438495369169,13.70739469648464,-0.7590660215135405,-5.22891306921835,1.6165474235863004,7525.396484375,11.543,7.66,179.69108238298583,1.2977194537988797,48.11531200438443,1227.0,1435.0,1350.0,1528.0,1189.0,993.0,107.0,294.2,1649341427.6940467,1649341428.8329833,d8683014-d319-4e07-8bd9-4217f6838666
-0.9389047520494612,-1.3514585624257438,-0.47077153230571,0.948656516417562,-0.2233524723199115,0.5630578856580357,-0.5903195116817874,-0.6068211308593605,-22.62090973178064,28.83817007379241,11.66355860985476,-0.7164675458949834,-5.15821512704725,1.6200034031092791,7512.20556640625,11.487222222222222,7.649999999999999,179.67247011749754,1.3339064185648908,48.101367793738895,1227.0,1435.0,1350.0,1528.0,1189.0,993.0,107.0,294.2,1649341428.9452484,1649341430.060043,d8683014-d319-4e07-8bd9-4217f6838666
-0.9456647029754826,-1.3410741165803135,-0.4608316212839075,0.954410587777254,-0.2174542699866364,0.5600382372774989,-0.5848845469614236,-0.6134703281207071,-22.55038791067843,29.10003411013819,13.488541970278677,-0.7336755928957679,-5.136014929975587,1.5945052068324066,7512.20556640625,11.496222222222222,7.644444444444446,179.67092194128568,1.3326572291407517,48.056673312540056,1227.0,1435.0,1350.0,1528.0,1189.0,993.0,107.0,294.2,1649341430.168495,1649341431.2870054,d8683014-d319-4e07-8bd9-4217f6838666
-0.1829070785565864,-0.0274105876804917,-0.3988087020396245,-0.0380215860674852,-0.4718102796751177,0.2110278674201354,-0.6906835454216019,-0.7069747865611725,-21.486883429640788,22.29568259718992,16.845626079622573,0.6797872810595469,-0.1202528033177976,2.165561374014699,7505.62744140625,11.540666666666668,7.66,179.23476427472644,1.3898747673190717,48.13903552810161,1553.0,1435.0,1350.0,1528.0,1471.0,993.0,107.0,294.2,1649341432.2001,1649341433.3377562,6c8d44d9-7df3-45e4-8838-72e2c64b2dcd
-0.1866807547516871,-0.0220196220776187,-0.4079470476782804,-0.0501841305155408,-0.4799756219362653,0.2050057648114354,-0.696929178462715,-0.7198473661782171,-21.39637963670131,21.85839531127544,15.094914461273197,0.6901031577425221,-0.0842467242644186,2.1963510900452645,7512.20556640625,11.651,7.720000000000001,179.23439089105182,1.456713753450249,48.16047663027114,1553.0,1435.0,1350.0,1528.0,1471.0,993.0,107.0,294.2,1649341433.4460592,1649341434.7676315,6c8d44d9-7df3-45e4-8838-72e2c64b2dcd
-0.1995401808594326,-0.0198895332288635,-0.4058695532084762,-0.0401779722351254,-0.4759652685392396,0.203480516136351,-0.6955354160908993,-0.7141539775026021,-21.45092125164068,21.77654093873749,16.49843653427351,0.6638613762613157,-0.0894126029590235,2.1883930417772164,7512.20556640625,11.64911111111111,7.71111111111111,179.21998829882196,1.4258704334274694,48.08824813870817,1553.0,1435.0,1350.0,1528.0,1471.0,993.0,107.0,294.2,1649341434.8760688,1649341436.0055585,6c8d44d9-7df3-45e4-8838-72e2c64b2dcd
-0.1624214080150754,-0.0236237630742785,-0.4444609850235021,-0.3673833118956301,-0.5495716898085413,0.5056243858063406,-0.6495807056479785,-0.6734587475583302,-21.26847237699484,21.314243506831065,16.130856107735312,2.075961099312856,-0.0636200579635557,2.272300379484407,7499.060546875,11.646,7.725555555555555,179.2471405775025,1.518940037730075,48.16070923615788,1553.0,1522.0,1350.0,1528.0,1471.0,993.0,107.0,294.2,1649341438.1391497,1649341439.275745,49f6ba86-651b-4460-9ac0-273cdefaef60
-0.1540588365185921,-0.0195871132155247,-0.4289981148400157,-0.3430582196118448,-0.5293226918954206,0.4859144919118634,-0.6350908373283696,-0.6480423080854777,-21.130983423254584,20.91050489550531,17.19427911319202,1.975131127393952,-0.0608998941534127,2.2054758683207045,7493.233723958333,11.638666666666666,7.73,179.25679239370962,1.5164678887054843,48.170526874179856,1553.0,1522.0,1350.0,1528.0,1471.0,993.0,107.0,294.2,1649341439.3842058,1649341440.5150044,49f6ba86-651b-4460-9ac0-273cdefaef60
-0.18942883247352,-0.024307495277327,-0.4317856390151554,-0.3511446692127252,-0.5347136588447827,0.5007988147218319,-0.638811919621451,-0.6634262880054516,-21.342052733666755,21.329269615442968,17.564951325744392,2.0294093194523986,-0.0795695557946674,2.221477547167183,7492.50537109375,11.645666666666669,7.7444444444444445,179.2580931652916,1.510015767107186,48.16847136669464,1553.0,1522.0,1350.0,1528.0,1471.0,993.0,107.0,294.2,1649341440.629428,1649341441.7322505,49f6ba86-651b-4460-9ac0-273cdefaef60
-0.1671417903638675,-0.0318811445335032,-0.4759258224541897,-0.7101304748386816,-0.6141975519056784,0.8693961818246517,-0.5856122769661011,-0.5992080342437963,-21.63688148690122,20.908213001471506,21.95496632411992,3.6630431076104073,-0.1034037686934165,2.316254780328196,7505.62744140625,11.636875,7.73625,179.28116345730564,1.5912539437138251,48.25232175715348,1553.0,1613.0,1350.0,1528.0,1471.0,993.0,107.0,294.2,1649341442.6475115,1649341443.7794647,23b277e2-f6ee-49aa-b891-6f9f78abe951
-0.1745182096195469,-0.0370222849212187,-0.4794628229000013,-0.7115373858275146,-0.618260500671839,0.8724335303921213,-0.5898593074337726,-0.6135006709818918,-21.701495484572064,21.09960606362092,21.454842763132845,3.67402248298696,-0.1178440266506088,2.3311933188176126,7512.20556640625,11.61588888888889,7.708888888888889,179.3079004225391,1.621485509720885,48.28438574818902,1553.0,1613.0,1350.0,1528.0,1471.0,993.0,107.0,294.2,1649341443.888492,1649341445.215869,23b277e2-f6ee-49aa-b891-6f9f78abe951
-0.1734794625007646,-0.0387973589805521,-0.4757285921052097,-0.7042267080416182,-0.6163407902151004,0.875957380709547,-0.5888863035768468,-0.6125013699531874,-21.72059141831742,21.45559074731151,22.678741232596984,3.6681812365314137,-0.1358711918661736,2.323519146455546,7512.20556640625,11.628888888888888,7.71,179.31299574365994,1.614649000254296,48.31264148187545,1553.0,1613.0,1350.0,1528.0,1471.0,993.0,107.0,294.2,1649341445.324442,1649341446.4450293,23b277e2-f6ee-49aa-b891-6f9f78abe951
-0.1652220805718725,-0.0421239792245868,-0.5351870120393009,-1.07223261709007,-0.7112744118760236,1.2301700896993168,-0.5514256564268123,-0.5714511271207634,-21.88484174210398,20.77060865216408,24.319221196756462,5.286953018882286,-0.1201966089005631,2.4793853487124924,7512.20556640625,11.629,7.720000000000001,179.30335303437172,1.7143198519520786,48.49942476783302,1553.0,1710.0,1350.0,1528.0,1471.0,993.0,107.0,294.2,1649341448.0266764,1649341449.115852,8bd1aca9-4c69-4205-82ad-030987551b86
-0.1638809134346026,-0.037469340606137,-0.5318209448923806,-1.0807924243693543,-0.7116031294476736,1.227566647910963,-0.5475467899478259,-0.5683348851392178,-21.617756628302963,20.79115151709724,23.503658527880443,5.300719792867136,-0.0961333009136547,2.46923830169208,7512.20556640625,11.601,7.694444444444445,179.3134981420189,1.711956179612431,48.48404849419151,1553.0,1710.0,1350.0,1528.0,1471.0,993.0,107.0,294.2,1649341449.2301986,1649341450.2739403,8bd1aca9-4c69-4205-82ad-030987551b86
-0.1454990346334448,-0.0372589614582218,-0.5285469185997155,-1.0776367351405398,-0.7088944968545667,1.228040000964785,-0.5467315705397529,-0.5741466108412897,-21.754533107138464,20.97036777342825,24.02734949655461,5.296030719070384,-0.0991955784380529,2.460548029670308,7512.20556640625,11.604777777777777,7.701111111111111,179.28849054273778,1.7190200893181051,48.48219978965616,1553.0,1710.0,1350.0,1528.0,1471.0,993.0,107.0,294.2,1649341450.3908637,1649341451.5648544,8bd1aca9-4c69-4205-82ad-030987551b86
-0.1478263540667622,-0.0215199716232592,-0.5377510086008092,-1.3274227236330578,-0.7544415997279511,1.4561304410336566,-0.5015526379272717,-0.5162791816291628,-21.69851006150213,21.316415413121405,26.07911971003757,6.3742273391548565,-0.0285697222058477,2.4733111119441573,7512.20556640625,11.57522222222222,7.688888888888887,179.25981892642187,1.7596655252836624,48.52007242969397,1553.0,1814.0,1350.0,1528.0,1471.0,993.0,107.0,294.2,1649341453.7042167,1649341454.8409357,088f7196-56d2-4456-9aee-11440f119cc0
-0.1431717152261583,-0.0294749330665719,-0.5435627339385877,-1.3145501381956683,-0.7552831165222321,1.448477899320081,-0.5047872180534443,-0.5354631350054501,-21.538709344873524,21.02104143149438,25.536486660622487,6.325740143027121,-0.0566856838935725,2.4856026227589583,7512.20556640625,11.562333333333331,7.67111111111111,179.27867480199055,1.7466615565819967,48.55029677568118,1553.0,1814.0,1350.0,1528.0,1471.0,993.0,107.0,294.2,1649341454.9523413,1649341456.070946,088f7196-56d2-4456-9aee-11440f119cc0
-0.1523100598321412,-0.030934438374582,-0.5512021289488004,-1.3309465780449523,-0.7659467142896621,1.4678327814655705,-0.510783025240285,-0.5289545286739874,-21.68078105248373,21.27772290165732,25.88323269368734,6.407524438316275,-0.062688559956038,2.519040904525843,7512.20556640625,11.552444444444443,7.680000000000001,179.2722483528915,1.7520710189727775,48.57925146539268,1553.0,1814.0,1350.0,1528.0,1471.0,993.0,107.0,294.2,1649341456.1800225,1649341457.2994373,088f7196-56d2-4456-9aee-11440f119cc0
-0.1853790336407841,-0.0257932980004183,-0.3498297994169785,0.373164430936447,-0.3851735013218739,-0.1919928285273661,-0.7592540245403296,-0.7827507550251863,-21.73180799092216,23.613346013098507,13.516559962155911,-1.1428691369908088,-0.1304464906099822,2.0768186461574616,7518.794921875,11.5715,7.675,179.23365436898632,1.1561409581455413,48.60078392134236,1553.0,1349.0,1350.0,1528.0,1471.0,993.0,107.0,294.2,1649341459.0318098,1649341460.1626253,8f681231-b7b9-4fdb-b9df-4b120ac66c1c
-0.2250779859150343,-0.0351045980890552,-0.3661989175847546,0.3670811365015879,-0.4007521807499434,-0.1841020928962955,-0.7714064594668419,-0.7978302937448447,-21.56929214417373,23.57938957572651,12.435369448473637,-1.1125458944183673,-0.1572265170663261,2.135075415160554,7518.794921875,11.653666666666668,7.720000000000001,179.21724256277565,1.1271092079512377,48.6650249809897,1553.0,1349.0,1350.0,1528.0,1471.0,993.0,107.0,294.2,1649341460.2713995,1649341461.3981333,8f681231-b7b9-4fdb-b9df-4b120ac66c1c
-0.2001581696646092,-0.0285282268944332,-0.3537218141835581,0.3723360631134587,-0.3897492485148223,-0.1866676060377358,-0.7614893038743464,-0.7830531754916719,-21.59597293075007,23.671324960443968,13.759036810777928,-1.1287364749467657,-0.1439583700289663,2.091613784712187,7518.794921875,11.650777777777778,7.712222222222222,179.23421937741264,1.1140326329157386,48.749782316220205,1553.0,1349.0,1350.0,1528.0,1471.0,993.0,107.0,294.2,1649341461.505994,1649341462.6272066,8f681231-b7b9-4fdb-b9df-4b120ac66c1c
-0.2227739295384674,-0.0189296783890225,-0.3130265926035875,0.6977399682701539,-0.3247946775458326,-0.5111511885574349,-0.8218155499675192,-0.8403946670830922,-21.907043962071835,25.22561181315715,11.473787470072695,-2.5801168577656246,-0.1229601516474359,2.03349897168038,7518.794921875,11.62722222222222,7.7155555555555555,179.22355972884796,0.9854123801598764,48.848711914523534,1553.0,1264.0,1350.0,1528.0,1471.0,993.0,107.0,294.2,1649341463.739734,1649341464.8801167,ecc6ddca-1993-4c66-a366-ce94547536cb
-0.2178037218481245,-0.0230978151943529,-0.3239794584058736,0.6965828831169951,-0.3340382125994258,-0.5058917086680076,-0.8301123814280913,-0.849559313321195,-21.87666743234001,25.12103782783166,11.416433977021814,-2.5669204684620217,-0.1388535387665547,2.0723006621831828,7512.20556640625,11.624555555555554,7.720000000000001,179.20721280943442,0.960212646234428,48.98459701024112,1553.0,1264.0,1350.0,1528.0,1471.0,993.0,107.0,294.2,1649341464.9915702,1649341466.11332,ecc6ddca-1993-4c66-a366-ce94547536cb
-0.2092307709924136,-0.0155110172794868,-0.3135130944067851,0.6935192371841302,-0.3261489934926853,-0.5117165826766472,-0.8201325160125356,-0.8429586642390194,-21.695780614659675,25.067649177328025,11.32255452581758,-2.5728555793562804,-0.1098068484528954,2.033986394911276,7512.20556640625,11.626555555555557,7.721111111111112,179.19545881278276,0.9728406106506912,49.01784067929643,1553.0,1264.0,1350.0,1528.0,1471.0,993.0,107.0,294.2,1649341466.225333,1649341467.3352685,ecc6ddca-1993-4c66-a366-ce94547536cb
-0.2363555228174883,-0.0125874551884575,-0.3049310402367686,0.950503908066729,-0.2942350799839982,-0.7955924856876314,-0.8907182935928356,-0.9146514623307496,-21.688181381263995,25.78904907650654,4.771601020865392,-3.786287951579472,-0.0719185855041284,2.072396026835831,7518.794921875,11.614666666666668,7.706666666666667,179.19188434711708,0.8745546390969653,49.05521888952933,1553.0,1178.0,1350.0,1528.0,1471.0,993.0,107.0,294.2,1649341469.0644538,1649341470.2072296,96f7d5f7-2683-4fd6-93ba-71dfcb476c5b
-0.2264161188226983,-0.02016565586293,-0.2816012042172495,0.9828957189416327,-0.271134840471152,-0.7818434946911751,-0.8750546483278947,-0.899366600601046,-22.118967999667618,26.667478606194926,10.049477819129688,-3.82085075967869,-0.1465643731005056,1.9929790856128573,7512.20556640625,11.59988888888889,7.695555555555556,179.17129512131908,0.8475491798386783,49.11663784782085,1553.0,1178.0,1350.0,1528.0,1471.0,993.0,107.0,294.2,1649341470.315915,1649341471.4315822,96f7d5f7-2683-4fd6-93ba-71dfcb476c5b
-0.2143719117622103,-0.0188376375146707,-0.2921333111950754,0.9542052658104744,-0.2850593115937714,-0.7752165486606001,-0.8816289996748701,-0.899471790333198,-22.012576186318565,26.56298135310857,7.35726484658855,-3.742833246955883,-0.1156125390719275,2.0318909060411414,7512.20556640625,11.593555555555556,7.704444444444444,179.1805462330949,0.835279800353841,49.21660980888251,1553.0,1178.0,1350.0,1528.0,1471.0,993.0,107.0,294.2,1649341471.5403166,1649341472.8609557,96f7d5f7-2683-4fd6-93ba-71dfcb476c5b
-0.2164494059755965,-0.009567806448538,-0.2557640128831351,1.0837725107199576,-0.2445876196833,-0.8961320199383441,-0.8880587160208286,-0.91452705591304,-22.089417927799,27.6262505600935,8.522521160932255,-4.297811859474065,-0.1042576560940584,1.9397572644508487,7505.62744140625,11.584444444444443,7.711111111111112,179.1900887662753,0.7822807636906337,49.31896740323928,1553.0,1088.0,1350.0,1528.0,1471.0,993.0,107.0,294.2,1649341474.526867,1649341475.7325668,786e3b68-1ff7-4c72-bab8-5b3eac042e79
-0.2347918392285372,-0.0104224717283693,-0.2483744445035853,1.0887821635358117,-0.2386049619931615,-0.8906621587724349,-0.8822732864550089,-0.9117921256572696,-22.13890014618308,27.89431545466441,9.883788387608844,-4.294483828943638,-0.1193216146850681,1.91501448929893,7505.62744140625,11.574,7.699999999999999,179.16490509989555,0.7732063712016122,49.3539087537583,1553.0,1088.0,1350.0,1528.0,1471.0,993.0,107.0,294.2,1649341475.8404052,1649341476.9602687,786e3b68-1ff7-4c72-bab8-5b3eac042e79
-0.2216825876928783,-0.016378831261613,-0.2639293544621764,1.066442529846482,-0.2511093739265954,-0.8780394037557587,-0.8886767052114689,-0.91263364301215,-22.13289960390646,27.392006888492507,7.846887199001368,-4.220152140790862,-0.1218951809978279,1.9587869962547784,7505.62744140625,11.552,7.680000000000001,179.1693265090183,0.7652885989149315,49.355749489739615,1553.0,1088.0,1350.0,1528.0,1471.0,993.0,107.0,294.2,1649341477.0690048,1649341478.194419,786e3b68-1ff7-4c72-bab8-5b3eac042e79
-0.2104473113142753,-0.0314821101742279,-0.4016465341835546,-0.0237358129577061,-0.469205122026705,0.1967049360658145,-0.6950626346146968,-0.7191876456102598,-21.6289294776475,22.050417622091526,16.08884275505776,0.613417203527522,-0.1297537170143064,2.170682775933097,7507.089246961806,11.567444444444444,7.687777777777778,179.15983558171158,0.9776573881194311,49.42119218836218,1553.0,1435.0,1350.0,1528.0,1471.0,993.0,107.0,294.2,1649341479.100068,1649341480.2432797,52059b23-936f-4b4f-8119-eec68a0cc5ea
-0.1932682521587538,-0.0331691689381618,-0.3959636523988903,-0.0212531629613257,-0.4655421851456413,0.1987135660617408,-0.692302479264284,-0.7160249284460777,-21.715933116392048,22.385688012983746,16.493078136096702,0.614856772728408,-0.1389878677034282,2.1542067842118664,7517.330620659723,11.65188888888889,7.717777777777779,179.159856831189,1.1328160088722932,49.3579476722875,1553.0,1435.0,1350.0,1528.0,1471.0,993.0,107.0,294.2,1649341480.3557942,1649341481.4673543,52059b23-936f-4b4f-8119-eec68a0cc5ea
