raw_voltage_G-,raw_voltage_G0,raw_voltage_G1,raw_voltage_G2,raw_voltage_G3,raw_voltage_G4,raw_voltage_G5,raw_voltage_G6,load_x,load_y,load_z,load_l,load_m,load_n,rpm,voltage,current,roll,pitch,yaw,aileron1_pwm,elevator_pwm,throttle_pwm,rudder_pwm,aileron2_pwm,pbaro,pdiff,Tt,sample_start_time,sample_end_time,uid
-0.3290791300686307,-0.1090913037205138,-0.7148796845121969,-0.0274808827223333,-0.7733787646232788,0.2934737285572779,-1.049767042467908,-1.0681878728686611,-26.173586297983704,26.244067528643125,15.947109109068029,0.8492105954671434,-0.4067383249740015,3.502450235922097,3949.1943359375,11.965111111111112,0.1622222222222222,179.16883777103766,0.8461232651987489,92.6232869193833,1553.0,1435.0,1200.0,1528.0,1471.0,993.0,107.0,294.2,1649342698.6569035,1649342699.6379397,856d0480-dafa-415a-8ff7-f453f79041d4
-0.3396132603657631,-0.1168217261346918,-0.7310763564109198,-0.0226770569296333,-0.783934138259425,0.297138674567363,-1.06685479648877,-1.0950193237694257,-26.6761123753236,26.185875687262687,15.895449812965824,0.8451565239655722,-0.4333367213105314,3.561940535909957,4000.9848361545137,11.96622222222222,0.1644444444444444,179.1518245287251,0.8566017892417533,92.09164927950656,1553.0,1435.0,1200.0,1528.0,1471.0,993.0,107.0,294.2,1649342699.7518904,1649342700.86405,856d0480-dafa-415a-8ff7-f453f79041d4
-0.302297254593833,-0.1080252478245287,-0.7247649795685979,-0.0301586653134244,-0.7818566432347803,0.2928521998619839,-1.0622921957793876,-1.0864595162730817,-26.5353596070991,26.265215799282394,15.572330867399817,0.8532604824216373,-0.3971543985416255,3.5446205536664968,4010.5456814236113,11.964555555555556,0.1688888888888889,179.12906330277096,0.8575396418052096,91.5642342143567,1553.0,1435.0,1200.0,1528.0,1471.0,993.0,107.0,294.2,1649342700.9725883,1649342702.0994108,856d0480-dafa-415a-8ff7-f453f79041d4
-0.1062896198497653,0.2560358525132006,-0.6913278316884375,-0.309726269140387,-0.8443261288857097,0.2105545144036671,-1.0778997090582196,-1.1122441300584285,-26.09001144993293,25.12118063163518,18.06491711660309,1.2936651233783858,0.9795733718788124,3.652246216526898,4013.466634114584,11.927,0.1566666666666666,179.01567912690908,0.9359425295141396,90.52594528440692,1658.0,1435.0,1200.0,1528.0,1551.0,993.0,107.0,294.2,1649342704.2323124,1649342705.3662636,a698211c-7061-4e20-83ac-6e430c4c2af5
-0.1084723035351748,0.2572849785927124,-0.6867915296536762,-0.3001145707339928,-0.8393427704337669,0.1980106587336529,-1.0757433211839216,-1.1058538574601726,-25.9876103267446,25.09787537646452,17.739614306343004,1.2438668432512947,0.9855205110783672,3.6360627724802375,4008.8777126736113,11.928111111111113,0.151111111111111,179.00420744474314,0.9263676715148398,90.22427100696562,1658.0,1435.0,1200.0,1528.0,1551.0,993.0,107.0,294.2,1649342705.474049,1649342706.5981133,a698211c-7061-4e20-83ac-6e430c4c2af5
-0.1054481032637142,0.2565618003409273,-0.6945887096463939,-0.3073463547115589,-0.8478631299926298,0.2087531431163449,-1.0824228637613582,-1.1115735446623514,-26.086955281260817,25.18254776925293,18.162855956643348,1.2845102883363626,0.9801576357938327,3.66814827623199,4013.2607421875,11.928666666666668,0.15,178.99086429074455,0.9371688212034052,89.97019555894023,1658.0,1435.0,1200.0,1528.0,1551.0,993.0,107.0,294.2,1649342706.7059033,1649342707.827409,a698211c-7061-4e20-83ac-6e430c4c2af5
0.1295716969830566,0.6386102870064515,-0.6455966491463316,-0.5867167677876445,-0.9026932220796472,0.097028674347676,-1.0949535799969434,-1.11884477892375,-25.6148241383134,24.46359793942221,19.07089887834353,1.6616975734112935,2.4391722746101308,3.739572660352098,4015.3470865885415,11.905666666666669,0.1466666666666666,178.82193853437198,0.9772093229666912,89.45167947136899,1767.0,1435.0,1200.0,1528.0,1630.0,993.0,107.0,294.2,1649342709.5550537,1649342710.6953115,35f70bdc-9fe2-406a-9713-f82a20889906
0.0960030760746438,0.6306027317721954,-0.6596263130732986,-0.5825749272862152,-0.9127125341676056,0.1045628771457381,-1.1078261629333033,-1.1299685848881638,-25.86284456555797,24.4340516025535,19.46662459349358,1.6683287396335282,2.405987338326941,3.7901353341813713,4011.796929253472,11.89011111111111,0.1444444444444445,178.80058129174725,0.9802958095616292,89.33006339973748,1767.0,1435.0,1200.0,1528.0,1630.0,993.0,107.0,294.2,1649342710.8038037,1649342711.92409,35f70bdc-9fe2-406a-9713-f82a20889906
0.1129780426456259,0.645132039708879,-0.6567861936872642,-0.5881368275706779,-0.914119445469965,0.0942148533360083,-1.1094171564029829,-1.1322696076865462,-25.81538776182755,24.48641799094469,19.29530749798037,1.6581067745211395,2.4625292938354013,3.7919247869715424,4028.346625434028,11.891666666666667,0.1422222222222222,178.8157473473443,0.9799291612124332,89.16329825987233,1767.0,1435.0,1200.0,1528.0,1630.0,993.0,107.0,294.2,1649342712.0328684,1649342713.1527698,35f70bdc-9fe2-406a-9713-f82a20889906
0.3201094453939174,0.9884181709803666,-0.596854416211052,-0.8432084896668548,-0.9539205724537356,-0.0035982984463054,-1.110298120271474,-1.1352149180642397,-25.473445720628906,24.50707767189767,20.041433539483894,2.0170989586611228,3.7762324109708825,3.80628021513356,4056.309136284722,11.854888888888889,0.13,178.58430866404817,1.031700607738955,88.94381923781287,1886.0,1435.0,1200.0,1528.0,1710.0,993.0,107.0,294.2,1649342714.0630455,1649342715.2456195,ff06b101-ca1a-45d1-9892-c29bc34665f2
0.333692047701134,0.984434116236036,-0.6063346289971372,-0.8435503556477021,-0.960876236484938,0.0023580611859798,-1.1171880418272928,-1.13975122162604,-25.5329665689084,24.36999920203161,20.22731502585449,2.0298737682179224,3.7595023657224753,3.8382781709036977,4061.6458333333335,11.849333333333334,0.1333333333333333,178.56873886838017,1.0363193452956665,88.83711271022958,1886.0,1435.0,1200.0,1528.0,1710.0,993.0,107.0,294.2,1649342715.3656044,1649342716.318647,ff06b101-ca1a-45d1-9892-c29bc34665f2
0.3279592165178039,0.9932963369379656,-0.5901880250998172,-0.8437212889201305,-0.9494237159001584,-0.0072273385225976,-1.1050517866679246,-1.1238018425888423,-25.383062341887275,24.567984805857897,20.18245305271469,2.0109044490685672,3.793125718646279,3.784421515596479,4066.1416015625,11.849,0.14,178.5589170563537,1.0174175082456949,88.74681305594257,1886.0,1435.0,1200.0,1528.0,1710.0,993.0,107.0,294.2,1649342716.430236,1649342717.663454,ff06b101-ca1a-45d1-9892-c29bc34665f2
-0.5791168189231961,-0.5528325671964082,-0.7768601364722001,0.3479715307584167,-0.7148903046468734,0.3699167032041718,-1.0674990829589173,-1.0995030322193684,-27.318349601822533,28.14143050891567,13.831547245637436,0.182637666117491,-2.094308611155943,3.477555841294252,4060.150309244792,11.946777777777775,0.16,179.30289768842707,0.9359386519588296,88.56852462803772,1449.0,1435.0,1200.0,1528.0,1386.0,993.0,107.0,294.2,1649342719.7974198,1649342720.935099,9e28b3a3-8bc0-48ac-a5b0-667b26a7b8de
-0.6000364012180838,-0.5573820174338234,-0.779424133438636,0.3469722299333299,-0.7146667767818435,0.3777401769008459,-1.0669994322158345,-1.1010019847201709,-27.440612861266004,27.9962098358837,14.17345632605176,0.2013748367081001,-2.1135787691103256,3.4799320884900475,4081.63134765625,11.948666666666666,0.16,179.33175447876044,0.917174106454362,88.52977848269605,1449.0,1435.0,1200.0,1528.0,1386.0,993.0,107.0,294.2,1649342721.0443344,1649342722.1698792,9e28b3a3-8bc0-48ac-a5b0-667b26a7b8de
-0.5928966569432744,-0.5600906496841511,-0.7868268527169846,0.354072525329658,-0.7219117112819984,0.3735457431089265,-1.0756381317580834,-1.1026455737426986,-27.323739361692624,28.08491821372853,14.065973504029676,0.1761940074122653,-2.124954358072925,3.5118185810213727,4073.2282986111113,11.94511111111111,0.1555555555555555,179.33901876439768,0.94986622587623,88.52483039009732,1449.0,1435.0,1200.0,1528.0,1386.0,993.0,107.0,294.2,1649342722.2887237,1649342723.392373,9e28b3a3-8bc0-48ac-a5b0-667b26a7b8de
-0.8195161703828968,-0.9528933293121046,-0.8112982315297552,0.7157723077051559,-0.6432687813800247,0.4165162269205105,-1.0680951577790256,-1.0941460306939428,-27.856142531024755,30.192433516217744,12.722441340328064,-0.5308813727534312,-3.6285759161502233,3.379831696110253,4060.36279296875,11.901,0.15,179.47886157528436,0.891965662851925,88.46609911124422,1342.0,1435.0,1200.0,1528.0,1293.0,993.0,107.0,294.2,1649342725.5396774,1649342726.4834306,176edb7f-92e7-4740-8290-39c5bbcae84f
-0.8180287234430217,-0.9548146837182764,-0.8123879302360884,0.7097578754795151,-0.6445841992922761,0.4226166735963383,-1.0689980355144035,-1.0957688001610366,-28.0219044076125,30.274942033368216,12.527063199844884,-0.5032276544748937,-3.6322044864612986,3.383683660546312,4059.0813802083335,11.905666666666669,0.15,179.4791848709051,0.873419031212696,88.40120093048047,1342.0,1435.0,1200.0,1528.0,1293.0,993.0,107.0,294.2,1649342726.5918517,1649342727.693122,176edb7f-92e7-4740-8290-39c5bbcae84f
-0.7903638535502893,-0.9234681737206104,-0.7840130303668654,0.6805809213358174,-0.6268334530868004,0.4178436972624987,-1.039650125397961,-1.0723509568467102,-27.553797474585487,30.04100590450743,12.617898706618446,-0.4480249069153758,-3.513367076553144,3.283131810126722,4060.790473090278,11.903777777777776,0.1477777777777777,179.48570238919308,0.8749862394620966,88.38029144470134,1342.0,1435.0,1200.0,1528.0,1293.0,993.0,107.0,294.2,1649342727.801652,1649342728.926709,176edb7f-92e7-4740-8290-39c5bbcae84f
-1.0307221547359104,-1.3123148563148754,-0.8187124561351835,1.0578038367962344,-0.5630228099540858,0.444404061455188,-1.051536554950539,-1.085683742687211,-27.86465789485545,32.69353826763748,11.402616751784729,-1.2237567437373236,-5.007406334453853,3.2136792356146606,3973.37744140625,11.833777777777776,0.13,179.61331157236634,0.8354862772096099,88.28745930805206,1227.0,1435.0,1200.0,1528.0,1189.0,993.0,107.0,294.2,1649342730.0380316,1649342731.1748402,6881f1b9-671b-46e1-97c1-d8e694f44d5c
-1.0172578809655082,-1.3019668228633094,-0.8188439436537291,1.0395665962054297,-0.5658497807916489,0.4514123159398382,-1.048078446317042,-1.0725087405653948,-27.743074055417324,32.456122262678576,11.46790738035325,-1.168378310199374,-4.96780109454083,3.214152054587667,3947.338785807292,11.834888888888887,0.1344444444444444,179.59293635916228,0.837170861548419,88.19919732686743,1227.0,1435.0,1200.0,1528.0,1189.0,993.0,107.0,294.2,1649342731.2835426,1649342732.403223,6881f1b9-671b-46e1-97c1-d8e694f44d5c
-1.0334833826450551,-1.312696168853301,-0.822025929061991,1.0553450307102226,-0.5662179440093519,0.4482040343309367,-1.054455567333225,-1.07198279157689,-27.931062357684763,32.705581123912964,11.543959084936974,-1.2097672839966602,-5.00952632799663,3.226784075863189,3929.84765625,11.840222222222222,0.1322222222222222,179.5900600906118,0.7994642449109001,88.12767462151871,1227.0,1435.0,1200.0,1528.0,1189.0,993.0,107.0,294.2,1649342732.511897,1649342733.6374197,6881f1b9-671b-46e1-97c1-d8e694f44d5c
-0.3083320014005771,-0.0972195474882254,-0.7039308618997322,-0.0033580817376324,-0.758649689737607,0.2588951880362134,-1.0467453688541704,-1.0801102098973123,-26.3077228748852,25.94344668733861,15.901052433533856,0.7155703327665492,-0.3631354707522716,3.4647746448953005,3933.054524739584,11.966333333333331,0.17,179.16893946496532,0.953136001071864,88.03182202343646,1553.0,1435.0,1200.0,1528.0,1471.0,993.0,107.0,294.2,1649342735.5653756,1649342736.711167,8440cbbe-aef7-4fc6-8a21-54d1fd51a53b
-0.3178258672136466,-0.1001491783191356,-0.7129442968130707,0.0009905968093775,-0.7662754312248229,0.257639993362996,-1.0593468857486747,-1.073153027690902,-26.61401521928505,26.1157384945064,15.800214023897636,0.70346326970236,-0.372165674532964,3.504645870397135,3942.6982421875,11.964666666666666,0.1622222222222222,179.1481195305553,0.9487619526705748,88.16799322818929,1553.0,1435.0,1200.0,1528.0,1471.0,993.0,107.0,294.2,1649342736.8199131,1649342737.9349782,8440cbbe-aef7-4fc6-8a21-54d1fd51a53b
-0.3170895401510452,-0.0985581859818375,-0.7125761330763877,-0.0049657627111786,-0.7661570928088431,0.2618212785305534,-1.0574797694142717,-1.08109484489693,-26.637490394003727,26.041901626643604,15.846102528794372,0.7258196201963159,-0.3656836003587823,3.5015433589461384,3962.749267578125,11.968,0.17,179.16483679800388,0.950948348398952,88.28977777782035,1553.0,1435.0,1200.0,1528.0,1471.0,993.0,107.0,294.2,1649342738.04401,1649342739.164604,8440cbbe-aef7-4fc6-8a21-54d1fd51a53b
-0.3388506358659232,-0.1173608227204786,-0.7678401267579321,-0.2826530996124254,-0.8435372066744229,0.5523022531524712,-1.0328653936211591,-1.062160708727647,-26.913914297928308,25.483184093185724,18.05951421051904,1.9987218559981967,-0.4231895347040075,3.645671062292225,3990.217881944444,11.950555555555557,0.1655555555555555,179.1740696959419,1.0096929793232663,88.48249611871171,1553.0,1522.0,1200.0,1528.0,1471.0,993.0,107.0,294.2,1649342740.0728445,1649342741.2101676,7fb6af0c-db37-45c1-8a1c-b7bc9d5803f8
-0.3320755161439668,-0.1118854018362417,-0.7651228969128192,-0.288735383966434,-0.8438886816270551,0.5491779209284247,-1.0286026846984302,-1.0548874516609692,-26.557251145122617,25.40365111748525,17.608035323266645,2.005136840659691,-0.4002565370455782,3.636631201480782,3997.86669921875,11.948111111111112,0.16,179.1762477673772,1.02597763255049,88.52867730441987,1553.0,1522.0,1200.0,1528.0,1471.0,993.0,107.0,294.2,1649342741.3187785,1649342742.4404666,7fb6af0c-db37-45c1-8a1c-b7bc9d5803f8
-0.2964329351732409,-0.1106023924311086,-0.7663806207794045,-0.2829029248778882,-0.8430112585158333,0.5453202961032162,-1.0323394453404888,-1.0555074635885222,-26.811688310482506,25.375172700363898,17.984095712556865,1.9829920997482733,-0.3977749582605874,3.643041424393892,4001.184488932292,11.943444444444443,0.1522222222222222,179.18594967163827,1.0355480556700167,88.57798747567783,1553.0,1522.0,1200.0,1528.0,1471.0,993.0,107.0,294.2,1649342742.5491202,1649342743.6692898,7fb6af0c-db37-45c1-8a1c-b7bc9d5803f8
-0.3170763914203212,-0.1169663618173396,-0.8010537487391451,-0.5946059881426744,-0.9106087417556846,0.8538675729106515,-0.9820325017331808,-1.0130371469151676,-26.635137776115453,24.97023076940141,20.21944930366763,3.375499071742773,-0.4065328166878273,3.7106879100947134,4005.755859375,11.946666666666664,0.151111111111111,179.17645267305232,1.1160561357471916,88.66434762863355,1553.0,1613.0,1200.0,1528.0,1471.0,993.0,107.0,294.2,1649342744.576934,1649342745.720547,8b672049-b8b3-453b-b837-b853186a606d
-0.309423849052878,-0.1194909116444332,-0.8019478603128938,-0.5891624260741469,-0.9109111618013066,0.8506066965140558,-0.9854906107231296,-1.017192138358025,-26.762145666227976,25.107925077408545,20.09917082122035,3.356677270528188,-0.4147610233788091,3.716669484704033,4012.005832248264,11.94788888888889,0.1577777777777777,179.1773497045633,1.1068292735145102,88.6791698980424,1553.0,1613.0,1200.0,1528.0,1471.0,993.0,107.0,294.2,1649342745.8327026,1649342746.9424095,8b672049-b8b3-453b-b837-b853186a606d
-0.3118826556128272,-0.1241324017256531,-0.7988579154019385,-0.5857963588083338,-0.9065326436381792,0.8541305468042316,-0.9802048317326396,-0.9955230729797134,-26.69626079855686,25.06422863795736,20.42645945908369,3.3569523356983977,-0.4357557909825049,3.698961540289053,4014.7197265625,11.945333333333332,0.15,179.17746961232874,1.1081201792676425,88.67797233820791,1553.0,1613.0,1200.0,1528.0,1471.0,993.0,107.0,294.2,1649342747.0508945,1649342748.1740768,8b672049-b8b3-453b-b837-b853186a606d
-0.3004958829445111,-0.1395426747857599,-0.841591199002108,-0.8629709897935678,-0.9748007144013034,1.1370641739584713,-0.9473593689034951,-0.970224965961866,-26.96743458553253,24.77715777848588,22.18350713570356,4.614092755109011,-0.4757948532887587,3.80154175353535,4013.048936631944,11.920444444444444,0.1411111111111111,179.18376097546422,1.218857218081315,88.71104790871865,1553.0,1710.0,1200.0,1528.0,1471.0,993.0,107.0,294.2,1649342750.1079454,1649342751.2457628,7512175a-0d3b-4460-818b-07fafda3f792
-0.3074646930294443,-0.1304437763443864,-0.8356479850806724,-0.8718332156398908,-0.9724865421736052,1.1349077878348384,-0.9418632105489888,-0.9703564522826206,-26.82674091259436,24.76669253916453,22.0277488012446,4.629510627686925,-0.4398160448154087,3.783369419127776,4011.3796657986113,11.921333333333331,0.1477777777777777,179.17922876549497,1.2176865402587291,88.64895617679389,1553.0,1710.0,1200.0,1528.0,1471.0,993.0,107.0,294.2,1649342751.3537076,1649342752.4708085,7512175a-0d3b-4460-818b-07fafda3f792
-0.3196929824120676,-0.1390167268940637,-0.8425379053884816,-0.8681121326894101,-0.977128034811347,1.1413375000714336,-0.9468728667980406,-0.9656886627928024,-26.865706797697808,24.79338215913913,22.18873986486884,4.635405103281271,-0.4740153669929929,3.805399861678244,4016.3916015625,11.924333333333337,0.1488888888888888,179.1809879186612,1.2341930323383707,88.60421084863123,1553.0,1710.0,1200.0,1528.0,1471.0,993.0,107.0,294.2,1649342752.580057,1649342753.7031715,7512175a-0d3b-4460-818b-07fafda3f792
-0.3012585074429579,-0.1357558500026863,-0.844194641898897,-1.093888535192081,-1.009079386638705,1.3587248941615722,-0.8937784013057366,-0.9087153286234227,-26.7658163960577,25.00593485766456,24.18482097034281,5.6348948646119394,-0.4524868280871373,3.776794720755814,4018.694091796875,11.902111111111113,0.14,179.19008269499602,1.3048495961809583,88.489472018584,1553.0,1814.0,1200.0,1528.0,1471.0,993.0,107.0,294.2,1649342755.6361692,1649342756.6899748,beffdd68-c670-4286-a044-30dbf1c9665e
-0.2987208087055467,-0.1417385072124213,-0.8429586643773171,-1.0853155789021738,-1.006594281971277,1.3562134930657503,-0.8927002082084741,-0.916736037869662,-26.70060703822117,25.067363111919004,24.12458094924757,5.61040490288823,-0.4758291783133404,3.769476721988306,4018.48388671875,11.891444444444444,0.14,179.1895620827993,1.3090401306801729,88.39861228878505,1553.0,1814.0,1200.0,1528.0,1471.0,993.0,107.0,294.2,1649342756.8039503,1649342758.0039785,beffdd68-c670-4286-a044-30dbf1c9665e
-0.2990889722830277,-0.1435398787305873,-0.8457461892362229,-1.0840796007782445,-1.0074883937804742,1.356686846196917,-0.8949091902607811,-0.9125547501570952,-26.799125250318085,24.9763376103276,24.08516256473412,5.607882432493184,-0.4818691982039854,3.777345094864952,4021.627115885417,11.893999999999998,0.13,179.19760804564157,1.3041663875364802,88.32049313851788,1553.0,1814.0,1200.0,1528.0,1471.0,993.0,107.0,294.2,1649342758.1124372,1649342759.232663,beffdd68-c670-4286-a044-30dbf1c9665e
-0.3152881684288219,-0.0925229340864714,-0.6778109667060067,0.3164409594001536,-0.7027803504767316,-0.055167486417562,-1.116017806694436,-1.1365297881451,-26.8321639773704,27.07950075616635,13.596347883283352,-0.7033584541115537,-0.3590808896179043,3.4509922082087225,4029.819580078125,11.963555555555557,0.16,179.17337149882673,0.9090304458194276,88.24092826487639,1553.0,1349.0,1200.0,1528.0,1471.0,993.0,107.0,294.2,1649342760.144007,1649342761.2870083,a5eabab3-c68f-4df0-8486-9df043608411
-0.3137629194262328,-0.0900772764775762,-0.6825182017569024,0.3126672837998099,-0.7088550505867025,-0.0546152411744209,-1.1188447784490114,-1.1391463808552835,-26.58545850042101,26.996569488217265,13.492253230370707,-0.694281556024378,-0.3505669188966089,3.470030238479693,4031.083251953125,11.964666666666666,0.16,179.16635309999958,0.8322450322833214,88.42910908342914,1553.0,1349.0,1200.0,1528.0,1471.0,993.0,107.0,294.2,1649342761.4062898,1649342762.5063562,a5eabab3-c68f-4df0-8486-9df043608411
-0.3301330488249382,-0.0961914205290237,-0.6811507368444555,0.3187682784816448,-0.7046737635190093,-0.0525377470471151,-1.1189368193925138,-1.1443532685926163,-26.91286999267616,27.086540910055582,13.740022520687289,-0.7028362912786409,-0.3740402585629002,3.4619994619250827,4035.51123046875,11.962000000000002,0.16,179.18303697541222,0.8129714835321129,88.60753866857685,1553.0,1349.0,1200.0,1528.0,1471.0,993.0,107.0,294.2,1649342762.6154065,1649342763.739261,a5eabab3-c68f-4df0-8486-9df043608411
-0.3321447997604164,-0.08433129591923,-0.6473454263838083,0.5977967378135226,-0.6508824269203758,-0.3345773089608552,-1.169769717895023,-1.195094127977991,-26.85525169109893,28.24528752277141,11.745413746954798,-1.956960885853506,-0.3444788689688238,3.415661700713983,4031.715087890625,11.94,0.15,179.18636100080832,0.7097973317594958,88.9172877474369,1553.0,1264.0,1200.0,1528.0,1471.0,993.0,107.0,294.2,1649342765.673112,1649342766.7319603,37580972-7ba9-428c-80eb-c3e765fe629b
-0.3321710971314175,-0.0889596372256267,-0.6483578763940306,0.5959296231294477,-0.6508824269454472,-0.3276873910021954,-1.169243769702338,-1.1848381369077687,-26.95258913749672,28.26624733368472,11.834115315665136,-1.937212892742591,-0.3617691388101421,3.4157649756167667,4024.1435546875,11.942666666666666,0.1533333333333333,179.19180238484705,0.7162074287216508,89.00771262185873,1553.0,1264.0,1200.0,1528.0,1471.0,993.0,107.0,294.2,1649342766.864124,1649342767.8334162,37580972-7ba9-428c-80eb-c3e765fe629b
-0.3240583502351527,-0.0794268319677739,-0.6495412594460364,0.5932735867411553,-0.6542879404785235,-0.3333807773760774,-1.1728728127442791,-1.1973557049948282,-26.918082391309625,28.26132980159444,11.986146389138062,-1.9440652437989807,-0.3273550896756406,3.42855423167824,4023.933756510417,11.947,0.15,179.20252578184397,0.7138331138563434,89.10011445659029,1553.0,1264.0,1200.0,1528.0,1471.0,993.0,107.0,294.2,1649342767.94188,1649342769.0650856,37580972-7ba9-428c-80eb-c3e765fe629b
-0.3428872863547416,-0.0799264824579685,-0.6106342542398432,0.8523160268859971,-0.596196980986917,-0.5853493029109677,-1.211714093494446,-1.2331859339345348,-27.04269433026213,29.59195916709721,9.99323007355277,-3.0842306401977013,-0.3400885487522992,3.3504661804028872,4026.6673990885415,11.921333333333337,0.1466666666666666,179.19346895100455,0.601343781710527,89.34058644451873,1553.0,1178.0,1200.0,1528.0,1471.0,993.0,107.0,294.2,1649342771.2033584,1649342772.345157,18f9f656-f1a4-48d4-aa78-6dee0a259549
-0.3365233162766225,-0.0813859878059164,-0.6094903169827266,0.8520136069053592,-0.5960128989342335,-0.585244113318517,-1.209505110202298,-1.2293728072831025,-26.864844354007293,29.6154849502256,9.777107624020903,-3.08304409007832,-0.3447957188958911,3.3451416657989586,4029.819580078125,11.908,0.14,179.18603770518757,0.5924852398004321,89.39887072543618,1553.0,1178.0,1200.0,1528.0,1471.0,993.0,107.0,294.2,1649342772.4535112,1649342773.5662906,18f9f656-f1a4-48d4-aa78-6dee0a259549
-0.3306326994134582,-0.0723791304596399,-0.6070578076787355,0.844203282014518,-0.596604590732234,-0.5858752509303071,-1.2070068562588931,-1.2264011994791988,-26.723610010846485,29.567670774222744,9.93825041445263,-3.066943223512049,-0.3123273387835458,3.340441831273873,4030.451985677084,11.918666666666669,0.1466666666666666,179.1955817561878,0.5900547952468673,89.42506450090316,1553.0,1178.0,1200.0,1528.0,1471.0,993.0,107.0,294.2,1649342773.67488,1649342774.7872038,18f9f656-f1a4-48d4-aa78-6dee0a259549
-0.3192327779558879,-0.0648580758826261,-0.5580000065827229,0.9431472131226368,-0.547218072497852,-0.6924454714134443,-1.1946602200969672,-1.226243414572914,-26.751399195072327,30.58012968336274,9.013226580962924,-3.520620984715316,-0.2847786055192714,3.1887634137686773,4027.295979817709,11.893666666666668,0.14,179.19480311462243,0.5356044916096238,89.54064496203813,1553.0,1088.0,1200.0,1528.0,1471.0,993.0,107.0,294.2,1649342776.7310622,1649342777.870761,fd7003c4-b48d-4143-9d2a-d2f022fcd7fb
-0.3284763129003077,-0.0652656854913165,-0.5604588136157325,0.9278289831938584,-0.5514651026849664,-0.6751154833222927,-1.1907813517923334,-1.2134365746557327,-26.56269195898001,30.481174521081147,9.420221200274426,-3.447742563993876,-0.2895217473406706,3.1929399431702854,4012.2171766493057,11.908,0.1388888888888889,179.20384021380426,0.5339802702534012,89.56663459073994,1553.0,1088.0,1200.0,1528.0,1471.0,993.0,107.0,294.2,1649342777.9794886,1649342779.098852,fd7003c4-b48d-4143-9d2a-d2f022fcd7fb
-0.3250445026143393,-0.0663044325299549,-0.5588283747636192,0.9380455194612854,-0.5490588905555894,-0.6840697492012501,-1.1916754639493246,-1.2233244017317118,-26.536112954143817,30.53433221860473,9.34210821129384,-3.490475496469848,-0.2940670981401766,3.188563642827801,4010.024169921875,11.8975,0.14,179.19999861185107,0.5242430588946894,89.59984221157463,1553.0,1088.0,1200.0,1528.0,1471.0,993.0,107.0,294.2,1649342779.2077732,1649342780.3281152,fd7003c4-b48d-4143-9d2a-d2f022fcd7fb
-0.3070965294302981,-0.1051719805691365,-0.7285649543133542,-0.0033353244124352,-0.7785563189876867,0.2645693558784845,-1.0701945676393572,-1.095808245974658,-26.608930441568656,25.828320567525296,15.421122590278346,0.7260516884791218,-0.388142875119822,3.5570514996495093,3999.317816840278,11.961666666666666,0.1577777777777777,179.2068879959939,0.7600947380857639,89.63668425195767,1553.0,1435.0,1200.0,1528.0,1471.0,993.0,107.0,294.2,1649342782.6703618,1649342783.809272,6f1077df-53eb-422b-850e-f306ccd16585
-0.307345848951206,-0.1090533747878467,-0.7258664361013493,-0.0014110631936399,-0.7756797874883863,0.2672901244181663,-1.0672396487728544,-1.0956737244929946,-26.62321564469626,25.91898006208712,15.539837052328553,0.7285720507059661,-0.4037158279859088,3.544915468496122,3996.003173828125,11.962,0.16,179.21868600942022,0.839972341899084,89.59626319244954,1553.0,1435.0,1200.0,1528.0,1471.0,993.0,107.0,294.2,1649342783.9168692,1649342785.038326,6f1077df-53eb-422b-850e-f306ccd16585
-0.3253600713605686,-0.1035809882392945,-0.7268950691854295,0.0002937158540051,-0.7779251812863773,0.2627679845920032,-1.0711544230387684,-1.09036468255868,-26.66148949535525,25.991817484013847,15.862491724862828,0.7150284308013712,-0.3860537079290135,3.5560252438793456,3999.732421875,11.96,0.16,179.2090144615555,0.83051850631414,89.57743387872763,1553.0,1435.0,1200.0,1528.0,1471.0,993.0,107.0,294.2,1649342785.146629,1649342786.2741363,6f1077df-53eb-422b-850e-f306ccd16585
-0.2478747935906116,-0.072628955702589,-0.5087449765603395,-0.0260825693504335,-0.5799714845125594,0.2430580899988593,-0.841578050062921,-0.8573433448223728,-25.042224595662287,25.62841460063732,15.638760226948111,0.7394689123178522,-0.2623717247037334,2.666654638543364,4004.7174479166665,11.968555555555556,0.16,179.21610116227436,0.838469978943913,89.51152558887664,1553.0,1435.0,1200.0,1424.0,1471.0,993.0,107.0,294.2,1649342787.1780512,1649342788.3218129,9e7c18bc-70b3-4260-bc1f-4a6367a2907d
-0.2532920570439588,-0.0671722465216877,-0.5038142141701347,-0.0348921961678364,-0.5778019489477669,0.2454511525766466,-0.8360687436246286,-0.8678228611492017,-24.958077433128096,25.636984712600658,15.625446581146608,0.7650613698083372,-0.2409859390391032,2.649753972109421,4005.339599609375,11.967,0.16,179.22890397241858,0.8345837495307671,89.52404760235498,1553.0,1435.0,1200.0,1424.0,1471.0,993.0,107.0,294.2,1649342788.4357288,1649342789.5543585,9e7c18bc-70b3-4260-bc1f-4a6367a2907d
-0.2419315821369173,-0.0753901820379495,-0.5055892886037553,-0.0247676997639979,-0.577210257433867,0.2450435430141418,-0.8393822166555707,-0.8643384551851614,-25.11413310652751,25.78327517210415,15.727590285355,0.7421261514456962,-0.2729655585431551,2.6551546606793,4000.769612630209,11.966666666666663,0.16,179.20592569823086,0.856214004065829,89.51169786142572,1553.0,1435.0,1200.0,1424.0,1471.0,993.0,107.0,294.2,1649342789.6719296,1649342790.77295,9e7c18bc-70b3-4260-bc1f-4a6367a2907d
-0.1504429448228218,-0.0305005313899669,-0.2408928350490515,-0.0410194888146108,-0.3402969927485839,0.2006798439423295,-0.5692158476924305,-0.5904772963601579,-22.97021175226535,25.66471638611792,15.59552192664952,0.6925473691148849,-0.0998264296031734,1.5936513209883714,4006.3800998263887,11.966111111111111,0.16,179.18745231325568,0.8519342798654996,89.48605657237158,1553.0,1435.0,1200.0,1304.0,1471.0,993.0,107.0,294.2,1649342792.5207794,1649342793.639409,66268baf-7272-4d1e-a3e0-8b417765df63
-0.1546899740503912,-0.0276604129137099,-0.2310707578333123,-0.0342873562143958,-0.3307247403006183,0.1909498090568579,-0.5634698657562985,-0.5868877013368073,-23.085180683762,25.762075900432286,15.548598112594634,0.6565657692822693,-0.0881492032682432,1.5592600827204754,4005.963704427084,11.964666666666666,0.16,179.1940563472732,0.8556841960154443,89.48802746140207,1553.0,1435.0,1200.0,1304.0,1471.0,993.0,107.0,294.2,1649342793.7482803,1649342794.869014,66268baf-7272-4d1e-a3e0-8b417765df63
-0.1629473559345277,-0.0287649034272725,-0.2370797127668046,-0.0367198649423611,-0.3371544539184848,0.1954203656702993,-0.5686110075883017,-0.591779017655696,-23.05185907725632,25.799242306995296,15.66822508001168,0.6720818678730014,-0.0936686186454528,1.5835501428379064,4012.422960069444,11.962555555555555,0.151111111111111,179.1878788206239,0.8381758657807465,89.45876617208783,1553.0,1435.0,1200.0,1304.0,1471.0,993.0,107.0,294.2,1649342794.9778087,1649342796.104491,66268baf-7272-4d1e-a3e0-8b417765df63
-0.0987422677809284,0.0018189647312974,-0.0279496842717385,-0.01332833375303,-0.1460381312235878,0.132517004839318,-0.3661341854030774,-0.3982564575259278,-21.59491505460618,26.003253792226463,15.622629624168551,0.4904558700178597,0.0215128919197752,0.754668288466809,4017.647406684028,11.952333333333334,0.15,179.16229141417318,0.8319716468470113,89.4020050233553,1553.0,1435.0,1200.0,1166.0,1471.0,993.0,107.0,294.2,1649342797.0322735,1649342798.146293,b388fc06-ea10-4c01-8e34-a63e2ff1bb34
-0.0951526734964085,0.0050666927628359,-0.0270292754961599,-0.010685445753607,-0.1465772277985639,0.1282962734199466,-0.3681853824014339,-0.3908405904427383,-21.613022510554966,26.14405621268881,15.814894271461435,0.476010374875371,0.0318533108881304,0.7576852764285504,4009.919921875,11.95322222222222,0.15,179.16332656728736,0.8651947897609129,89.38323035114675,1553.0,1435.0,1200.0,1166.0,1471.0,993.0,107.0,294.2,1649342798.2548742,1649342799.3713443,b388fc06-ea10-4c01-8e34-a63e2ff1bb34
-0.0951921195772706,-0.0045187069765817,-0.0278839408226168,-0.0124999658023061,-0.1454069937790832,0.1371058997614042,-0.3649508025429711,-0.3830828583368815,-21.60261430613273,26.08881833759716,15.504532499879014,0.4994469248038272,-0.0012524159366309,0.7510674929940965,4007.003879123264,11.954555555555556,0.15,179.1597566550812,0.8534924938466963,89.37628101312121,1553.0,1435.0,1200.0,1166.0,1471.0,993.0,107.0,294.2,1649342799.481307,1649342800.6002817,b388fc06-ea10-4c01-8e34-a63e2ff1bb34
-0.3769555643256421,-0.1401606635341222,-0.952184943008108,0.0839325730504384,-0.9787058792725618,0.2279107926672858,-1.3283036861236317,-1.3533651251368064,-28.536328434108817,26.930640504014537,14.90265601536352,0.4419397862107141,-0.526037070121724,4.4959734841018655,4015.5570203993057,11.927,0.1488888888888888,179.21142020596318,0.8723293907387001,89.43491211586654,1553.0,1435.0,1200.0,1623.0,1471.0,993.0,107.0,294.2,1649342802.5384846,1649342803.6805296,79a660ed-40ad-4cfd-8c57-103ae3825d2b
-0.4060930809104041,-0.1388852399178331,-0.9409953959029828,0.0825914060454586,-0.9699356935034058,0.2292914057097609,-1.314721070055326,-1.3351278658386228,-28.195494548282127,26.925619765702823,15.1944496441189,0.4488095145847617,-0.5253775553001355,4.450231368458925,4018.902777777778,11.926222222222224,0.1422222222222222,179.22099916681913,0.8677778463537451,89.35618735549295,1553.0,1435.0,1200.0,1623.0,1471.0,993.0,107.0,294.2,1649342803.7930496,1649342804.9052544,79a660ed-40ad-4cfd-8c57-103ae3825d2b
-0.4083283597525778,-0.1362686491772447,-0.944703330480268,0.0796198007075526,-0.9736041820188802,0.2295149335419153,-1.3177452731028467,-1.3480530469829448,-28.17874760629369,26.826005161368112,15.176893910809689,0.4551756689287124,-0.5153975683236088,4.464906513030522,4016.1827528211807,11.92388888888889,0.14,179.21028943020056,0.8657452069584808,89.24978059732322,1553.0,1435.0,1200.0,1623.0,1471.0,993.0,107.0,294.2,1649342805.0136611,1649342806.0580804,79a660ed-40ad-4cfd-8c57-103ae3825d2b
-0.4380970144077408,-0.1512976100991649,-1.0843294261843186,0.1336872387815025,-1.1011992154836605,0.2014293196170723,-1.4832612316264424,-1.4962653080007713,-29.45247492650959,27.70055177850741,14.990161127760414,0.2682747503136626,-0.5765887495932293,5.061823271399955,4013.46826171875,11.87211111111111,0.1244444444444444,179.22356883576688,0.8398960003055483,89.18050578312132,1553.0,1435.0,1200.0,1712.0,1471.0,993.0,107.0,294.2,1649342807.1362612,1649342808.3910286,48063519-8b0e-4f6a-8ab9-3392b87ffd0a
-0.4414367839757314,-0.1514553944647321,-1.0847501844411078,0.1311889865456544,-1.1017251634275391,0.2040064639526746,-1.4809733554841278,-1.5006043819102055,-29.28335352723809,27.583517079833182,15.015190606366389,0.278993715849354,-0.5783204425615585,5.060016332102607,4015.765625,11.867111111111113,0.1211111111111111,179.23156622837507,0.8336376082481616,89.08084649294167,1553.0,1435.0,1200.0,1712.0,1471.0,993.0,107.0,294.2,1649342808.4996994,1649342809.611739,48063519-8b0e-4f6a-8ab9-3392b87ffd0a
-0.4359537764809909,-0.1482997071232971,-1.0825937971102584,0.134936364840993,-1.0999106423442666,0.1975110082703854,-1.4809470586930953,-1.51093926892857,-29.28108496232357,27.59829911111742,15.030120028994588,0.2561532796603765,-0.5669575001553582,5.054999326596127,4013.257785373264,11.857888888888889,0.12,179.23354546541455,0.8309610693700484,88.98984181135032,1553.0,1435.0,1200.0,1712.0,1471.0,993.0,107.0,294.2,1649342809.7201912,1649342811.0448742,48063519-8b0e-4f6a-8ab9-3392b87ffd0a
-0.4597266246435814,-0.1560311411103984,-1.1761994357717342,0.2169579291143352,-1.1821820972515775,0.1298609681884158,-1.6092521892033795,-1.6458845045617607,-30.365519226870912,28.52077897858076,14.214033988462248,-0.0801076175858941,-0.5970638330000704,5.47482565638478,4024.984049479168,11.844333333333331,0.12,179.24141839679783,0.7871776002256605,88.85437032153249,1553.0,1435.0,1200.0,1801.0,1471.0,993.0,107.0,294.2,1649342812.1644204,1649342813.1150026,8117e099-8ab1-469a-8ed1-d7b56ce40776
-0.4691805395191462,-0.1664317606987353,-1.1896242652646558,0.2193904378831551,-1.1931481186593134,0.1398671258611452,-1.6218749533349324,-1.639362741895535,-30.56885258246244,28.66186198936508,14.405199872141283,-0.0629146795078873,-0.637475798701781,5.524865796944505,4034.037787543403,11.853444444444444,0.13,179.22906486131902,0.7881469001184207,88.8027462339657,1553.0,1435.0,1200.0,1801.0,1471.0,993.0,107.0,294.2,1649342813.2237651,1649342814.3250153,8117e099-8ab1-469a-8ed1-d7b56ce40776
-0.4630269481707088,-0.1616850809408036,-1.1820506103976989,0.2234796822148521,-1.1874547288410482,0.1314388117908484,-1.6145511205012502,-1.642216012916606,-30.23982510841365,28.611614222579018,14.459686709831027,-0.0908602314334513,-0.622508751036059,5.497297663414737,4048.855224609375,11.856000000000002,0.12,179.23779687871794,0.7891878577076292,88.7356456966496,1553.0,1435.0,1200.0,1801.0,1471.0,993.0,107.0,294.2,1649342814.4336112,1649342815.5543375,8117e099-8ab1-469a-8ed1-d7b56ce40776
-0.3121122520979371,-0.1281948434461492,-0.7485858762796282,-0.0063797537174065,-0.7570819604479934,0.3011100862320415,-1.0540277290554196,-1.0691993123608066,-27.872724770604982,22.45324472644981,17.041844324184915,0.7912825719675062,-0.4808638233059739,3.5320500485286592,7395.5361328125,11.642111111111111,7.701111111111111,179.1883326487487,0.7244655187411174,77.07643006225788,1553.0,1435.0,1350.0,1528.0,1471.0,993.0,107.0,294.2,1649342820.7167451,1649342821.906288,7facadc0-cded-406e-9f4e-1755dd8be618
-0.3472132081378715,-0.1306804529115876,-0.7626726876332696,-0.0152743410852417,-0.7683397780586787,0.3014777439967888,-1.062423683204021,-1.0978331475963243,-27.719029785669125,22.00026152596409,15.50254384464441,0.8083004411905348,-0.4774370009839834,3.576283127486589,7401.9228515625,11.641,7.720000000000001,179.18759498831832,0.7200090871119484,72.18890454545758,1553.0,1435.0,1350.0,1528.0,1471.0,993.0,107.0,294.2,1649342822.0249245,1649342823.1313744,7facadc0-cded-406e-9f4e-1755dd8be618
-0.3150120457568503,-0.1316666051855582,-0.748892847873615,-0.0131705497731817,-0.7592408762120517,0.3078943073457622,-1.0511815401020308,-1.075638131860267,-27.640142234129563,22.500692231121874,16.641950367616204,0.8221985756224913,-0.4911695159510987,3.530456175488798,7401.9228515625,11.643222222222224,7.716666666666667,179.18715633839167,0.768478273541393,68.02616303461336,1553.0,1435.0,1350.0,1528.0,1471.0,993.0,107.0,294.2,1649342823.2392876,1649342824.3611336,7facadc0-cded-406e-9f4e-1755dd8be618
-0.105250872812088,0.2576136959680549,-0.6896973933711914,-0.3199165110337779,-0.8023160246349643,0.2260962726120866,-1.0390058392250043,-1.0546396499875028,-27.07349428528262,21.01702867223763,19.37000924342599,1.3241634630925163,0.9821734895563802,3.540366820052784,7408.3203125,11.61,7.786666666666666,179.0660859229838,0.9679599661700248,61.01610159171823,1658.0,1435.0,1350.0,1528.0,1551.0,993.0,107.0,294.2,1649342826.092698,1649342827.2271576,fa99560d-7bff-41f6-803b-c4236d92a1f8
-0.1064868503067556,0.2526303403615739,-0.6970475176567803,-0.3099892435576425,-0.8096661494401874,0.2208499430292596,-1.045895760933912,-1.0669994328236547,-26.71537689606548,21.066944933037348,19.172377663110503,1.2900944541481691,0.961012441794076,3.5696420329763123,7395.5361328125,11.598333333333334,7.824444444444443,179.06799685813158,1.050946669721941,58.86946572259197,1658.0,1435.0,1350.0,1528.0,1551.0,993.0,107.0,294.2,1649342827.3360083,1649342828.456571,fa99560d-7bff-41f6-803b-c4236d92a1f8
-0.1047117762531781,0.2507763742841135,-0.6938786806860777,-0.3105283403265455,-0.8043540737472133,0.2171157134875684,-1.041385755391918,-1.058965573629138,-26.76221076679313,20.866869518742146,18.34543957219835,1.2815952811361433,0.9619834204314368,3.550320015714404,7376.44287109375,11.601555555555557,7.842222222222222,179.07364466566528,1.083284793245732,57.11544620243097,1658.0,1435.0,1350.0,1528.0,1551.0,993.0,107.0,294.2,1649342828.56477,1649342829.6835372,fa99560d-7bff-41f6-803b-c4236d92a1f8
0.1371584945098772,0.6466441396290407,-0.6447551331760865,-0.5941720820841182,-0.8663633558136771,0.111597429491211,-1.0578873800305857,-1.0860913533533414,-26.15770571317601,20.563790188530884,21.479391246947827,1.685553133936523,2.4527051999227067,3.6416932168543017,7376.44287109375,11.562,7.816666666666666,178.8806280731802,1.2398330136136395,54.729193636842325,1767.0,1435.0,1350.0,1528.0,1630.0,993.0,107.0,294.2,1649342830.5945425,1649342831.729426,626204f2-e2e4-40d3-9374-01a601fc4752
0.1294533586858354,0.6450925936234215,-0.6575619680444522,-0.5971831340967753,-0.8746996339100531,0.1058120031789487,-1.0668547970794366,-1.0894179754047055,-26.12729452183134,20.05659703530464,19.9696904862712,1.6751194177801358,2.459601394133009,3.681158336344499,7387.746256510417,11.573666666666666,7.812222222222221,178.8891293819671,1.2710256574953762,53.649325930320096,1767.0,1435.0,1350.0,1528.0,1630.0,993.0,107.0,294.2,1649342831.8384569,1649342832.9623172,626204f2-e2e4-40d3-9374-01a601fc4752
0.1241018394361619,0.654375572268311,-0.6389960019476534,-0.5928440630365961,-0.8595260300252139,0.1022092604452301,-1.0543372295048374,-1.084684441712686,-26.32067369175327,20.37512170544201,21.434553468720488,1.6604078577423436,2.4834520073255004,3.6203229184656713,7389.16064453125,11.574875,7.80875,178.89143115571738,1.3364937707063809,52.77126028939854,1767.0,1435.0,1350.0,1528.0,1630.0,993.0,107.0,294.2,1649342833.0713463,1649342834.196689,626204f2-e2e4-40d3-9374-01a601fc4752
0.3550060827770951,1.0580668105709534,-0.6132771439632346,-0.9230868640258112,-0.9523427286711476,0.0300097692739427,-1.092836640399052,-1.1063798064429542,-26.171058161115223,20.430987917339905,24.11830287157961,2.24526689904933,4.014985991198623,3.816317915767127,7395.5361328125,11.51011111111111,7.765555555555555,178.66190264865912,1.4416729179879733,51.039830149529415,1886.0,1435.0,1350.0,1528.0,1710.0,993.0,107.0,294.2,1649342836.1261566,1649342837.2785385,a97a9e16-d513-4e47-96f4-016dfd74c7ca
0.379028749034392,1.06874355134438,-0.6029817115713471,-0.899682170544323,-0.9429414056419628,0.0122064346746593,-1.0918504866393193,-1.110100890019154,-26.27057549048021,20.677072898307,26.17812935490429,2.154887399385524,4.0352536597775295,3.7923068056752975,7401.213216145833,11.51,7.77,178.6505539098982,1.5021124081797697,50.5592474147886,1886.0,1435.0,1350.0,1528.0,1710.0,993.0,107.0,294.2,1649342837.39053,1649342838.491475,a97a9e16-d513-4e47-96f4-016dfd74c7ca
0.378805221234485,1.0698217443712428,-0.6252687582893907,-0.9123180749239468,-0.9626776094500726,0.0016217340287862,-1.1092462236227298,-1.1377789161168557,-26.005835131980948,20.067489424903908,23.02455372729152,2.154085484943421,4.065506365442626,3.870342901583386,7408.3203125,11.508666666666668,7.760000000000001,178.62160908601552,1.549706956869482,50.18124046100305,1886.0,1435.0,1350.0,1528.0,1710.0,993.0,107.0,294.2,1649342838.59987,1649342839.7181675,a97a9e16-d513-4e47-96f4-016dfd74c7ca
-0.5940011477599336,-0.5815230310555419,-0.759937757062209,0.4008292856292961,-0.6490810550953903,0.3512718532878303,-1.0223858758268751,-1.0431345332464963,-28.260178561787846,24.509044167054864,14.39132562318732,-0.0021157131197631,-2.205707297336267,3.2992361896986835,7408.3203125,11.618,7.819999999999999,179.40269130566037,1.428381132703782,49.64584583762784,1449.0,1435.0,1350.0,1528.0,1386.0,993.0,107.0,294.2,1649342840.63112,1649342841.773388,40063f38-3e0d-4101-8e03-0c99b4d4271e
-0.599352668784222,-0.5776704618807582,-0.7359150790241291,0.4202236108806809,-0.6298839522273421,0.3469722298648324,-1.005279411254009,-1.0286972543144466,-28.129452810595364,25.115984215234697,17.00430691106063,-0.0498244109415016,-2.2161965061062823,3.2201514389120995,7408.3203125,11.629111111111111,7.822222222222223,179.40828447168073,1.4476852512947134,49.33043794704041,1449.0,1435.0,1350.0,1528.0,1386.0,993.0,107.0,294.2,1649342841.881602,1649342842.9975812,40063f38-3e0d-4101-8e03-0c99b4d4271e
-0.5936855789167679,-0.5813652466400151,-0.7529032020777185,0.4140963189694893,-0.6390091506422322,0.3389778232042284,-1.013852366874556,-1.0339041423391504,-28.00594100294693,24.1767681484,14.464863667941648,-0.0613819419153568,-2.2087598443031324,3.264332424578244,7414.72802734375,11.62411111111111,7.815555555555556,179.44492312420846,1.462654986385004,49.10491648429521,1449.0,1435.0,1350.0,1528.0,1386.0,993.0,107.0,294.2,1649342843.1057491,1649342844.4319372,40063f38-3e0d-4101-8e03-0c99b4d4271e
-0.8339912485230365,-0.99052656442328,-0.7797660002871063,0.7764086104425726,-0.5620103604998118,0.3947019936996189,-1.003964540999848,-1.0183229272943453,-28.35082600727388,26.448492276300303,12.733032674929236,-0.740177777448556,-3.771846197522245,3.132048169841204,7414.72802734375,11.589777777777776,7.805555555555555,179.5969783133311,1.4500212945705306,48.79223345973165,1342.0,1435.0,1350.0,1528.0,1293.0,993.0,107.0,294.2,1649342845.0451686,1649342846.2808812,5e926293-2bfb-4420-bdab-7920d01c0984
-0.8291262284807864,-0.992143855095343,-0.7777542489429173,0.7749885513528695,-0.5591307952433628,0.3986071561978804,-1.0005195804385456,-1.0134842041260863,-28.405444560747465,26.39452381684069,12.898867650272011,-0.7284577006861638,-3.77869377664788,3.1204886751739025,7414.72802734375,11.590333333333334,7.8066666666666675,179.61880759791848,1.4437093934356615,48.64000258296536,1342.0,1435.0,1350.0,1528.0,1293.0,993.0,107.0,294.2,1649342846.3938866,1649342847.3635223,5e926293-2bfb-4420-bdab-7920d01c0984
-0.8275483841548612,-0.9941950529632227,-0.7862614590165774,0.764390703173647,-0.5666781488997764,0.4031566047453318,-1.0065679842832056,-1.035652919688683,-28.49683123303709,26.25182155787869,11.819403464726442,-0.6959160006807807,-3.775409849472888,3.149107397422583,7414.72802734375,11.587555555555555,7.793333333333333,179.6445968744046,1.437288055120498,48.5300657553596,1342.0,1435.0,1350.0,1528.0,1293.0,993.0,107.0,294.2,1649342847.4722407,1649342848.7285154,5e926293-2bfb-4420-bdab-7920d01c0984
-1.1003971442479412,-1.4521645303595614,-0.8477447924858129,1.1444537412872946,-0.5136888881063545,0.4781304644113631,-1.0254626732183705,-1.0411096320816895,-29.08713336268601,28.83812916782927,8.103851338092257,-1.37157476281093,-5.506612722957445,3.128848005523443,7414.72802734375,11.490777777777778,7.757777777777777,179.87119371248914,1.4200572783976195,48.39985313174771,1227.0,1435.0,1350.0,1528.0,1189.0,993.0,107.0,294.2,1649342850.666713,1649342851.799844,e82cd2cf-75cb-4978-b7c5-4c93338a1fec
-1.0974649829431966,-1.4462607593321268,-0.828679173301956,1.16416363623322,-0.4983575042413337,0.4698599351977554,-1.0156800368456431,-1.0340487775258844,-29.17953249281369,29.426288231730723,10.43366387275438,-1.429447248033361,-5.505673160080639,3.071916340982698,7409.121276855469,11.488375,7.75125,179.8943897938204,1.4274448631789616,48.39491732400313,1227.0,1435.0,1350.0,1528.0,1189.0,993.0,107.0,294.2,1649342851.9076612,1649342853.2339242,e82cd2cf-75cb-4978-b7c5-4c93338a1fec
-1.098056674669709,-1.441855941389008,-0.8290736344794617,1.156576838915303,-0.4988834522380527,0.470635708182551,-1.0124060092333282,-1.0381511735038569,-28.989433671646022,29.129861740066563,10.178138291867809,-1.4125197564911638,-5.487329107431907,3.0688695424452344,7408.3203125,11.488888888888887,7.762222222222222,179.88853935734136,1.4057674080050255,48.44494528173823,1227.0,1435.0,1350.0,1528.0,1189.0,993.0,107.0,294.2,1649342853.341689,1649342854.4134648,e82cd2cf-75cb-4978-b7c5-4c93338a1fec
-0.3253732200723558,-0.1271828994607735,-0.7386894551778705,-0.0128023862220677,-0.7417662512886329,0.2973622023201322,-1.0344958332812833,-1.0587420456535936,-27.63132278346642,21.55169456579486,15.93278612300094,0.7918094778494715,-0.4675445930120118,3.468931063189788,7408.3203125,11.632555555555555,7.832222222222223,179.3545096334353,1.5339443743689738,48.50233329005458,1553.0,1435.0,1350.0,1528.0,1471.0,993.0,107.0,294.2,1649342855.5436225,1649342856.723812,63c7b78b-4bdb-45c8-882f-acb93fb3ff5a
-0.3269905099512778,-0.1273275351219736,-0.7437648541399859,-0.0172992404976446,-0.7503129075134395,0.3000050901352187,-1.0415566879344562,-1.0646063684200615,-27.57498577973483,21.86058106568177,15.64911436200696,0.8096702658017664,-0.4657344841875017,3.4969989992501564,7414.72802734375,11.629,7.837777777777777,179.3413501356344,1.559404319529052,48.50900410814396,1553.0,1435.0,1350.0,1528.0,1471.0,993.0,107.0,294.2,1649342856.832943,1649342857.9495342,63c7b78b-4bdb-45c8-882f-acb93fb3ff5a
-0.3297648853672476,-0.1264597211711386,-0.7493399039593249,-0.0155241663302691,-0.7535211909320576,0.2969808901840317,-1.047973256283607,-1.0819232153831315,-27.76752306407925,21.72987552170472,15.528948460432575,0.7976102156796285,-0.4606260900587446,3.517974114181548,7421.14794921875,11.630888888888888,7.83,179.30530646847433,1.5402351327481305,48.52275024330357,1553.0,1435.0,1350.0,1528.0,1471.0,993.0,107.0,294.2,1649342858.059337,1649342859.1782582,63c7b78b-4bdb-45c8-882f-acb93fb3ff5a
-0.3118720354778895,-0.1227204339407062,-0.7514052612183704,-0.3011887186355771,-0.7887147033334864,0.5923410408343085,-0.9713931770605704,-1.013165600617366,-27.63742582099524,21.457710727603093,20.92893442775193,2.1047323754342844,-0.4603463528027794,3.4654571503453764,7421.14794921875,11.622555555555556,7.832222222222223,179.30397078703666,1.606111560240963,48.594768896277046,1553.0,1522.0,1350.0,1528.0,1471.0,993.0,107.0,294.2,1649342861.112011,1649342862.2492585,de4368e7-1de5-40d5-96fc-249c41985af2
-0.3016529683658009,-0.1339939245799004,-0.7736518537729522,-0.3216389905775283,-0.8049589138104796,0.5982437934342797,-0.9819273122262498,-1.004937544883906,-27.492965157932748,20.68359844431024,17.405196643828134,2.1573990498306523,-0.4713260324952533,3.5268106806595,7409.032280815973,11.62,7.84,179.32061671695385,1.561174334593339,48.65028846840045,1553.0,1522.0,1350.0,1528.0,1471.0,993.0,107.0,294.2,1649342862.357765,1649342863.478052,de4368e7-1de5-40d5-96fc-249c41985af2
-0.326648643767536,-0.1230542085777442,-0.7864455406802939,-0.358205520469866,-0.8260231349687394,0.6065274712685708,-0.99176254311857,-1.0255415662289675,-27.17805789790543,20.703958627949586,15.23210664022984,2.257808755670359,-0.4095728242291186,3.5850933902684665,7412.592122395833,11.625666666666666,7.85,179.33051897343057,1.5112334617701524,48.68602667432263,1553.0,1522.0,1350.0,1528.0,1471.0,993.0,107.0,294.2,1649342863.586301,1649342864.70202,de4368e7-1de5-40d5-96fc-249c41985af2
-0.305689618772302,-0.1314693747217295,-0.8026184448518394,-0.6430720993160658,-0.87101799649051,0.909578594190013,-0.9267027552596968,-0.9571683023110664,-27.252560363496627,20.374041783892537,20.04036488316096,3.5791309023438047,-0.449180672936985,3.5791411456863624,7405.476996527777,11.613333333333332,7.835555555555554,179.30017775531758,1.5955287038725896,48.72655587849263,1553.0,1613.0,1350.0,1528.0,1471.0,993.0,107.0,294.2,1649342865.6176178,1649342866.7515078,34e0829b-9e1b-4ccd-8c5b-e9cde57ed5c0
-0.2979318868062064,-0.1364395822496841,-0.8232487590233084,-0.6543010900582865,-0.888913381518052,0.914246381003184,-0.9443351670365444,-0.9701066271282768,-27.41066474808325,20.15447808188102,18.39886039789652,3.61212587731392,-0.452083382684016,3.653705990556034,7402.633680555556,11.610555555555557,7.831111111111111,179.3115097980605,1.5576053591665633,48.80948765593996,1553.0,1613.0,1350.0,1528.0,1471.0,993.0,107.0,294.2,1649342866.860351,1649342868.1879578,34e0829b-9e1b-4ccd-8c5b-e9cde57ed5c0
-0.3129345515146478,-0.1382541024810509,-0.8135055704440903,-0.641796675069167,-0.8793805717080904,0.9244497684530744,-0.9365774318237088,-0.949042403941407,-27.565188637993064,20.485110605465856,21.2959744472925,3.609908336706845,-0.4843885910069123,3.620128005140648,7412.592122395833,11.616,7.83,179.35702010741022,1.5456205827551104,48.85784235962402,1553.0,1613.0,1350.0,1528.0,1471.0,993.0,107.0,294.2,1649342868.2963753,1649342869.4178753,34e0829b-9e1b-4ccd-8c5b-e9cde57ed5c0
-0.2908841846594958,-0.1410416262794629,-0.8252079161305907,-0.9227844421283876,-0.9298058499084134,1.2214788017049252,-0.88081378068636,-0.8975257820021217,-27.79025480211998,21.27772845791806,26.508245365250865,4.916601028852309,-0.5055795783716321,3.6294328164672383,7414.72802734375,11.601888888888888,7.819999999999999,179.3177404484034,1.658449924326563,48.892562487904925,1553.0,1710.0,1350.0,1528.0,1471.0,993.0,107.0,294.2,1649342870.0399258,1649342871.2607353,5ac9f52b-19b2-46ff-806c-6a79241af204
-0.3010744257036155,-0.1441710162011929,-0.8324265534798663,-0.9285041279510182,-0.9322646570048004,1.2247002321472789,-0.8828123829898867,-0.9097014818371012,-27.892563103933348,20.805558472227467,25.752767740397385,4.933080784348943,-0.5096582161535863,3.644095080610525,7414.72802734375,11.589666666666666,7.816666666666666,179.30766971392717,1.6210417727262127,48.94749656103446,1553.0,1710.0,1350.0,1528.0,1471.0,993.0,107.0,294.2,1649342871.3688924,1649342872.4897969,5ac9f52b-19b2-46ff-806c-6a79241af204
-0.3158272650855968,-0.1496934690459136,-0.8592630562665832,-0.9494631621263409,-0.9581413068055994,1.2268434696700825,-0.9038897546739312,-0.9299767826048476,-27.72915275978565,20.47120774249433,22.365307167614382,4.981164917086015,-0.5006308284288052,3.740552604666916,7421.14794921875,11.587333333333332,7.813333333333333,179.3185934631397,1.6097881467210684,49.00793918172965,1553.0,1710.0,1350.0,1528.0,1471.0,993.0,107.0,294.2,1649342872.597949,1649342873.7144592,5ac9f52b-19b2-46ff-806c-6a79241af204
-0.285795638520504,-0.1432243100057257,-0.8520312699799115,-1.1888616407526194,-0.988698895700629,1.467254238715439,-0.8426036499013669,-0.8600519780591778,-27.658589857697827,21.28444137075649,26.355514605220936,6.067847030482654,-0.4822847581428043,3.68908418651395,7421.14794921875,11.56377777777778,7.800000000000001,179.30551137414943,1.6595363038595488,49.05893678916753,1553.0,1814.0,1350.0,1528.0,1471.0,993.0,107.0,294.2,1649342874.6286385,1649342875.7622836,34497ad9-ff85-4caf-a1b5-56c1d42e8261
-0.273541051903895,-0.1301019102373006,-0.8520181212955147,-1.1954228457302545,-0.98769959415763,1.439904948611639,-0.8391718382949329,-0.8554893785395226,-27.11836560794789,20.45139180533081,23.458674452864443,6.015478425362806,-0.4104222035619769,3.68098324573324,7421.14794921875,11.55888888888889,7.798888888888888,179.31016956316338,1.6664690525888175,49.07852728952695,1553.0,1814.0,1350.0,1528.0,1471.0,993.0,107.0,294.2,1649342875.8716116,1649342876.9957688,34497ad9-ff85-4caf-a1b5-56c1d42e8261
-0.2955651211734681,-0.1449204919437836,-0.8609066441057636,-1.1864028335858112,-0.993051116714428,1.4631123992286563,-0.8473897772198695,-0.8659425975339561,-27.55968188880752,20.80888690876697,25.805256696502,6.049360928668891,-0.4853430442833343,3.713229181978938,7421.14794921875,11.551,7.800000000000001,179.34147459685926,1.6675583373237943,49.1287872365345,1553.0,1814.0,1350.0,1528.0,1471.0,993.0,107.0,294.2,1649342877.1045792,1649342878.225107,34497ad9-ff85-4caf-a1b5-56c1d42e8261
-0.3346167550123688,-0.1264991672297,-0.7210307490920254,0.2800059242556406,-0.6987568485803202,-0.0082923830236004,-1.1029742910862317,-1.120041311383877,-27.47480078266226,22.48510975485995,10.702236426274672,-0.5492289800275764,-0.4546454480498725,3.47877791646234,7414.72802734375,11.631666666666666,7.843333333333334,179.3547251638491,1.1255748699872177,49.23760884603077,1553.0,1349.0,1350.0,1528.0,1471.0,993.0,107.0,294.2,1649342880.1617987,1649342881.5007946,5cdbb340-dfcc-468e-ae9a-add46e53119c
-0.3363392345350042,-0.1221469484697541,-0.6952855911033251,0.303147628264301,-0.6645702250067081,-0.0200473176331117,-1.0749543991858366,-1.1028953984477523,-27.60836350669361,21.79196743549036,12.881501587743005,-0.6308787339324463,-0.4579203181829212,3.361220922958561,7414.72802734375,11.624666666666666,7.83,179.3382386050125,1.1239560558640884,49.32389500527049,1553.0,1349.0,1350.0,1528.0,1471.0,993.0,107.0,294.2,1649342881.6097896,1649342882.7268932,5cdbb340-dfcc-468e-ae9a-add46e53119c
-0.3413488886201839,-0.1330603670968106,-0.7196632839577219,0.2808211433549363,-0.6950752120800248,0.0014770985153063,-1.0995293301182043,-1.131980336192535,-27.65914711497525,22.48847723665349,11.302962173085804,-0.529021207138265,-0.4832870196551823,3.466924711416494,7414.72802734375,11.636,7.83,179.32705379079167,1.1546575664558187,49.42514079661236,1553.0,1349.0,1350.0,1528.0,1471.0,993.0,107.0,294.2,1649342882.835041,1649342884.1633892,5cdbb340-dfcc-468e-ae9a-add46e53119c
-0.3475813717101961,-0.1225808554780891,-0.6589688785757951,0.6036742044339157,-0.6128826821210042,-0.3024155930335855,-1.13462322611384,-1.166456244418348,-27.73306460367576,24.134813108741763,11.903693742317662,-1.926191580322834,-0.4846580782394503,3.326427316649802,7414.72802734375,11.610333333333337,7.823333333333333,179.37776566864926,1.0436442251458782,49.56992714663829,1553.0,1264.0,1350.0,1528.0,1471.0,993.0,107.0,294.2,1649342885.073556,1649342886.2168694,cdfa1986-39a7-4ffe-a641-58a0ef79e555
-0.3414014834226964,-0.1202272387035724,-0.6572332501614057,0.5993482837862413,-0.6116467043461065,-0.2977872513192126,-1.1337554116879114,-1.157764950575432,-27.933285610964955,24.19979588678047,12.33325211993882,-1.9055479720515391,-0.4775768892664476,3.3218284573344152,7414.72802734375,11.604888888888889,7.819999999999999,179.39104962767505,1.0397296848357818,49.62232532231099,1553.0,1264.0,1350.0,1528.0,1471.0,993.0,107.0,294.2,1649342886.32576,1649342887.4427445,cdfa1986-39a7-4ffe-a641-58a0ef79e555
-0.3418485391906919,-0.1174528636141346,-0.6657010138931401,0.5868044287639964,-0.6204957801170925,-0.2960253258335756,-1.1369111013255866,-1.164483939374953,-27.63125242915652,23.84668565479365,11.286632534057786,-1.8760700764554208,-0.4590312320479897,3.3490224335511245,7414.72802734375,11.608666666666668,7.826666666666666,179.3888260216453,1.0529463024652008,49.68316712961766,1553.0,1264.0,1350.0,1528.0,1471.0,993.0,107.0,294.2,1649342887.5522451,1649342888.6679337,cdfa1986-39a7-4ffe-a641-58a0ef79e555
-0.3354582717288816,-0.099688973957603,-0.6219289881572391,0.8619671691342785,-0.5577764788261357,-0.5918710584788598,-1.1792499357238655,-1.2151985010177468,-27.50550246921257,24.854191246953693,7.719142959468262,-3.1532216148945493,-0.3927637259445549,3.263416763954294,7414.72802734375,11.583444444444446,7.809999999999999,179.36295478288906,0.93694370955201,49.76968247964953,1553.0,1178.0,1350.0,1528.0,1471.0,993.0,107.0,294.2,1649342889.5799744,1649342890.9229736,3fb646f9-82fd-4a6a-af2a-3695cc06b53c
-0.3419931748300554,-0.0925492314894108,-0.6051380977711626,0.8676211081066201,-0.5462187717163525,-0.5842579610428733,-1.1677579662665387,-1.192727360515853,-27.60631144345739,25.411113910496905,10.636994538057602,-3.14392550992787,-0.3907549174931038,3.213154587976394,7416.154676649306,11.588555555555557,7.817777777777778,179.38091666258637,0.926435641383455,49.843821526905344,1553.0,1178.0,1350.0,1528.0,1471.0,993.0,107.0,294.2,1649342891.0307286,1649342892.151446,3fb646f9-82fd-4a6a-af2a-3695cc06b53c
-0.3402969927481593,-0.1036467317593505,-0.6148023929215329,0.8638605812989877,-0.5551335904561685,-0.5716615061310742,-1.1778956192983998,-1.1989729976468169,-27.93634912849068,25.73094377414772,10.311508757542368,-3.105715810140792,-0.4273008322005823,3.250707341619598,7414.72802734375,11.588,7.813333333333334,179.43109578568874,0.91602306542564,49.91679033508336,1553.0,1178.0,1350.0,1528.0,1471.0,993.0,107.0,294.2,1649342892.2605364,1649342893.3789787,3fb646f9-82fd-4a6a-af2a-3695cc06b53c
-0.3292126400222309,-0.0930751793798751,-0.5488748096042579,0.9895752563661688,-0.4864579315444136,-0.7078163035873493,-1.1520058164259022,-1.1799994123304276,-27.60587820702507,26.509686767882364,9.228213800163624,-3.686816524335232,-0.3916743624820561,3.031205536058019,7414.72802734375,11.575666666666669,7.821111111111112,179.38610457071596,0.8965382551288533,49.96451704081872,1553.0,1098.0,1350.0,1528.0,1471.0,993.0,107.0,294.2,1649342894.0163968,1649342895.0149205,4dc1e68e-cfc7-418a-b051-2c44f02df8e5
-0.3324472198172871,-0.0949291456653476,-0.551425657368284,0.9875240599748843,-0.4881935597232333,-0.7130363382814032,-1.1540964608793336,-1.1775406049276085,-27.57574499789737,26.403749750587405,7.943413216668757,-3.694938563598449,-0.3873649441341296,3.0380333811748743,7414.72802734375,11.555888888888887,7.804444444444444,179.3779220040903,0.8546232103194508,49.98856044506204,1553.0,1088.0,1350.0,1528.0,1471.0,993.0,107.0,294.2,1649342895.12386,1649342896.2539475,4dc1e68e-cfc7-418a-b051-2c44f02df8e5
-0.3402575467109914,-0.1001754757542939,-0.5524775535282361,1.017397895795632,-0.4874046378830268,-0.7275656534901042,-1.1646285750775502,-1.1801966441633227,-27.80978495606781,26.871049728471675,9.008206353349442,-3.7918785943029865,-0.4185594972392815,3.054161646458775,7414.016059027777,11.548777777777778,7.802222222222222,179.39120899875567,0.8837681907613424,50.0354618362727,1553.0,1088.0,1350.0,1528.0,1471.0,993.0,107.0,294.2,1649342896.387925,1649342897.476803,4dc1e68e-cfc7-418a-b051-2c44f02df8e5
-0.3338455332880358,-0.1289281361534781,-0.7418471669160243,-0.0138011815533077,-0.7453366299558957,0.3067235677374643,-1.038211354289944,-1.0540024433834314,-27.799261467695352,21.74121715953337,16.861330142907555,0.8162613678921846,-0.4812053200271163,3.4842829379078992,7414.72802734375,11.633,7.834444444444443,179.46103326373083,1.2211945420176018,50.16328465258499,1553.0,1435.0,1350.0,1528.0,1471.0,993.0,107.0,294.2,1649342899.6150415,1649342900.7481165,690ccb52-d828-4988-97db-c3dc77c441cd
-0.3130134436702604,-0.1249081748661344,-0.7381240611903397,-0.0106459999514379,-0.7416742105240256,0.2934175937414625,-1.0349428895243102,-1.0592942920111124,-27.57739135194662,21.552810990375693,15.97128731972218,0.7781499753532702,-0.4599655767180086,3.469057228129304,7419.007975260417,11.631,7.853333333333334,179.48097893392708,1.1884736195931402,50.12745955147837,1553.0,1435.0,1350.0,1528.0,1471.0,993.0,107.0,294.2,1649342900.8603165,1649342901.8029127,690ccb52-d828-4988-97db-c3dc77c441cd
