raw_voltage_G-,raw_voltage_G0,raw_voltage_G1,raw_voltage_G2,raw_voltage_G3,raw_voltage_G4,raw_voltage_G5,raw_voltage_G6,load_x,load_y,load_z,load_l,load_m,load_n,rpm,voltage,current,roll,pitch,yaw,aileron1_pwm,elevator_pwm,throttle_pwm,rudder_pwm,aileron2_pwm,pbaro,pdiff,Tt,sample_start_time,sample_end_time,uid
-0.3340857498681476,-0.1586138487035034,-0.7567279565351117,-0.0914164207747434,-0.7852125967255099,0.4728902037264184,-1.017603287441114,-1.046315507349724,-26.27256040628653,23.37227327312725,26.17675268662069,1.3770658884503757,-0.6772723644821965,3.5388024175896806,3998.296251085069,11.952333333333334,0.18,179.8228374909853,-4.173697561159743,102.61822450966388,1553.0,1435.0,1200.0,1528.0,1471.0,995.0,110.0,294.54999999999995,1649348557.4517422,1649348558.43376,dc0667f7-caaa-434b-ba1c-3e3633ddb763
-0.3431502603201234,-0.1540062417452699,-0.7506547735382703,-0.0967831120365748,-0.7813964388944857,0.4735941646271249,-1.0125111988557114,-1.0313401440573564,-26.292239398054708,23.44834952600847,26.258222079482263,1.3915635266566582,-0.6595267629108325,3.518656592130092,4027.085069444444,11.955666666666666,0.18,179.81338147353435,-4.149345944630139,102.10716243520682,1553.0,1435.0,1200.0,1528.0,1471.0,995.0,110.0,294.54999999999995,1649348558.5423572,1649348559.6650555,dc0667f7-caaa-434b-ba1c-3e3633ddb763
-0.3207448782058882,-0.1534276990482954,-0.7508783012372992,-0.0914578896994257,-0.7806075165132482,0.4686897013660525,-1.01390496123185,-1.0366127744729303,-26.315635374743064,23.41072791199292,26.333001901440976,1.3682697609340762,-0.658524514102582,3.5200924101939863,4031.715087890625,11.951,0.18,179.81642318444472,-4.116183621230565,101.66972221090344,1553.0,1435.0,1200.0,1528.0,1471.0,995.0,110.0,294.54999999999995,1649348559.780241,1649348560.8930824,dc0667f7-caaa-434b-ba1c-3e3633ddb763
-0.1209767144318478,0.2079379239907226,-0.7256853886267746,-0.3880399174056195,-0.8525046220626936,0.3983704797190398,-1.0322079583597223,-1.0489857062287398,-25.717620833715788,22.147281724283506,27.8847696106953,1.8726967596781448,0.7169216675269697,3.653987920095119,4014.9306640625,11.952444444444446,0.18,179.61453948859713,-4.0085659274392444,100.73554281883256,1658.0,1435.0,1200.0,1528.0,1551.0,995.0,110.0,294.54999999999995,1649348562.8818874,1649348563.9272778,ec187be5-ecba-4a01-93bf-0caa8d614f5b
-0.1195172091024363,0.2140126213984909,-0.7186771306628664,-0.3899990735520909,-0.8490333644723691,0.3947940346322901,-1.0268564354542242,-1.056467319303867,-25.54725255945297,22.26784018564728,28.01118070774087,1.8703334570778165,0.738066817896037,3.633053302220028,4004.300238715278,11.937777777777775,0.18,179.58091067276362,-3.994859065867368,100.46893776822974,1658.0,1435.0,1200.0,1528.0,1551.0,995.0,110.0,294.54999999999995,1649348564.0368395,1649348565.1884644,ec187be5-ecba-4a01-93bf-0caa8d614f5b
-0.1268541820783527,0.2071752996507629,-0.7254881581046161,-0.3902357501685922,-0.853674856611352,0.403551065640187,-1.030446031886238,-1.054876325976576,-25.57131002580227,22.204195464626228,28.2334263407444,1.889807824554736,0.7102194974434348,3.653263545960729,3999.9419216579854,11.937333333333337,0.18,179.56106517867522,-3.97938802335112,100.24988753026815,1658.0,1435.0,1200.0,1528.0,1551.0,995.0,110.0,294.54999999999995,1649348565.2968276,1649348566.424449,ec187be5-ecba-4a01-93bf-0caa8d614f5b
0.0934785263868691,0.5629263987164442,-0.6767459219711537,-0.6636235182375814,-0.903889754165112,0.3148105211656202,-1.0344826843030943,-1.0517732314611967,-25.0196349069008,21.54003539373579,29.559415686132244,2.305605106836799,2.0655842027796165,3.704141756010263,4000.665893554688,11.925,0.175,179.27019929614045,-3.918409730840734,99.6849955965974,1767.0,1435.0,1200.0,1528.0,1630.0,995.0,110.0,294.54999999999995,1649348568.5567138,1649348569.6918323,5b5877e5-896f-49a5-ad82-6318e4fcbb12
0.0781208493185509,0.5656218811900356,-0.6887375374742634,-0.658955729397176,-0.9144744604682248,0.3092617717143173,-1.0504320635078612,-1.067328149838131,-25.27424977143376,21.575788198968404,29.65040493880879,2.2821331827771347,2.0753552640130493,3.7579155998518745,4017.654405381944,11.912444444444445,0.17,179.25606232237837,-3.879892467984067,99.5071773133804,1767.0,1435.0,1200.0,1528.0,1630.0,995.0,110.0,294.54999999999995,1649348569.7999706,1649348570.9476411,5b5877e5-896f-49a5-ad82-6318e4fcbb12
0.0849713200095416,0.5634786439064984,-0.6845693991339462,-0.6676601695842882,-0.911502853420496,0.3195046053949589,-1.0419905947763342,-1.0571247552477343,-25.12286773564924,21.535737855778617,29.71670263400913,2.324814099160308,2.066993042901144,3.7360478357059774,4031.0848253038193,11.906444444444444,0.17,179.23470356193383,-3.852305760813208,99.36293130720884,1767.0,1435.0,1200.0,1528.0,1630.0,995.0,110.0,294.54999999999995,1649348571.0575137,1649348572.1566164,5b5877e5-896f-49a5-ad82-6318e4fcbb12
0.2174707283303449,0.794409173844248,-0.6340520899154398,-0.8613011043940709,-0.9348023564292762,0.2593361750732419,-1.0339961823937278,-1.058557963404516,-24.94195062051192,21.975416715932685,28.20099829211341,2.631693675091947,2.9723274256808314,3.711592664154399,4039.31494140625,11.90088888888889,0.16,179.00227526011793,-3.8121056863838447,99.09830397582569,1886.0,1435.0,1200.0,1528.0,1710.0,995.0,110.0,294.54999999999995,1649348572.957304,1649348573.9956124,36b9e89d-bab8-4a80-b414-2228e23fac81
0.2118299378268805,0.786506808136578,-0.6319482977754493,-0.8476396021411651,-0.9302397561871092,0.2526040429345011,-1.0323394454898922,-1.0528119791649817,-24.85774880719516,21.99543321926788,27.945550220176564,2.5859877850621307,2.9428085050930206,3.699005677558258,4039.31494140625,11.856333333333334,0.15,178.9631640791106,-3.784368051005076,98.90487529526064,1886.0,1435.0,1200.0,1528.0,1710.0,995.0,110.0,294.54999999999995,1649348574.1043806,1649348575.222948,36b9e89d-bab8-4a80-b414-2228e23fac81
0.2099759717664357,0.7675726873173458,-0.6074785659348102,-0.8380673466628743,-0.9046129330256004,0.2566932872431289,-1.0030967262083204,-1.036862600924835,-24.53824911074273,22.13030043367577,27.346421071851392,2.575762003582424,2.875217754632067,3.5862266413342208,4037.2098253038193,11.86188888888889,0.151111111111111,178.94692947836342,-3.7768058932290094,98.77928025898262,1886.0,1435.0,1200.0,1528.0,1710.0,995.0,110.0,294.54999999999995,1649348575.3317127,1649348576.4528182,36b9e89d-bab8-4a80-b414-2228e23fac81
-0.5530874496662328,-0.5579549973183642,-0.7644022467885576,0.2728530339672247,-0.6872421254860339,0.513979875776271,-0.987437124624231,-1.0125460930656571,-26.524543504207944,25.14663412469994,24.14618683906808,0.6586270227819266,-2.200569924644003,3.323979054011579,3973.9869791666665,11.912,0.1666666666666666,179.4631399976348,-3.9143873423179625,98.49887670843655,1449.0,1435.0,1200.0,1528.0,1386.0,995.0,110.0,294.54999999999995,1649348577.5682323,1649348578.702198,06a4bc59-1f8a-4f2b-aa25-db383b1989f8
-0.5777230566764344,-0.5617999806975899,-0.7642636798803109,0.2723139374323284,-0.6860289050565136,0.5175108061096301,-0.9839259149527022,-1.0088295617268257,-26.387726125166804,25.01852249893476,24.056915805416725,0.6669898367280449,-2.2150951168664794,3.316690887464749,3966.620551215278,11.954666666666666,0.19,179.4360362891884,-3.906397017058301,98.44863231908214,1449.0,1435.0,1200.0,1528.0,1386.0,995.0,110.0,294.54999999999995,1649348578.814482,1649348579.9099836,06a4bc59-1f8a-4f2b-aa25-db383b1989f8
-0.583008834163431,-0.5579079654384249,-0.7678664241569874,0.2641354488972877,-0.6907098426630622,0.5207716824888908,-0.98735772675483,-1.0131423364055296,-26.45814808807756,24.996023693486823,23.96560866783548,0.6923875843256352,-2.198411840471109,3.3330940294981355,3958.27601453993,11.953333333333331,0.1855555555555555,179.42978894282757,-3.917504707059772,98.39060834426304,1449.0,1435.0,1200.0,1528.0,1386.0,995.0,110.0,294.54999999999995,1649348580.018563,1649348581.0741794,06a4bc59-1f8a-4f2b-aa25-db383b1989f8
-0.7828033497224799,-0.9249539771674944,-0.7878261540996243,0.614705959544822,-0.6127643434795654,0.5509216401587139,-0.9814802559570076,-1.0147333306583606,-27.092289214606858,27.03802630119394,22.94240409619222,-0.0186021113758109,-3.605894058131946,3.2017050286879583,3948.146728515625,11.941666666666666,0.1833333333333333,179.51401883567212,-3.962277118819768,98.24088073182756,1342.0,1435.0,1200.0,1528.0,1293.0,995.0,110.0,294.54999999999995,1649348582.073697,1649348583.217469,10e21670-f8fa-4a94-b6ed-dbab9d620680
-0.7902718125876202,-0.9300030794529828,-0.7998046219045517,0.6206491696639204,-0.6218895417060306,0.550829599286861,-0.995128611359001,-1.0141679361245322,-27.337983616164603,27.08693841824168,22.906104112667823,-0.0326170315615595,-3.624260848959442,3.2490922750791835,3944.512451171875,11.911888888888887,0.17,179.4934022891174,-3.976475896307493,98.0727852228941,1342.0,1435.0,1200.0,1528.0,1293.0,995.0,110.0,294.54999999999995,1649348583.330805,1649348584.440426,10e21670-f8fa-4a94-b6ed-dbab9d620680
-0.7957942675681815,-0.93518366870311,-0.7936904753032599,0.6222270130625567,-0.6146840537417504,0.5514344392457208,-0.9871341987924004,-1.0184938592333537,-27.28052337133884,27.039640817806948,22.53183786517559,-0.0348569375549739,-3.640588249736957,3.21848025348604,3941.494140625,11.912666666666668,0.17,179.49182982778848,-3.973222496964714,97.97400702711738,1342.0,1435.0,1200.0,1528.0,1293.0,995.0,110.0,294.54999999999995,1649348584.5484238,1649348585.6719725,10e21670-f8fa-4a94-b6ed-dbab9d620680
-0.9992836016349298,-1.2994817169967154,-0.8078121817431679,0.9664335525525772,-0.5380139824793224,0.5745498450571515,-0.9801390882021396,-0.9975348245610016,-27.68751302385891,29.56409874478813,20.07892885247768,-0.7439232624941376,-5.025538398920023,3.0775003578010125,3941.893717447917,11.897444444444444,0.1677777777777777,179.58275785947913,-4.038150464942332,97.69913213524949,1227.0,1435.0,1200.0,1528.0,1189.0,995.0,110.0,294.54999999999995,1649348587.4017315,1649348588.5370495,b2cf36ce-a186-4793-87f4-2c1f55b6c7ee
-1.0166135943047947,-1.3087384075794932,-0.819540824332233,0.9745988922239992,-0.545784864094613,0.5766536362684167,-0.993563915458537,-1.009657929785415,-28.034687422604144,29.66834439123625,20.061283508434897,-0.7576852911509744,-5.0593901048837004,3.121827178923651,3928.443305121528,11.82011111111111,0.1411111111111111,179.59592949983858,-4.029705457784172,97.40520177450716,1227.0,1435.0,1200.0,1528.0,1189.0,995.0,110.0,294.54999999999995,1649348588.6450417,1649348589.9690835,b2cf36ce-a186-4793-87f4-2c1f55b6c7ee
-1.0237138949735305,-1.3172587707301495,-0.8240902753215172,0.9796479912490932,-0.5478886560385344,0.5828598202978591,-0.996206804842768,-1.0277111013186615,-28.075049311967103,29.68586962556453,20.389806888744523,-0.7552070013487576,-5.094882435814067,3.134098174140391,3935.45751953125,11.82611111111111,0.15,179.60319833893527,-4.022315525125303,97.17364470126536,1227.0,1435.0,1200.0,1528.0,1189.0,995.0,110.0,294.54999999999995,1649348590.078172,1649348591.2063844,b2cf36ce-a186-4793-87f4-2c1f55b6c7ee
-0.3384430262808255,-0.1629342071998805,-0.7425288756039844,-0.0827403036442495,-0.767024907303212,0.4703332882527001,-0.9991258173165898,-1.021544358961901,-26.13951228058156,23.018803274465927,26.476400859461776,1.3502275261859165,-0.6972478560471356,3.4685812872956125,3975.000895182292,11.878666666666668,0.1633333333333333,179.19677476256282,-3.851057875765473,96.77817750723152,1553.0,1435.0,1200.0,1528.0,1471.0,995.0,110.0,294.54999999999995,1649348593.5434325,1649348594.681221,d5dfec54-29cf-4ae8-b5cb-6d304013dd9d
-0.3389037785539464,-0.1603417223786755,-0.7436098083296366,-0.0834218444797155,-0.7691265080222885,0.4700560699268026,-1.001557231820945,-1.0276081033115216,-26.168705416979908,23.091829259386586,26.694504709957613,1.3515923155167455,-0.6892342634648762,3.4769439346129034,3977.4599609375,11.964,0.19,179.1650143829223,-3.815602363783937,96.93375100268663,1553.0,1435.0,1200.0,1528.0,1471.0,995.0,110.0,294.54999999999995,1649348594.791013,1649348595.9096642,d5dfec54-29cf-4ae8-b5cb-6d304013dd9d
-0.3391662046973726,-0.1633155194171806,-0.7456056717489459,-0.0829375341254084,-0.7702068931059443,0.4736730567994213,-1.0019790860597722,-1.0250024687439352,-26.152035790522387,23.05715955863298,26.848793146702537,1.3583314576907994,-0.7020599924974437,3.4816245837684865,3975.823920355903,11.966,0.1822222222222222,179.1568211915579,-3.8342152458865217,97.04637019736144,1553.0,1435.0,1200.0,1528.0,1471.0,995.0,110.0,294.54999999999995,1649348596.0181973,1649348597.062826,d5dfec54-29cf-4ae8-b5cb-6d304013dd9d
-0.3260175062460073,-0.1730981502419292,-0.7812518029911472,-0.3336174539792859,-0.8276272764481601,0.7252996329272466,-0.967608373056663,-0.9919334760110442,-26.323745986869834,22.50921857564084,28.443319420877188,2.484002890079492,-0.72307273314721,3.55845830904349,3990.422119140625,11.955333333333336,0.1844444444444444,179.14234119051744,-3.729778428109919,97.23860587155146,1553.0,1522.0,1200.0,1528.0,1471.0,995.0,110.0,294.54999999999995,1649348599.0725372,1649348600.2169237,3e02732f-f76c-4a4d-b4ce-628b95c3c6d0
-0.3588892523919983,-0.1842876917393884,-0.7983845622019021,-0.327871472805735,-0.8406181948721216,0.7311902482777236,-0.983557751377234,-1.001111271726688,-26.50395404545624,22.51769737045699,28.34785042687532,2.48337554301824,-0.7647121443740287,3.6206470539851305,3992.901204427084,11.954,0.1811111111111111,179.14620859540753,-3.732439687997154,97.24586332699954,1553.0,1522.0,1200.0,1528.0,1471.0,995.0,110.0,294.54999999999995,1649348600.328971,1649348601.4456432,3e02732f-f76c-4a4d-b4ce-628b95c3c6d0
-0.337233346002228,-0.1836434055568228,-0.8013298712564477,-0.3335517105162492,-0.8435109092268278,0.7391057626581283,-0.9853722723510316,-1.0128530658457615,-26.62902037964574,22.50866050126335,28.80145280664887,2.513778773746677,-0.7649182684522283,3.63176947421064,4005.339599609375,11.954333333333333,0.18,179.13195171387997,-3.712133677890313,97.24451550300334,1553.0,1522.0,1200.0,1528.0,1471.0,995.0,110.0,294.54999999999995,1649348601.5539644,1649348602.6684072,3e02732f-f76c-4a4d-b4ce-628b95c3c6d0
-0.338508769758705,-0.1900862673327022,-0.8389351606511523,-0.6356167855252299,-0.9104904032602312,1.039961056949966,-0.9414293031445746,-0.955906026608668,-26.78488597652831,22.04547089752181,31.160610231250786,3.8665801661027785,-0.7740900457876699,3.711673053144566,4041.010199652778,11.950444444444445,0.1777777777777777,179.1119756872874,-3.598749264869125,97.25998739929324,1553.0,1613.0,1200.0,1528.0,1471.0,995.0,110.0,294.54999999999995,1649348604.3976402,1649348605.534673,573dbe59-1095-48b1-a481-0c0bf2c27186
-0.3427557993584988,-0.192466181578233,-0.8415254552401524,-0.6289372453594502,-0.912291775750994,1.035385310876759,-0.9453213195990576,-0.9692651099136516,-26.762683653093507,22.091869290302373,31.02746299980356,3.841399000415301,-0.7829790515596229,3.722778134791824,4046.943603515625,11.942,0.1733333333333333,179.11655191403133,-3.5589883146851498,97.1962602165172,1553.0,1613.0,1200.0,1528.0,1471.0,995.0,110.0,294.54999999999995,1649348605.6440656,1649348606.76054,573dbe59-1095-48b1-a481-0c0bf2c27186
-0.3423481897187219,-0.1900205238538258,-0.8352009291665801,-0.6231255196213035,-0.907150632650389,1.0259051014609302,-0.9399960944976292,-0.9648997399709262,-26.50992351751636,22.081468534832634,30.824964958445204,3.807326799620789,-0.7741153702115886,3.699815007787151,4046.943603515625,11.943555555555555,0.17,179.11746867719992,-3.5628216872090155,97.1418714201564,1553.0,1613.0,1200.0,1528.0,1471.0,995.0,110.0,294.54999999999995,1649348606.8680751,1649348608.003239,573dbe59-1095-48b1-a481-0c0bf2c27186
-0.3269510638343971,-0.1976862144746211,-0.858539876747954,-0.8811687949029673,-0.9581939007160688,1.2827385771553772,-0.8940413754262282,-0.9115291513755852,-26.4658966685054,21.890298281986283,32.577106230201586,4.964420369516572,-0.7884193224532444,3.735112003275334,4022.8853352864585,11.936,0.17,179.093010528692,-3.45952019865445,97.03412063253998,1553.0,1710.0,1200.0,1528.0,1471.0,995.0,110.0,294.54999999999995,1649348609.9256227,1649348611.0703716,bee4112a-cfa3-4d4c-983a-acbd3d6c1fb0
-0.3494090407721802,-0.2015387828578868,-0.8603938439652922,-0.8899652773193432,-0.9601004629123128,1.2938097794329255,-0.8920559212251936,-0.9187740870375534,-26.44527861040613,21.849984445875297,32.46378925979207,5.00877430321104,-0.801045580396228,3.736736958674287,4016.6005859375,11.925888888888888,0.1644444444444444,179.09323971948413,-3.453769653691992,96.97051563425912,1553.0,1710.0,1200.0,1528.0,1471.0,995.0,110.0,294.54999999999995,1649348611.1857045,1649348612.165163,bee4112a-cfa3-4d4c-983a-acbd3d6c1fb0
-0.3316714465941044,-0.1942807018370471,-0.856015325783479,-0.8862967893319804,-0.9558008366021368,1.2842901233886974,-0.8902808461945123,-0.9077423242947164,-26.479137109506954,21.763531954512395,32.62651038362107,4.978760967024541,-0.7752014756377328,3.723536682965795,4019.113525390625,11.924888888888889,0.16,179.0801333453768,-3.439735014187758,96.8783930783736,1553.0,1710.0,1200.0,1528.0,1471.0,995.0,110.0,294.54999999999995,1649348612.2734592,1649348613.52258,bee4112a-cfa3-4d4c-983a-acbd3d6c1fb0
-0.3226382908396857,-0.1965948725844213,-0.8487703912011927,-1.0798194202474567,-0.976299667196976,1.4735656134122013,-0.8338992084095542,-0.8614720381592724,-26.111415178484744,22.0585452562844,34.11669758128431,5.843366982121137,-0.7754000884429623,3.6615667652561696,4012.005560980903,11.908444444444443,0.1544444444444444,179.09804665484003,-3.3843350178067,96.62446030541088,1553.0,1814.0,1200.0,1528.0,1471.0,995.0,110.0,294.54999999999995,1649348615.456987,1649348616.797025,1f4ea135-1fb4-43ee-ab8d-7c3d19d7b493
-0.3343669297363148,-0.1968841439371946,-0.8481655504929279,-1.078083791528537,-0.9749847963481212,1.4700812087127542,-0.8335441931217054,-0.8572250067936236,-26.114952393716923,22.005384559921705,33.81280897069049,5.831249392561998,-0.7739428902024023,3.658016885712336,4012.840087890625,11.896666666666668,0.15,179.095882243783,-3.374094287511128,96.49571579301558,1553.0,1814.0,1200.0,1528.0,1471.0,995.0,110.0,294.54999999999995,1649348616.905687,1649348618.036013,1f4ea135-1fb4-43ee-ab8d-7c3d19d7b493
-0.3216389897408668,-0.1988827459596319,-0.8484416731374235,-1.079661635792064,-0.9760366925450014,1.4764714754569814,-0.8342410741113833,-0.8669813445700911,-26.21089442359165,22.17572476002856,34.23076731015685,5.85030219216784,-0.7842845124861196,3.661015024264201,4014.929253472222,11.888555555555556,0.1444444444444444,179.0864641718275,-3.338050027452697,96.38760148755335,1553.0,1814.0,1200.0,1528.0,1471.0,995.0,110.0,294.54999999999995,1649348618.143834,1649348619.2189782,1f4ea135-1fb4-43ee-ab8d-7c3d19d7b493
-0.3479930270647783,-0.1499660516336306,-0.6950807744036832,0.2781630841339124,-0.6911614499555564,0.1113642930708336,-1.0598561450317838,-1.0750150858587673,-26.311076657087696,24.42121229411071,24.430563635984893,-0.2592864992352815,-0.6706660851755806,3.388195133624357,4020.368896484375,11.90711111111111,0.1566666666666666,179.08346495987195,-3.7705297557235458,96.20709248925834,1553.0,1349.0,1200.0,1528.0,1471.0,995.0,110.0,294.54999999999995,1649348620.880931,1649348622.1271884,83d9683e-798a-4578-aafe-8d7574b9b827
-0.3517626577950851,-0.1476422722617318,-0.6970738141669554,0.2723928296714544,-0.693747192734851,0.1123994999898638,-1.0627261029391155,-1.0887342423545388,-26.44846266767589,24.44257855027185,24.12798768596421,-0.2440189602734493,-0.657711936169521,3.398218930167262,4020.159450954861,11.965,0.18,179.06002071500086,-3.8006267471418607,96.43214570459044,1553.0,1349.0,1200.0,1528.0,1471.0,995.0,110.0,294.54999999999995,1649348622.2348878,1649348623.5603764,83d9683e-798a-4578-aafe-8d7574b9b827
-0.3371281564103831,-0.1497723612086551,-0.6999796772244185,0.2760876130755923,-0.6948253862705575,0.1127808121450652,-1.0642776501683426,-1.0904304263346551,-26.42275840166707,24.32990728207993,24.353080433650035,-0.252339411151082,-0.6685190185970619,3.4060138993061058,4013.884331597222,11.965555555555556,0.1855555555555555,179.03042474641725,-3.791869828011604,96.58262919129407,1553.0,1349.0,1200.0,1528.0,1471.0,995.0,110.0,294.54999999999995,1649348623.669139,1649348624.7848015,83d9683e-798a-4578-aafe-8d7574b9b827
-0.3515785760266011,-0.1372285040724686,-0.6547349963680883,0.5455175265215001,-0.6327109223791859,-0.1624608541617734,-1.102987439203352,-1.1313754954630797,-26.354895594424555,25.650635599263765,22.25236596821838,-1.4679046152402242,-0.6336155837139372,3.315275493967693,4010.3369140625,11.963,0.18,179.03909756884337,-3.880656642829331,96.85159976407948,1553.0,1264.0,1200.0,1528.0,1471.0,995.0,110.0,294.54999999999995,1649348626.9235675,1649348628.069944,6b5b2754-efc2-482f-9204-a29e8b44932e
-0.3525121336517799,-0.1427246595025175,-0.6580221716584124,0.5456753108628479,-0.6336050340523461,-0.1576352822108559,-1.104026187073398,-1.124446127855749,-26.435936417384664,25.558230728733065,22.178388857161263,-1.4582456622623752,-0.6532296470603451,3.3216663045686152,4004.508110894097,11.953444444444443,0.1744444444444444,179.02617940439313,-3.88572843774302,96.93691338027236,1553.0,1264.0,1200.0,1528.0,1471.0,995.0,110.0,294.54999999999995,1649348628.1828718,1649348629.292035,6b5b2754-efc2-482f-9204-a29e8b44932e
-0.3438208439393883,-0.1332707462343162,-0.6614145364771796,0.5455438239118766,-0.6397717746871922,-0.1645646456947692,-1.1124150613769372,-1.1302447069124022,-26.50036357528099,25.71759734184125,22.44585345911121,-1.4726225170603555,-0.6198824230357904,3.3480433088359267,4003.46875,11.955,0.1777777777777777,179.02253815465562,-3.901341965594453,97.0330164186242,1553.0,1264.0,1200.0,1528.0,1471.0,995.0,110.0,294.54999999999995,1649348629.400792,1649348630.5292685,6b5b2754-efc2-482f-9204-a29e8b44932e
-0.3567986093639529,-0.1281427543414319,-0.6160778160975355,0.8392988187610658,-0.5741992051389815,-0.4558872045282428,-1.1565552680732305,-1.18036757650422,-26.53329303713933,27.208154781806897,20.1884621526204,-2.778140368508056,-0.6136772089990669,3.2591559340271288,4000.97705078125,11.950333333333331,0.1766666666666667,179.0107796045445,-3.9947458459955008,97.2021432861223,1553.0,1178.0,1200.0,1528.0,1471.0,995.0,110.0,294.54999999999995,1649348632.4557936,1649348633.593995,1aa10c29-6054-4fa6-b838-94d10aa9bf6b
-0.3440838178795401,-0.1309171294555929,-0.6170376711097215,0.83702409454525,-0.5746988556343545,-0.4504830891841125,-1.154556664587905,-1.1734776534802438,-26.433510457959905,27.12970501509133,20.27684234649761,-2.761368910270552,-0.6253544633846415,3.2581702639875103,3996.417290581597,11.941444444444445,0.17,179.02274154251094,-4.000591302128301,97.26795823005465,1553.0,1178.0,1200.0,1528.0,1471.0,995.0,110.0,294.54999999999995,1649348633.7019694,1649348634.8213274,1aa10c29-6054-4fa6-b838-94d10aa9bf6b
-0.3519861856821618,-0.1266963976596175,-0.6196016678439755,0.8320538877706948,-0.5777099080918862,-0.4521266765250722,-1.1577123541476406,-1.183654752649161,-26.498622988399607,27.064308075406203,19.959779750276308,-2.7544952134397978,-0.6058048986655833,3.2702607118820284,3995.796251085069,11.928444444444445,0.16,179.02583789493465,-4.006539637985473,97.31983048116123,1553.0,1178.0,1200.0,1528.0,1471.0,995.0,110.0,294.54999999999995,1649348634.9296684,1649348636.0554626,1aa10c29-6054-4fa6-b838-94d10aa9bf6b
-0.3563909997520864,-0.1361108648100529,-0.5660864570218307,1.0194359433629878,-0.5140307537760329,-0.6242826052878335,-1.1603552440824254,-1.1857979915852632,-26.51859924291737,28.52259362616068,18.883387590634246,-3.5518903679066938,-0.651086882044159,3.1127163889496607,3995.5893283420137,11.904333333333334,0.1555555555555555,179.04285113724725,-4.073024367343294,97.36406582186588,1553.0,1088.0,1200.0,1528.0,1471.0,995.0,110.0,294.54999999999995,1649348636.9609902,1649348638.0947163,bb2d888c-1081-4fa0-b948-98cb2edfd80a
-0.3543135053187232,-0.1309039807411215,-0.5644165722009633,1.0127827035039028,-0.5148196758486075,-0.6231386684022351,-1.159119265953577,-1.1898083475731125,-26.4770480387949,28.567361704791992,18.9107437814524,-3.533906511244165,-0.6311686702011119,3.110375887886564,3990.8350965711807,11.908555555555555,0.1577777777777777,179.03619549735603,-4.084627625514546,97.33422776102174,1553.0,1088.0,1200.0,1528.0,1471.0,995.0,110.0,294.54999999999995,1649348638.202258,1649348639.3290665,bb2d888c-1081-4fa0-b948-98cb2edfd80a
-0.3508159515834712,-0.1260652602048957,-0.564824182062162,1.0171349217673589,-0.5165421555826386,-0.6323296103099562,-1.1615123309817612,-1.1919121416888387,-26.29933372635622,28.566778001397708,18.836210100931588,-3.564323912939437,-0.6141794557726464,3.1173278419752632,3989.8030598958335,11.903333333333332,0.16,179.0376951033338,-4.081617172205993,97.33602637750316,1553.0,1088.0,1200.0,1528.0,1471.0,995.0,110.0,294.54999999999995,1649348639.4370873,1649348640.558926,bb2d888c-1081-4fa0-b948-98cb2edfd80a
-0.3521146383302591,-0.157893198946475,-0.7425551729039997,-0.0532093420685944,-0.7658182608837358,0.4368450789515813,-1.0116357981869142,-1.035000035218614,-26.291925683544907,23.263523391538293,26.23344182642328,1.209865953972618,-0.6787423360761156,3.485104381005511,3997.246771918403,11.91,0.1566666666666666,179.0586197673111,-3.746570353320657,97.36240380916784,1553.0,1435.0,1200.0,1528.0,1471.0,995.0,110.0,294.54999999999995,1649348642.4929574,1649348643.4389627,675ac29a-f50a-45d2-9137-a74b0240ab1b
-0.3458720408633589,-0.1605542929763704,-0.7365593648256408,-0.0536422375810188,-0.7595827417732046,0.4394075573516228,-1.0030572797961623,-1.0300515718024872,-26.160988894604543,23.19222182352727,26.2266624984655,1.2164914053855516,-0.6891575182754138,3.456009930574639,4008.253038194444,11.964666666666666,0.1755555555555555,179.06460908430327,-3.745838906465165,97.37563312668026,1553.0,1435.0,1200.0,1528.0,1471.0,995.0,110.0,294.54999999999995,1649348643.547385,1649348644.5936177,675ac29a-f50a-45d2-9137-a74b0240ab1b
-0.3343669297246999,-0.1576352821797422,-0.7383870345168004,-0.0492900189661007,-0.7615156010705543,0.4312027715816605,-1.0073174601923638,-1.0271588556168263,-26.14719172176177,23.196047965439785,26.013172541523,1.1881438891640286,-0.6770666008298789,3.467297789821464,4012.422824435764,11.970222222222224,0.18,179.05823120543832,-3.769956114697004,97.3923405283,1553.0,1435.0,1200.0,1528.0,1471.0,995.0,110.0,294.54999999999995,1649348644.7029102,1649348645.878928,675ac29a-f50a-45d2-9137-a74b0240ab1b
-0.2688601153934945,-0.1285635126484922,-0.5215912561580296,-0.0769680257083308,-0.5656525498610656,0.4199343398331997,-0.7791743078901792,-0.8055243075035997,-24.62067743604335,23.005328100513207,26.54438764912425,1.235640785022586,-0.5663940116666787,2.585351524546025,4016.1826171875,11.967999999999998,0.1777777777777777,179.0501412258214,-3.7523612153719657,97.36959448054408,1553.0,1435.0,1200.0,1424.0,1471.0,995.0,110.0,294.54999999999995,1649348646.9950497,1649348648.1362994,9a4e3591-067b-45b6-aff3-00b543e5da9a
-0.2653494130390332,-0.12288327549998,-0.5281130113133038,-0.0726421045546765,-0.5716483571799624,0.4100596697377562,-0.7896406750209546,-0.8048800211259269,-24.75555699215714,22.982289379534745,26.43376694320511,1.203129869720558,-0.5441010446460842,2.6177941273455088,4016.6005859375,11.96811111111111,0.1711111111111111,179.05006078137114,-3.762491666571564,97.3885239703738,1553.0,1435.0,1200.0,1424.0,1471.0,995.0,110.0,294.54999999999995,1649348648.2446806,1649348649.3669622,9a4e3591-067b-45b6-aff3-00b543e5da9a
-0.277248984710525,-0.1256050557971267,-0.5228929775061795,-0.0738517845551148,-0.5667570407112932,0.4134651818178911,-0.7830400264399948,-0.8060897022802842,-24.702865096494623,23.01372335495523,26.42527430419619,1.2140047242204033,-0.5541266529200162,2.594290606865961,4017.23046875,11.966666666666663,0.1744444444444444,179.05869110484238,-3.751492358391297,97.38573194082306,1553.0,1435.0,1200.0,1424.0,1471.0,995.0,110.0,294.54999999999995,1649348649.4794233,1649348650.59402,9a4e3591-067b-45b6-aff3-00b543e5da9a
-0.1949381367038666,-0.0885257302194769,-0.2485190797888596,-0.0843970394735661,-0.3197850232761875,0.3729540518567528,-0.5030252921573648,-0.5344638334534411,-22.583262631041645,23.08527405618852,26.572841619585816,1.1619851010954898,-0.4126731464446591,1.491277842348257,4029.188313802084,11.967666666666666,0.17,179.0445526132605,-3.7599213810095233,97.36039193900233,1553.0,1435.0,1200.0,1304.0,1471.0,995.0,110.0,294.54999999999995,1649348652.5265305,1649348653.5080135,75c77a65-608f-4c53-90ae-b87ad74c7dc2
-0.186693903396618,-0.0855935708231474,-0.2480983214403545,-0.0897354103851652,-0.3190618448796459,0.3754786013519681,-0.5014605969189946,-0.5238133866708341,-22.655085403459683,22.958243581183314,26.65083794187082,1.178855287663407,-0.4011769142765244,1.4879114141216443,4024.353624131944,11.966666666666669,0.1711111111111111,179.03798348909876,-3.765882713198868,97.35822145666609,1553.0,1435.0,1200.0,1304.0,1471.0,995.0,110.0,294.54999999999995,1649348653.6157403,1649348654.892266,75c77a65-608f-4c53-90ae-b87ad74c7dc2
-0.1866413086010241,-0.0880260797283445,-0.2493211503669497,-0.0802420513526915,-0.318851465721125,0.3673001128618691,-0.5052079762437005,-0.5242998883677346,-22.701080308036467,23.00631654536004,26.3728019982322,1.139252759495757,-0.4087560766824319,1.4939720544943444,4022.25537109375,11.967,0.1744444444444444,179.04145929647638,-3.786338465716886,97.38204136194156,1553.0,1435.0,1200.0,1304.0,1471.0,995.0,110.0,294.54999999999995,1649348655.0040295,1649348656.1230705,75c77a65-608f-4c53-90ae-b87ad74c7dc2
-0.1210950527270566,-0.0547730254606936,-0.0402305670091709,-0.0666725961948953,-0.1311406573803145,0.3106555334080736,-0.3035463810133815,-0.3358001379136039,-21.277633531155303,23.415989501543272,26.29740707341371,0.9951870549526316,-0.2818520030806938,0.6710301000090828,4027.927815755209,11.965333333333332,0.17,179.0154560073962,-3.796508143072343,97.39248927464196,1553.0,1435.0,1200.0,1166.0,1471.0,995.0,110.0,294.54999999999995,1649348658.055357,1649348659.196134,4d2ce0ac-edd8-48c5-a77b-d59ff40d823f
-0.1134293623231612,-0.0596774893463939,-0.0438070124536628,-0.0705514617260644,-0.1334022332331646,0.322305277518,-0.3027180129493294,-0.3325655581995969,-21.247249528537345,23.318431313932862,26.752762507344418,1.0293784284816003,-0.3042483894881165,0.6778821930366935,4024.1435546875,11.960555555555556,0.17,179.0336212749488,-3.8002165563367054,97.40013908651235,1553.0,1435.0,1200.0,1166.0,1471.0,995.0,110.0,294.54999999999995,1649348659.3035371,1649348660.429657,4d2ce0ac-edd8-48c5-a77b-d59ff40d823f
-0.1165456035631942,-0.0531162896792485,-0.0423343584471147,-0.0715507626827189,-0.1340202220116337,0.3146132907367359,-0.3041775184541554,-0.3296728445696607,-21.215910519460625,23.372773561194027,26.441798556730625,1.014747460728877,-0.2768883303567875,0.6791407211292964,4024.7737630208335,11.956666666666669,0.1633333333333333,179.0403224494345,-3.808203561365521,97.39204758907562,1553.0,1435.0,1200.0,1166.0,1471.0,995.0,110.0,294.54999999999995,1649348660.5415766,1649348661.68487,4d2ce0ac-edd8-48c5-a77b-d59ff40d823f
-0.416901311478133,-0.1994086938508321,-0.9863978713880148,0.0287211975032146,-0.9844518631328668,0.4140437243863282,-1.2849129484725403,-1.3141030811583716,-28.142710291627267,24.254980242237625,25.941612055940663,0.9672656332364488,-0.8442937202345095,4.497946309420552,4019.531494140625,11.936333333333332,0.1622222222222222,179.08494635201194,-3.814681379178977,97.51281368161042,1553.0,1435.0,1200.0,1623.0,1471.0,995.0,110.0,294.54999999999995,1649348663.5888307,1649348664.9284608,f1505bdd-4955-43f3-9d84-d03cc143c283
-0.4084896841252071,-0.1939383299651436,-0.9866026877734224,0.0273517101310731,-0.986855547440614,0.4080317363566224,-1.284471455252206,-1.3063438256339512,-27.800999637286893,24.16221691145896,25.67002150543399,0.956348698905185,-0.8236339177856866,4.501414699891026,4019.11279296875,11.935,0.16,179.10780016497478,-3.8279496382560274,97.45749901516211,1553.0,1435.0,1200.0,1623.0,1471.0,995.0,110.0,294.54999999999995,1649348665.036183,1649348666.1538994,f1505bdd-4955-43f3-9d84-d03cc143c283
-0.4135220958040706,-0.1971997126823193,-0.9880414593493466,0.0307855427911643,-0.9854380158574948,0.4090472202065786,-1.2873717567300216,-1.3098954939738032,-28.152037083458044,24.17115765730837,25.79459363648711,0.950715523792208,-0.8349994458999345,4.5051366061452605,4019.9501953125,11.938555555555556,0.151111111111111,179.11567461417792,-3.827725000923325,97.40625741818889,1553.0,1435.0,1200.0,1623.0,1471.0,995.0,110.0,294.54999999999995,1649348666.2624424,1649348667.3863516,f1505bdd-4955-43f3-9d84-d03cc143c283
-0.4643944129240249,-0.202932544809248,-1.1363851527150912,0.0808031832932856,-1.1233284874775875,0.3769644038859645,-1.461815684185184,-1.477791368798803,-29.26386383111864,24.90177727796458,25.737198593459983,0.7626816349915806,-0.8636731751198397,5.142114728432321,4027.92578125,11.916000000000002,0.1477777777777777,179.11371510879604,-3.869091614744684,97.35215093631376,1553.0,1435.0,1200.0,1712.0,1471.0,995.0,110.0,294.54999999999995,1649348668.5011177,1649348669.637809,122b64c8-2d2d-4fb4-9fb9-3d78f198b057
-0.4639342084678007,-0.2039186971252504,-1.1247222503317278,0.0792253398165038,-1.1133354709204026,0.3765173482628028,-1.4507970647467188,-1.4760951840593397,-29.243880131732272,25.03767454424428,25.41551603427069,0.766676664920872,-0.8637262843328891,5.096289228773261,4013.88623046875,11.875777777777778,0.14,179.1333298942725,-3.85326881748618,97.2108145907286,1553.0,1435.0,1200.0,1712.0,1471.0,995.0,110.0,294.54999999999995,1649348669.746011,1649348670.8689775,122b64c8-2d2d-4fb4-9fb9-3d78f198b057
-0.4631189891526201,-0.2081657264419373,-1.121632304333839,0.0840114651830272,-1.1094566026244417,0.3758730621861911,-1.4461161237646711,-1.4717692584935873,-29.088628387759297,25.00389966307829,25.388396433643067,0.7544363295267417,-0.8809076609598141,5.079741728344444,4012.2141927083335,11.884666666666668,0.1466666666666666,179.1539904576019,-3.885854985970142,97.10313969410296,1553.0,1435.0,1200.0,1712.0,1471.0,995.0,110.0,294.54999999999995,1649348670.9783256,1649348672.0948403,122b64c8-2d2d-4fb4-9fb9-3d78f198b057
-0.4945312321244129,-0.2144639525937832,-1.227400501217396,0.1537784460335803,-1.207138343303604,0.3220028575083287,-1.5833492253066732,-1.6010868393565705,-29.958699095299245,26.008186752455373,25.043056720571727,0.4769035407596138,-0.9105888708456872,5.550694108104551,4008.045355902778,11.879666666666669,0.1455555555555555,179.14789185758295,-3.9262311749299794,96.96410360444828,1553.0,1435.0,1200.0,1801.0,1471.0,995.0,110.0,294.54999999999995,1649348673.004604,1649348674.14939,f2992c5c-be6a-4ee5-83a1-faa17461f3e4
-0.5023152623164612,-0.2103221128421849,-1.2163424381286916,0.1529369295647286,-1.1982366683362216,0.3192153341237603,-1.5717915068344996,-1.588319438439538,-29.738484102698585,25.98939050489405,25.19957559202369,0.4730996742503449,-0.8971959917993202,5.507916875879116,4011.5888671875,11.850555555555555,0.13,179.1559545164432,-3.922459819575141,96.8014016682294,1553.0,1435.0,1200.0,1801.0,1471.0,995.0,110.0,294.54999999999995,1649348674.2582104,1649348675.373183,f2992c5c-be6a-4ee5-83a1-faa17461f3e4
-0.4902447560647673,-0.2041553736710979,-1.220181860999957,0.1488739825055966,-1.2023916602003275,0.3147973724474329,-1.577458602169555,-1.596576829982978,-29.860605777594422,25.917449055887488,24.86375241995725,0.4715538463257738,-0.8699706143372729,5.52705944354663,4000.769612630209,11.862222222222222,0.1344444444444444,179.17573626209938,-3.933878757502539,96.70738866776362,1553.0,1435.0,1200.0,1801.0,1471.0,995.0,110.0,294.54999999999995,1649348675.4808457,1649348676.6027515,f2992c5c-be6a-4ee5-83a1-faa17461f3e4
-0.3188120195974954,-0.1556498288884674,-0.729774635246069,-0.0133809288033207,-0.716533892659792,0.4394338547295619,-0.9746955246609668,-1.000059375771054,-27.01849974676638,20.13703741066983,32.356909354037285,1.1063610458907291,-0.723604495374348,3.3579932670606367,7398.374674479167,11.648444444444443,7.748888888888889,19.97743361153297,-4.001684416986718,84.32264301897648,1553.0,1435.0,1350.0,1528.0,1471.0,995.0,110.0,294.54999999999995,1649348681.5650609,1649348682.5431857,0bb12d6a-589f-45e1-8134-3451806408ed
-0.3349849185938352,-0.1535723347263243,-0.7528769047123065,-0.0504996997265338,-0.7429759320546967,0.4503472716724584,-0.9905134161640692,-1.007304311921149,-26.77481566800538,19.84645066287284,29.19294536240337,1.21115744075701,-0.6863946057998976,3.4437736243060004,7408.3203125,11.64411111111111,7.7666666666666675,-179.83166513103257,-3.965240140259084,79.55755850887746,1553.0,1435.0,1350.0,1528.0,1471.0,995.0,110.0,294.54999999999995,1649348682.6523392,1649348683.7336264,0bb12d6a-589f-45e1-8134-3451806408ed
-0.3197850232646143,-0.1470768783019592,-0.7561246336892744,-0.0516962309556077,-0.7393205926398477,0.4321100315161292,-0.9898296833828228,-1.0198350272787169,-26.78984197160016,18.91471860796711,27.35103099231648,1.1662355531063204,-0.6456758735899375,3.440797935829602,7408.3203125,11.641444444444444,7.816666666666666,-179.69359968714994,-3.946447586235832,75.80929412634701,1553.0,1435.0,1350.0,1528.0,1471.0,995.0,110.0,294.54999999999995,1649348683.8419323,1649348684.781896,0bb12d6a-589f-45e1-8134-3451806408ed
-0.112969157936424,0.2252416074623779,-0.7564270540378937,-0.3700524982788476,-0.8431690435902501,0.3898632738859134,-1.037257061415549,-1.0590576150686015,-26.64607765498428,18.21827478925997,31.3526248078862,1.7855135649457128,0.7534267497739975,3.6984714575780906,7408.3203125,11.641,7.84,-179.75372204786402,-3.695969466037048,68.7958373205245,1658.0,1435.0,1350.0,1528.0,1551.0,995.0,110.0,294.54999999999995,1649348686.3815567,1649348687.4567995,3338e5e6-1cdd-4189-9d3c-186764f10bdf
-0.120647997073115,0.2247945518181427,-0.7596879320245086,-0.3715645986549091,-0.8472319925955649,0.3927428381554366,-1.041990595004497,-1.071930197054438,-26.76019923670124,18.37536905946343,31.46963486922605,1.79623549145355,0.7515028004409327,3.71514321787744,7414.72802734375,11.610333333333331,7.807777777777777,-179.7884300335864,-3.645818375169406,66.12176665459077,1658.0,1435.0,1350.0,1528.0,1551.0,995.0,110.0,294.54999999999995,1649348687.5652227,1649348688.6849597,3338e5e6-1cdd-4189-9d3c-186764f10bdf
-0.1203324282826209,0.2222700022607009,-0.7564139051743359,-0.3740365540718635,-0.8450756052879072,0.3949386702604795,-1.038243214105647,-1.0618188425191843,-26.70583084732464,18.47448190016068,31.132308184999165,1.8075395966870536,0.7451527038385689,3.7016022382169806,7414.72802734375,11.606666666666667,7.8066666666666675,-179.90157591173718,-3.629079194197258,63.81511690813899,1658.0,1435.0,1350.0,1528.0,1551.0,995.0,110.0,294.54999999999995,1649348688.7935743,1649348689.910753,3338e5e6-1cdd-4189-9d3c-186764f10bdf
0.1048652971941826,0.603976624457294,-0.6989014841385125,-0.6548664841384766,-0.8924766801260876,0.3026479778930306,-1.0403338582281754,-1.076321865503337,-26.355256016910594,17.94339912487579,34.634163161335515,2.233711415684734,2.181479627251187,3.739871473794895,7414.72802734375,11.614,7.779999999999999,179.62661222741008,-3.507756132937942,59.84895203615728,1767.0,1435.0,1350.0,1528.0,1630.0,995.0,110.0,294.54999999999995,1649348691.8820038,1649348692.830739,7bdbee80-6ee7-4038-a01c-8d8028bee60d
0.0904017314807909,0.5980334143270991,-0.7100515829242622,-0.6506720489489595,-0.8988143550128196,0.3099980985568192,-1.0509711605740106,-1.076190378226588,-26.75351235641752,17.864367824519245,35.31906367559077,2.239596096562625,2.1547128584361364,3.778885245762603,7420.434624565973,11.57322222222222,7.788888888888888,179.53068146160734,-3.451553589329408,58.7768589821853,1767.0,1435.0,1350.0,1528.0,1630.0,995.0,110.0,294.54999999999995,1649348692.937824,1649348693.8853807,7bdbee80-6ee7-4038-a01c-8d8028bee60d
0.1077580103144225,0.6046340592060664,-0.7216618864372734,-0.6736428295210597,-0.9124495606390391,0.2896965127935878,-1.0536403477422802,-1.0673807452460538,-25.768443768391865,17.029477636845673,30.29829060884102,2.239374990389098,2.21907420583199,3.8116308118641937,7414.72802734375,11.573666666666664,7.772222222222222,179.43111855298594,-3.4377112149071225,57.7973931591875,1767.0,1435.0,1350.0,1528.0,1630.0,995.0,110.0,294.54999999999995,1649348693.994015,1649348695.2440522,7bdbee80-6ee7-4038-a01c-8d8028bee60d
0.2871588147027459,0.9053184169441988,-0.66767331898867,-0.917958868328538,-0.9546700487820056,0.2448857586090007,-1.054639649810093,-1.0692741590279635,-25.850360077385847,18.011991278640032,34.0186452223698,2.699549651601709,3.3479495201160017,3.83599443267768,7421.14794921875,11.564,7.760000000000001,178.95060108449724,-3.3179353575063555,55.92107075392843,1886.0,1435.0,1350.0,1528.0,1710.0,995.0,110.0,294.54999999999995,1649348696.8816426,1649348697.8982613,7275535f-cced-4842-886d-e5a092178410
0.2720246662173498,0.9036485326495952,-0.6374839011912498,-0.8826151539271325,-0.9234944716640786,0.2379300986379491,-1.033851546631588,-1.0574403240270756,-26.196793438601468,18.57799389199301,37.61304479256936,2.6098465079896185,3.3098532155957123,3.72748569779876,7421.14794921875,11.504666666666669,7.747777777777778,178.8511960291367,-3.3443439993409947,55.35429975932602,1886.0,1435.0,1350.0,1528.0,1710.0,995.0,110.0,294.54999999999995,1649348698.0105438,1649348699.1305358,7275535f-cced-4842-886d-e5a092178410
0.2851996590553894,0.9037668709082896,-0.6539066287852863,-0.9091360879781148,-0.9406272328807188,0.2417958150997879,-1.0419774465195153,-1.0667364585785697,-25.83633469986925,18.092570104481776,34.61856228575055,2.674026451384373,3.336501789388699,3.780786305198596,7415.441351996527,11.508222222222225,7.747777777777778,178.79006128260562,-3.368890039102597,54.77017249513269,1886.0,1435.0,1350.0,1528.0,1710.0,995.0,110.0,294.54999999999995,1649348699.2386544,1649348700.35871,7275535f-cced-4842-886d-e5a092178410
-0.5722663460734213,-0.566796486776655,-0.7441724639639632,0.3350595117506231,-0.6266625205501472,0.4893594499933056,-0.9481745885743524,-0.9734201006304698,-27.24451429617043,22.0741097509489,27.82544842350064,0.4438423189112168,-2.267672908535857,3.163412948974501,7414.72802734375,11.562555555555557,7.806666666666666,179.18361830040158,-3.5561350743071807,53.631684310603866,1449.0,1435.0,1350.0,1528.0,1386.0,995.0,110.0,294.54999999999995,1649348702.4991329,1649348703.6356714,444ff1bf-8f7e-4145-898a-7e73b389134c
-0.578564573551832,-0.5724109817566182,-0.7689972132533701,0.3169143121229467,-0.6438478723743881,0.48482315020314,-0.961007723676123,-0.9851750426136432,-27.007876142766776,20.976174024863763,23.892577274078103,0.4655575122038954,-2.2549069217486792,3.233161213999994,7414.72802734375,11.632555555555555,7.85,179.07673039335032,-3.53964638103647,53.36679098129803,1449.0,1435.0,1350.0,1528.0,1386.0,995.0,110.0,294.54999999999995,1649348703.7447596,1649348704.8644211,444ff1bf-8f7e-4145-898a-7e73b389134c
-0.5605771515867396,-0.5721480077666216,-0.7449745343948259,0.3447106541228383,-0.6212321068580241,0.4884521900514436,-0.9448611149279702,-0.9757474210370872,-27.27073119461144,21.644425442828545,28.229178687043813,0.4171957651081371,-2.29238345667473,3.152556688808456,7408.3203125,11.626888888888889,7.835555555555556,178.96723335403615,-3.5080149449324294,53.12792826182903,1449.0,1435.0,1350.0,1528.0,1386.0,995.0,110.0,294.54999999999995,1649348704.972771,1649348706.0982106,444ff1bf-8f7e-4145-898a-7e73b389134c
-0.8046827903846355,-0.961310143532737,-0.7836843136517149,0.6901794686727457,-0.560537706049301,0.5252816848562031,-0.9530264605879988,-0.974524592098534,-27.697911387546284,23.816758655231386,24.27996810177132,-0.267707835677713,-3.7589046019367993,3.083460251003709,7408.3203125,11.596666666666668,7.83,178.91404591205932,-3.45078524047965,52.52339770476505,1342.0,1435.0,1350.0,1528.0,1293.0,995.0,110.0,294.54999999999995,1649348708.0137808,1649348709.3768437,528135bb-1b70-4237-84ca-ab35bd0ea992
-0.7976613833434081,-0.964373791602728,-0.7940454905830046,0.6824480360404356,-0.5654947657523887,0.5181813895178208,-0.9603108422395212,-0.9784429054032604,-27.90200089827665,23.291232636351488,21.7727779247564,-0.2707250165276937,-3.7464433373178334,3.1108050761569963,7401.9228515625,11.584,7.819999999999999,178.8927858099028,-3.436782143168459,52.36044874337119,1342.0,1435.0,1350.0,1528.0,1293.0,995.0,110.0,294.54999999999995,1649348709.5075371,1649348710.8041108,528135bb-1b70-4237-84ca-ab35bd0ea992
-0.8018065117939946,-0.963795796456312,-0.7878086231761676,0.6874752204167978,-0.5619933767501454,0.520692242451854,-0.95420820012742,-0.9779991379646272,-27.6350230260168,23.49212292777049,22.911285143111183,-0.2744647361497251,-3.756475831495592,3.0906696941734584,7408.3203125,11.588,7.84,178.88445753257486,-3.3915665043063856,52.26862709526412,1342.0,1435.0,1350.0,1528.0,1293.0,995.0,110.0,294.54999999999995,1649348710.9128406,1649348712.0292733,528135bb-1b70-4237-84ca-ab35bd0ea992
-1.0251996985754117,-1.3699324987120365,-0.7989105106457538,1.0376074408506568,-0.4742559379091687,0.5682121740754172,-0.9386812243046252,-0.9565371649599564,-28.58518556964447,26.377375332465245,18.919630126322627,-0.940034304855598,-5.281396078417191,2.9106430191987034,7408.3203125,11.532111111111112,7.787777777777778,178.91396698542889,-3.3935435357639543,52.0423816324669,1227.0,1435.0,1350.0,1528.0,1189.0,995.0,110.0,294.54999999999995,1649348713.1466038,1649348714.2864711,8a9acf16-84d6-4618-8d09-6244ece917a9
-1.026422528166251,-1.3710238416100466,-0.8042094379214947,1.0477187874516845,-0.4783451834436117,0.5701450322513488,-0.9435199475877376,-0.9612969952698276,-28.47845300713445,26.373435128600203,20.325609753217783,-0.9585117586453074,-5.300286780361879,2.9323409242739773,7408.3203125,11.48377777777778,7.7844444444444445,178.87043439529887,-3.369315550401515,51.95363356948633,1227.0,1435.0,1350.0,1528.0,1189.0,995.0,110.0,294.54999999999995,1649348714.3954012,1649348715.7229202,8a9acf16-84d6-4618-8d09-6244ece917a9
-1.0269484763177554,-1.3735352450574043,-0.8087588889845211,1.0264704956681026,-0.481408830501198,0.5749443059283759,-0.9395753362788212,-0.9632955990843572,-28.292662538864096,25.8442490845661,17.881071195675123,-0.9038269313846864,-5.287036431982094,2.933507961223065,7408.3203125,11.49,7.7555555555555555,178.92766379144453,-3.372670643671938,51.938327495011286,1227.0,1435.0,1350.0,1528.0,1189.0,995.0,110.0,294.54999999999995,1649348715.8314123,1649348716.9488218,8a9acf16-84d6-4618-8d09-6244ece917a9
-0.3351032568681402,-0.1600020477157182,-0.7701017039897933,-0.1059609028566577,-0.7570976375520563,0.4941850210949445,-0.9880546082939188,-1.0144309098067423,-26.941663159710664,19.003881058371896,27.22446569571075,1.427932653677233,-0.6861602362507724,3.479174850455794,7408.3203125,11.566777777777778,7.80111111111111,178.5308783709009,-3.123194664006375,51.90651475058709,1553.0,1435.0,1350.0,1528.0,1471.0,995.0,110.0,294.54999999999995,1649348719.0859687,1649348720.225006,26d435f6-65a3-443f-891b-49af7414eebf
-0.335142702935353,-0.1608830104226392,-0.7448693450057398,-0.0857250581961929,-0.7362174991351935,0.495986392311626,-0.9670166815489128,-0.9876207016317872,-26.6979344529484,19.603892923953364,30.17464759651314,1.3921603846282415,-0.7182185144324194,3.3905433332230386,7414.016059027777,11.634777777777778,7.833333333333333,178.5557979366327,-3.150711077147025,51.91339502781102,1553.0,1435.0,1350.0,1528.0,1471.0,995.0,110.0,294.54999999999995,1649348720.333995,1649348721.4540756,26d435f6-65a3-443f-891b-49af7414eebf
-0.3299621157933105,-0.1513765022908557,-0.7616865348738946,-0.1075650440293516,-0.7550069940892634,0.4940403854252197,-0.9829660597823524,-1.005989442039202,-26.71592376547056,19.36145380755135,28.24123524071665,1.434291310087161,-0.6636814822210456,3.460086308728497,7414.72802734375,11.636666666666663,7.847777777777777,178.54151221652867,-3.095682045415264,51.946404952614735,1553.0,1435.0,1350.0,1528.0,1471.0,995.0,110.0,294.54999999999995,1649348721.5627396,1649348722.685523,26d435f6-65a3-443f-891b-49af7414eebf
-0.3170895401312882,-0.1590421928013669,-0.7870240839412722,-0.3433737890034817,-0.8024606603076216,0.7452856493202924,-0.9433753116881444,-0.96881805439493,-27.09689452126981,19.1300835486942,32.0788724120179,2.5284242684651006,-0.6963260320507626,3.505135039565703,7414.72802734375,11.632666666666664,7.832222222222222,178.5344831929628,-3.030901258527886,52.06274622093224,1553.0,1522.0,1350.0,1528.0,1471.0,995.0,110.0,294.54999999999995,1649348724.3806736,1649348725.553404,39da2584-a9d2-46b7-8f08-16cfb484e81d
-0.3348139854559004,-0.1583716092367834,-0.7798317434293337,-0.3373516850042764,-0.8031706900215992,0.7487700534984044,-0.944847966405496,-0.9702907086488656,-27.1077998860846,20.08516958527042,33.46568411646356,2.529574886291861,-0.7062943238575282,3.5000852276808088,7414.72802734375,11.616222222222223,7.844444444444444,178.57265484350432,-3.063022950432352,52.14713131085298,1553.0,1522.0,1350.0,1528.0,1471.0,995.0,110.0,294.54999999999995,1649348725.6621838,1649348726.7864106,39da2584-a9d2-46b7-8f08-16cfb484e81d
-0.3361420039961185,-0.1587923675683822,-0.8110073168006423,-0.3708414200740772,-0.824156019210462,0.7398815356771518,-0.9595350688018178,-0.9770885890748844,-26.888828535671745,18.38722966712428,27.60576186291813,2.571513772046805,-0.6553677635816665,3.5843155886585447,7414.72802734375,11.611,7.85,178.59002173783392,-3.071933714830476,52.22030692198088,1553.0,1522.0,1350.0,1528.0,1471.0,995.0,110.0,294.54999999999995,1649348726.900296,1649348728.0239353,39da2584-a9d2-46b7-8f08-16cfb484e81d
-0.3078460052407484,-0.1544795948318879,-0.8143339391103518,-0.6887112407493826,-0.8626817190701879,1.054345729779024,-0.8758304220741268,-0.908163083769188,-26.70290066408466,17.848842687553766,31.6119172776406,3.992190760812991,-0.6370980920199224,3.525882005757791,7421.14794921875,11.615,7.85,178.63009218096465,-3.016101614120676,52.33846577952751,1553.0,1613.0,1350.0,1528.0,1471.0,995.0,110.0,294.54999999999995,1649348729.942377,1649348731.081849,272313d2-587c-4bb0-94e0-ee4b3bbbe073
-0.3081089792147992,-0.1517446658068022,-0.8059056204285819,-0.6791258379969168,-0.8546478612658375,1.0536488489364564,-0.8700449922270701,-0.8944752829627521,-26.767028609095547,17.99803266389875,33.20088612321572,3.970632139165342,-0.641112881930076,3.497763651797476,7420.434624565973,11.609777777777778,7.82888888888889,178.62474034829498,-3.0079924720285782,52.40568318896942,1553.0,1613.0,1350.0,1528.0,1471.0,995.0,110.0,294.54999999999995,1649348731.1978595,1649348732.5196054,272313d2-587c-4bb0-94e0-ee4b3bbbe073
-0.3132238228571429,-0.1540325391313025,-0.8175685195441329,-0.6792441760187985,-0.867914902621048,1.05155820634664,-0.8849293243074214,-0.9166571461566696,-26.80476083214447,18.2725980232179,32.46464728201849,3.967304165962942,-0.6436216114600409,3.551468430235129,7414.72802734375,11.607444444444443,7.795555555555556,178.65105023697788,-3.007393976702556,52.453976420950944,1553.0,1613.0,1350.0,1528.0,1471.0,995.0,110.0,294.54999999999995,1649348732.632015,1649348733.7412908,272313d2-587c-4bb0-94e0-ee4b3bbbe073
-0.2960647716672946,-0.1571619290929857,-0.8360818927406867,-0.9937217005661564,-0.9210882588658044,1.3564107235306166,-0.8190017277078548,-0.8398950165713339,-26.589184222968694,17.880319755325576,34.38430365879436,5.358624942281405,-0.6363597783372206,3.5551446165359097,7414.72802734375,11.594888888888889,7.83111111111111,178.81954796816248,-2.991174411857891,52.64252758753869,1553.0,1710.0,1350.0,1528.0,1471.0,995.0,110.0,294.54999999999995,1649348736.086161,1649348737.2238858,92bc2689-8e95-4965-b617-c1dc15ffbdac
-0.2973401954420724,-0.1571882265033035,-0.8307172221439986,-0.9728284093695052,-0.915605249696172,1.3542937834783806,-0.8231567178649029,-0.8524520280390153,-27.07594442017133,18.453633726836905,36.81362360976028,5.310947666598245,-0.6567668388394498,3.5493103960859504,7421.14794921875,11.590222222222222,7.83,178.8721540851499,-2.997108233563078,52.702726977608414,1553.0,1710.0,1350.0,1528.0,1471.0,995.0,110.0,294.54999999999995,1649348737.3329513,1649348738.459375,92bc2689-8e95-4965-b617-c1dc15ffbdac
-0.2963145969712311,-0.166379165918518,-0.8512949425079551,-0.991394380064331,-0.9298978909317408,1.3594349238559331,-0.8316902261778125,-0.8496513541997304,-26.893264956413915,17.607308307405514,33.73288486168219,5.357346618749525,-0.6642599027200293,3.6038321823438872,7424.721082899306,11.591555555555557,7.819999999999999,178.89073523533196,-3.0256390483751483,52.76489156488432,1553.0,1710.0,1350.0,1528.0,1471.0,995.0,110.0,294.54999999999995,1649348738.5724523,1649348739.6812832,92bc2689-8e95-4965-b617-c1dc15ffbdac
-0.2723971151899745,-0.1470374321918695,-0.8257470129933884,-1.221062825008365,-0.9430071487880066,1.579228547094035,-0.756282418399151,-0.778267048213103,-26.70909799549928,18.2586324693415,37.98500358753972,6.37568832035462,-0.6007988011143398,3.485683487199561,7427.57958984375,11.583888888888888,7.7844444444444445,178.89448728591603,-2.9560464880812347,52.90635085387456,1553.0,1814.0,1350.0,1528.0,1471.0,995.0,110.0,294.54999999999995,1649348740.3806188,1649348741.624627,0e25521f-15f0-41b9-90b8-096057721b91
-0.2715424497785648,-0.1551896244842232,-0.8347407253383969,-1.226611579266808,-0.9505150583494274,1.589576572244006,-0.7645923978645294,-0.78770781681547,-27.00751806370413,18.38673644328053,37.52788664804373,6.411636650457097,-0.6250957293490663,3.5180595316728933,7428.384765625,11.550875,7.79125,178.95680972645278,-2.99488424511384,52.95950115669773,1553.0,1814.0,1350.0,1528.0,1471.0,995.0,110.0,294.54999999999995,1649348741.7359169,1649348742.855874,0e25521f-15f0-41b9-90b8-096057721b91
-0.2809306202072243,-0.1550186914420935,-0.8352403757502685,-1.2234558894047525,-0.9534866651927112,1.5926270702800898,-0.7657363347625836,-0.7920205902447622,-26.818569826760463,18.60383715428385,38.38797447285628,6.41301958596444,-0.633831418630334,3.5257212327591687,7434.02099609375,11.558333333333334,7.786666666666666,178.96950249466036,-3.098194511528705,53.03661698063494,1553.0,1814.0,1350.0,1528.0,1471.0,995.0,110.0,294.54999999999995,1649348742.964362,1649348744.0816824,0e25521f-15f0-41b9-90b8-096057721b91
-0.333188098329415,-0.1613953039015292,-0.7319477114034307,0.293878303577186,-0.6777725326904471,0.1095942762247647,-1.0584148451822812,-1.0896303783809842,-27.163089684878766,19.86395392871556,24.567080953518506,-0.331167111887647,-0.7130616761045571,3.418382481379832,7434.02099609375,11.589888888888888,7.797777777777778,179.03330860406683,-3.6843610377920495,53.10150377775006,1553.0,1349.0,1350.0,1528.0,1471.0,995.0,110.0,294.54999999999995,1649348744.994913,1649348746.1336126,7828cee8-b77c-4677-a6ba-ea231d14a3f5
-0.3572719624736006,-0.1534145503782137,-0.724252180673187,0.2795325711191435,-0.6849244145619686,0.1288353699707841,-1.0587157480078002,-1.074888656005164,-27.092861868165546,21.12150684449988,26.547833803196944,-0.246498596804804,-0.6989059662820379,3.4212287225398508,7434.02099609375,11.636,7.819999999999999,179.04188883948416,-3.753320714654745,53.24755598950216,1553.0,1349.0,1350.0,1528.0,1471.0,995.0,110.0,294.54999999999995,1649348746.243245,1649348747.3675845,7828cee8-b77c-4677-a6ba-ea231d14a3f5
-0.353038081559939,-0.1565307916048346,-0.7201760832880173,0.2849761310354921,-0.6721438770930307,0.1158050121874114,-1.0499850079362203,-1.07292949881025,-27.210127934270005,20.325406498251223,25.034420539249403,-0.2934336465975254,-0.6967757588178856,3.3836151410160755,7434.02099609375,11.64011111111111,7.84,179.05379158247783,-3.7927916663902095,53.37685526504005,1553.0,1349.0,1350.0,1528.0,1471.0,995.0,110.0,294.54999999999995,1649348747.4820683,1649348748.5942523,7828cee8-b77c-4677-a6ba-ea231d14a3f5
-0.3488567954920145,-0.1463536999553276,-0.6802829231726932,0.5983752803454543,-0.6113311355177633,-0.1854184799758945,-1.1055777346861158,-1.133190017323326,-27.305440977179124,21.97546849584653,24.57661163753809,-1.6644708332888465,-0.6899024721440717,3.3281491898808504,7434.02099609375,11.632555555555555,7.845555555555557,179.06769784762795,-3.9191021649837774,53.588806659724256,1553.0,1264.0,1350.0,1528.0,1471.0,995.0,110.0,294.54999999999995,1649348750.3826234,1649348751.4580402,452fc514-22e9-490f-b3f2-df96b741c1c8
-0.3567591632688582,-0.1529411972598641,-0.6908676276462107,0.5777186805335478,-0.6206535641637341,-0.1757804846283914,-1.1108898116124053,-1.1368190601715873,-27.423205774723275,21.76454565376059,22.26846459749222,-1.598569234982271,-0.6914503542978371,3.3586086238750656,7430.442437065973,11.621,7.84,179.09721185394145,-3.974176921037485,53.68924952438369,1553.0,1264.0,1350.0,1528.0,1471.0,995.0,110.0,294.54999999999995,1649348751.567052,1649348752.692856,452fc514-22e9-490f-b3f2-df96b741c1c8
-0.3420457696606076,-0.1467087147791352,-0.6750234425199179,0.5781262900779308,-0.6096743990840084,-0.1734926112902858,-1.095926584423414,-1.1143610700133504,-27.1581746027536,21.99593182268801,23.62877550048725,-1.591674472501714,-0.6810488068242961,3.303519469531836,7427.57958984375,11.614666666666666,7.82888888888889,179.10688795526568,-4.000155782704974,53.750592212229485,1553.0,1264.0,1350.0,1528.0,1471.0,995.0,110.0,294.54999999999995,1649348752.8048525,1649348753.9204743,452fc514-22e9-490f-b3f2-df96b741c1c8
-0.3576795721715528,-0.1298126389052327,-0.619772601556816,0.8976790251694942,-0.5340956702546076,-0.4911388677587498,-1.1397117756444768,-1.1674555464945102,-27.220139048779785,23.581958903198665,22.68323759962321,-3.013217530492424,-0.6446736765951446,3.190424742547344,7421.14794921875,11.618333333333332,7.84,179.10505442892844,-4.1059262897807605,53.87832054425826,1553.0,1178.0,1350.0,1528.0,1471.0,995.0,110.0,294.54999999999995,1649348755.0307891,1649348756.1717837,ccfd6092-d98e-4322-9122-9bdd16742ad4
-0.3482782527193626,-0.1336783558546634,-0.6379046598256012,0.8754971764584814,-0.5475336415851055,-0.4873125962279671,-1.1490605057603946,-1.171742025244964,-27.243515472657144,22.866455082531434,19.689744762856552,-2.960717535248946,-0.6309063113513739,3.242147342325934,7421.14794921875,11.6,7.83,179.08746441508595,-4.094581867319931,53.922786214119895,1553.0,1178.0,1350.0,1528.0,1471.0,995.0,110.0,294.54999999999995,1649348756.279462,1649348757.3257873,ccfd6092-d98e-4322-9122-9bdd16742ad4
-0.3527882563321032,-0.1339544784917485,-0.6330922353220575,0.8800466249999761,-0.5443122101377476,-0.4884828304707425,-1.1467200359148144,-1.1793288280061995,-27.236766663996185,23.099408510638995,20.10491944966938,-2.971756167677207,-0.6359204900067984,3.2283685991393907,7414.72802734375,11.606,7.84,179.10874728453973,-4.108353663120792,53.98447420597373,1553.0,1178.0,1350.0,1528.0,1471.0,995.0,110.0,294.54999999999995,1649348757.4358518,1649348758.4873874,ccfd6092-d98e-4322-9122-9bdd16742ad4
-0.3563778510414241,-0.1337178019476716,-0.5779465854878739,1.0725435245862842,-0.4837755965805614,-0.6623875405150216,-1.1541227581219229,-1.1822215437255004,-27.273765672700343,24.983710310103767,20.775650207841224,-3.7814436712546335,-0.6608882008339974,3.0831490996939697,7414.72802734375,11.594666666666669,7.816666666666666,179.15026117431503,-4.181832269029359,54.0593797522364,1553.0,1088.0,1350.0,1528.0,1471.0,995.0,110.0,294.54999999999995,1649348759.5391457,1649348760.6751437,13d8bde3-6154-4901-b037-a866d1130e4a
-0.3757984788632983,-0.1368077457969772,-0.5946191376687652,1.073227256825017,-0.4928219018557183,-0.6817292800480617,-1.166771813779257,-1.1856270597182157,-27.211882037566173,24.178399647542538,17.58357048365362,-3.833095843740807,-0.6457788345546586,3.131710334129993,7414.72802734375,11.573,7.800000000000001,179.1869256297797,-4.184078262901431,54.10717400095356,1553.0,1088.0,1350.0,1528.0,1471.0,995.0,110.0,294.54999999999995,1649348760.7842424,1649348761.905875,13d8bde3-6154-4901-b037-a866d1130e4a
