raw_voltage_G-,raw_voltage_G0,raw_voltage_G1,raw_voltage_G2,raw_voltage_G3,raw_voltage_G4,raw_voltage_G5,raw_voltage_G6,load_x,load_y,load_z,load_l,load_m,load_n,rpm,voltage,current,roll,pitch,yaw,aileron1_pwm,elevator_pwm,throttle_pwm,rudder_pwm,aileron2_pwm,pbaro,pdiff,Tt,sample_start_time,sample_end_time,uid
0.347458731728461,0.4524247655317632,0.7115855440672663,-0.3704469586186479,0.3834335619649275,0.0604752990536571,0.4891096248234552,0.4680717126937946,-0.6962698039630033,20.70633512782563,27.482739647373304,1.1482610801989657,1.5492889856848904,-2.107335559715479,4207.888020833333,11.959333333333332,0.1755555555555555,179.0464772087866,-4.174294870689034,99.71986636849498,1553.0,1435.0,1200.0,1528.0,1471.0,995.0,110.0,294.54999999999995,1649347904.53784,1649347905.7304945,31a9a88c-0757-415b-836d-1465fae23382
0.3543370165262721,0.4569094819989838,0.7261669410766781,-0.3700170972678733,0.3951864726152623,0.0563546999296739,0.5036632073734876,0.4816391431260911,-0.4326863658174916,20.7374219846957,27.688178181378778,1.139129445917028,1.563295008696426,-2.162932953903452,4249.124077690973,11.963111111111113,0.18,179.00300684926904,-4.134920300511857,98.62274067121491,1553.0,1435.0,1200.0,1528.0,1471.0,995.0,110.0,294.54999999999995,1649347905.8440008,1649347906.9468565,31a9a88c-0757-415b-836d-1465fae23382
0.3694433502286914,0.4593804252439928,0.7189882593363932,-0.3690400477721071,0.3889428652706936,0.0540850327054605,0.4953421062834546,0.4732260011717957,-0.534923822484833,20.676287991188826,27.77915591525817,1.1310255399213769,1.5719034037701831,-2.132406665883637,4239.553276909723,11.959555555555555,0.1755555555555555,178.9460628032487,-4.090519707174804,97.76441508333647,1553.0,1435.0,1200.0,1528.0,1471.0,995.0,110.0,294.54999999999995,1649347907.0549195,1649347908.1787758,31a9a88c-0757-415b-836d-1465fae23382
0.5663702610735039,0.823523123969275,0.7717090476227492,-0.4200148139019057,0.3639351426351183,-0.2613264594270088,0.4307606467070681,0.4086954925915675,-0.0255210867543871,20.47841683454729,26.94399784819221,0.5386771089849463,2.9510714242963765,-2.035385360130023,4234.89453125,11.957444444444445,0.17,178.4987081799101,-4.056064960202282,96.29206611381258,1658.0,1435.0,1200.0,1528.0,1551.0,995.0,110.0,294.54999999999995,1649347909.8944747,1649347911.0561435,ef001df4-c852-4efd-8d5f-c4742f590913
0.5633471569473286,0.8260975288892802,0.7765795434033594,-0.4182293302417736,0.367326410280868,-0.2636663798933253,0.433530090600201,0.420552328407528,-0.0307084714430598,20.605820176886937,27.231412356759183,0.5305216762343464,2.95830746835064,-2.049909894136141,4243.2802734375,11.94,0.17,178.42823732369354,-4.026654355363685,95.8614750514269,1658.0,1435.0,1200.0,1528.0,1551.0,995.0,110.0,294.54999999999995,1649347911.1642888,1649347912.2754354,ef001df4-c852-4efd-8d5f-c4742f590913
0.5665028437497196,0.8248352541632933,0.7746072391520927,-0.4252375867890378,0.3657485668439734,-0.2567501647044194,0.4351342314134891,0.4116375131236168,0.0229642248628147,20.46571487170545,27.121419083481,0.560854746294839,2.954903612846083,-2.047630585064077,4254.278971354167,11.928111111111113,0.1544444444444444,178.38202426376927,-3.977687780566479,95.43045596385326,1658.0,1435.0,1200.0,1528.0,1551.0,995.0,110.0,294.54999999999995,1649347912.3845203,1649347913.5103762,ef001df4-c852-4efd-8d5f-c4742f590913
0.7474025891966875,1.1595089976188913,0.8238096559690617,-0.453770263994025,0.344842141333566,-0.5673881783419589,0.3713762083879275,0.3479057870489412,0.5768431381923054,20.32525782081081,25.78689284017958,-0.0712426957357166,4.224671056451199,-1.9566376124876048,4249.357801649306,11.93611111111111,0.16,178.16965395081596,-3.986699171675187,94.74758199864436,1767.0,1435.0,1200.0,1528.0,1630.0,995.0,110.0,294.54999999999995,1649347915.438195,1649347916.580109,f87bb5af-eec2-4d15-ac87-1ff381f001b5
0.7450884188807236,1.15548549669247,0.825742514136233,-0.4457890035873996,0.347721705604716,-0.5700179185573689,0.371481397968194,0.3512850019937667,0.5046417484562327,20.451908326868644,25.90404363107098,-0.0942376860740315,4.208195217716511,-1.963698253732732,4248.0123291015625,11.91375,0.16,178.12030962861218,-3.966348480747526,94.46344745726418,1767.0,1435.0,1200.0,1528.0,1630.0,995.0,110.0,294.54999999999995,1649347916.6889722,1649347917.7298193,f87bb5af-eec2-4d15-ac87-1ff381f001b5
0.7489409865103744,1.1607318263210331,0.8253612019766404,-0.4499308437888482,0.3462359030365874,-0.5726082124161276,0.3705609893123185,0.3563866956800449,0.5258067468422525,20.39395653820231,25.7200708920025,-0.09113727410437,4.229837681853068,-1.9594667019241023,4253.8095703125,11.912333333333333,0.1566666666666666,178.09018394091294,-3.959259313571484,94.23576480882907,1767.0,1435.0,1200.0,1528.0,1630.0,995.0,110.0,294.54999999999995,1649347917.8436954,1649347919.0344808,f87bb5af-eec2-4d15-ac87-1ff381f001b5
0.8574045718832471,1.3601581020485023,0.86349241773085,-0.4524290967890982,0.3385702136489387,-0.7879970874804514,0.3263419269947003,0.3095115969106745,0.6099829305814546,21.047295254589045,22.522060536248723,-0.5637470568104456,5.008291557117399,-1.9186553699556008,4246.317220052083,11.881666666666668,0.1488888888888889,177.9227304697615,-3.941694154028458,93.92356748660652,1886.0,1435.0,1200.0,1528.0,1710.0,995.0,110.0,294.54999999999995,1649347919.895456,1649347921.286218,08d78b8d-5b1e-4491-831c-116c67fcde0d
0.859587255279065,1.3653255398182915,0.8653989785144566,-0.4476561189987925,0.3414366292308567,-0.7980032501076484,0.324750934824228,0.3077365230258931,0.4391809182968271,20.989128538181507,22.44705548763365,-0.5973875026007819,5.029078476629454,-1.9224274008082325,4228.626953125,11.857,0.15,177.9030959526274,-3.963763254146676,93.72889647052244,1886.0,1435.0,1200.0,1528.0,1710.0,995.0,110.0,294.54999999999995,1649347921.3948154,1649347922.5170963,08d78b8d-5b1e-4491-831c-116c67fcde0d
0.86169104649635,1.362393380498238,0.8679235279861244,-0.4447634050095743,0.3422124022622708,-0.798161034304722,0.3283010825883496,0.3099455036995893,0.7469724546738743,21.09753076717948,22.41533413759443,-0.6032731237642549,5.0159894955341136,-1.9321833369479469,4232.1064453125,11.851666666666668,0.1433333333333333,177.8461822630034,-3.890558567282949,93.5507355394821,1886.0,1435.0,1200.0,1528.0,1710.0,995.0,110.0,294.54999999999995,1649347922.62533,1649347923.745014,08d78b8d-5b1e-4491-831c-116c67fcde0d
0.1387494867187911,0.0472082645989826,0.6701803036146207,-0.3206791347767891,0.421117722402953,0.4178436972948205,0.5790992935543574,0.5529070931209473,-0.7973450313512646,21.33670340955401,28.537113982377708,1.8412858478796423,0.0121095649320176,-2.2777861286045944,4229.786675347223,11.875222222222222,0.1488888888888889,178.5747843447055,-3.6839429732966016,93.16835726462772,1449.0,1435.0,1200.0,1528.0,1386.0,995.0,110.0,294.54999999999995,1649347925.4004638,1649347926.611266,36042b34-a629-437e-a22f-512116a143ec
0.1309786074590456,0.0512975091402864,0.6738224921199766,-0.3224542090334856,0.4238526509944084,0.4161343669358801,0.5819394116694805,0.5652800151034473,-0.8110346789590593,21.3258474368196,28.656433544147152,1.841570407281764,0.0269353447508985,-2.2898772204043683,4236.522623697917,11.947111111111113,0.17,178.5967411261574,-3.663522747248641,93.02744439077112,1449.0,1435.0,1200.0,1528.0,1386.0,995.0,110.0,294.54999999999995,1649347926.7200654,1649347927.7712886,36042b34-a629-437e-a22f-512116a143ec
0.1341868892515376,0.053440746625388,0.669391381916715,-0.3210867444225117,0.4182118607700137,0.4126762600922916,0.5742474251016919,0.5493043506912331,-0.8852777113600152,21.49061934499725,28.59415105584777,1.831539267280415,0.0356047919543725,-2.265138486641058,4234.89453125,11.947444444444445,0.17,178.5758437829368,-3.657918387307169,92.92374769988209,1449.0,1435.0,1200.0,1528.0,1386.0,995.0,110.0,294.54999999999995,1649347927.878852,1649347929.0751755,36042b34-a629-437e-a22f-512116a143ec
-0.0682597533621835,-0.3213036978796744,0.6231561875201697,-0.2286875563471683,0.4481141849707939,0.7026510058354857,0.63053863188258,0.6033235725926238,-1.4155232946109515,22.65420033390112,29.740565244336068,2.280048456540156,-1.390610058766354,-2.366754962460594,4225.615939670139,11.927888888888887,0.1644444444444444,178.9448804216124,-3.593288813218915,92.62817050463984,1342.0,1435.0,1200.0,1528.0,1293.0,995.0,110.0,294.54999999999995,1649347931.0007522,1649347932.3453228,29cfde11-7a07-4b87-9440-7aa73e26269a
-0.0651341985614171,-0.3313558777666523,0.6264871902458882,-0.2258770221811716,0.4532268359223495,0.7068651625717897,0.6374006070679771,0.6151793125674969,-1.2920837827219498,22.61914631816137,29.34663013419672,2.283111178079583,-1.4258295461893378,-2.3896756633083167,4221.688151041667,11.905333333333337,0.16,178.93963635414966,-3.601550353906869,92.385093178998,1342.0,1435.0,1200.0,1528.0,1293.0,995.0,110.0,294.54999999999995,1649347932.4533284,1649347933.5736716,29cfde11-7a07-4b87-9440-7aa73e26269a
-0.0695521606916767,-0.3295019113123441,0.6204256418650289,-0.2142009786767695,0.4483486700311597,0.6944396458270917,0.6273024093339558,0.6145744726030922,-1.318932673207304,22.63996011923402,29.30463472740164,2.228667032575865,-1.4201352984315394,-2.3601510279056748,4216.607638888889,11.91088888888889,0.1577777777777777,178.93708338121985,-3.6033739195515233,92.24047227133195,1342.0,1435.0,1200.0,1528.0,1293.0,995.0,110.0,294.54999999999995,1649347933.681846,1649347934.796504,29cfde11-7a07-4b87-9440-7aa73e26269a
-0.281009512403455,-0.6971658549330442,0.5511320192920955,-0.1504166474514427,0.4486642387169952,0.9871690448891004,0.655848226103884,0.6346525298181335,-2.096734824220432,24.17647067710448,27.88584665840524,2.7487049196706925,-2.793238853909054,-2.3538729012233977,4228.626953125,11.90277777777778,0.1566666666666666,179.09833959406444,-3.56852086345709,91.91363481807842,1227.0,1435.0,1200.0,1528.0,1189.0,995.0,110.0,294.54999999999995,1649347936.9406602,1649347938.094513,ffc806b0-0c7c-4d18-bb18-85d37d4622fc
-0.2837312928932905,-0.7026751608297801,0.54802892727063,-0.143211161486859,0.4479805065685985,0.983658343283844,0.6527188367024813,0.6394912495829324,-2.117921762215689,24.13841420664679,27.53939860032273,2.724089408429975,-2.8117660987633792,-2.3453474736979047,4223.302788628473,11.830444444444446,0.13,179.12211624147514,-3.5681554483364954,91.59508617883763,1227.0,1435.0,1200.0,1528.0,1189.0,995.0,110.0,294.54999999999995,1649347938.2031405,1649347939.3087652,ffc806b0-0c7c-4d18-bb18-85d37d4622fc
-0.2802863340084921,-0.6984544276842493,0.5564046459882076,-0.1411994107064451,0.4556724932086968,0.9803185746120836,0.6589118720308,0.6343764072138646,-2.207527390573172,24.185896216142183,27.97161524141696,2.712802096904712,-2.7988482102711543,-2.3750030259375965,4221.45361328125,11.834333333333332,0.1344444444444444,179.14002955093838,-3.568236011366393,91.34960007314848,1227.0,1435.0,1200.0,1528.0,1189.0,995.0,110.0,294.54999999999995,1649347939.4170778,1649347940.7446816,ffc806b0-0c7c-4d18-bb18-85d37d4622fc
0.3555451793146937,0.4471126927013543,0.7212761322637963,-0.3536823677844568,0.3933476781637533,0.0513764012985156,0.4952500654136694,0.4766972566415963,-0.625273444221651,20.955005713317384,27.70135344767617,1.092199412478592,1.5254798884278995,-2.1430308037765364,4231.41015625,11.873666666666669,0.1466666666666666,178.35548214865457,-3.648690185124181,90.98010049942916,1553.0,1435.0,1200.0,1528.0,1471.0,995.0,110.0,294.54999999999995,1649347942.9393437,1649347943.9873264,efd30084-e0fa-490d-bb56-1639f5e5cbcf
0.3599631409351156,0.4448774145304541,0.711493503204656,-0.3536297730778228,0.386510356644347,0.0529410961021203,0.4869400901204805,0.4623257327962987,-0.7460187281867943,20.77185094147291,27.55260049634179,1.0938110929430038,1.5186394871040592,-2.109040770875872,4248.9287109375,11.957666666666666,0.17,178.33409454963353,-3.631489492064366,91.3186843602353,1553.0,1435.0,1200.0,1528.0,1471.0,995.0,110.0,294.54999999999995,1649347944.102671,1649347945.2500515,efd30084-e0fa-490d-bb56-1639f5e5cbcf
0.3540593767389844,0.4517015872985114,0.7156090447270087,-0.3547868585411662,0.3870363044676276,0.047905145457472,0.4868743466660544,0.468847485659216,-0.7455569984232037,21.00166508878332,27.64853698115968,1.0868486582446664,1.543787996263512,-2.114416569237388,4260.859049479167,11.958333333333334,0.1766666666666667,178.30196989323724,-3.609506385925072,91.66419858631927,1553.0,1435.0,1200.0,1528.0,1471.0,995.0,110.0,294.54999999999995,1649347945.3580878,1649347946.6887195,efd30084-e0fa-490d-bb56-1639f5e5cbcf
0.3659983920736657,0.4526351446525959,0.7109938527973333,-0.626925494031169,0.3543617967307031,0.312312269041668,0.5573776494174413,0.5341307566316231,-0.6371089831377066,20.388723684623603,30.00094455286946,2.291021365446075,1.5588756238187866,-2.1626312847658027,4258.0361328125,11.957,0.17,178.27163929986293,-3.5104418202378342,92.10138305798374,1553.0,1522.0,1200.0,1528.0,1471.0,995.0,110.0,294.54999999999995,1649347947.5960624,1649347948.729179,ddb0b0df-c98e-40d5-a15f-8d26ff94f8c8
0.3756657174051927,0.4516373609769649,0.7176708612449135,-0.6248995827351442,0.3602918583254355,0.3106176044910288,0.5651712855212264,0.543703512335329,-0.4327655970320671,20.380194397034963,29.94101607539032,2.2830125054682298,1.5543918897557143,-2.19094730729318,4267.930501302083,11.949333333333334,0.17,178.28065059610793,-3.5211934629128843,92.31103343782756,1553.0,1522.0,1200.0,1528.0,1471.0,995.0,110.0,294.54999999999995,1649347948.8374062,1649347949.995124,ddb0b0df-c98e-40d5-a15f-8d26ff94f8c8
0.381369216823369,0.4566323479660393,0.7126768857504182,-0.6275040369779733,0.3547562576029165,0.3083808090839123,0.5589423441268966,0.5344331766151798,-0.4817622128914541,20.34283103313847,29.93535913940184,2.2833392199147173,1.573526490162611,-2.167176946005171,4271.242621527777,11.944666666666668,0.1655555555555555,178.29303297016324,-3.511167907292102,92.4272574545643,1553.0,1522.0,1200.0,1528.0,1471.0,995.0,110.0,294.54999999999995,1649347950.110417,1649347951.1996045,ddb0b0df-c98e-40d5-a15f-8d26ff94f8c8
0.3978313832189826,0.4610503095226147,0.711467205813837,-0.9264923755604956,0.3178610185000765,0.5948119840573457,0.6342449202753099,0.6187426089072691,-0.395483839769453,20.14792079876034,32.41584737939928,3.6005192713075127,1.604233241499341,-2.220938335725519,4270.057942708333,11.947555555555557,0.16,178.28783291947514,-3.426116447040464,92.55258839019442,1553.0,1613.0,1200.0,1528.0,1471.0,995.0,110.0,294.54999999999995,1649347952.032951,1649347953.0367308,dd005b43-9596-45c8-a24e-a0b82147d2ef
0.3934397190213294,0.4538053785169297,0.7122166814286767,-0.9092675739586912,0.3186630889083577,0.5853712210571554,0.6321805751658757,0.6133647926512515,-0.1760376280654247,20.39829631643619,32.310247070129186,3.542240402754142,1.5743741090897967,-2.220937058202589,4271.474934895833,11.928666666666668,0.16,178.2906272257556,-3.437793082313424,92.59896916920832,1553.0,1613.0,1200.0,1528.0,1471.0,995.0,110.0,294.54999999999995,1649347953.1494172,1649347954.2589734,dd005b43-9596-45c8-a24e-a0b82147d2ef
0.4010133674681115,0.4600378599975852,0.7161744386178416,-0.9118315710194318,0.32200285752717,0.5807034343401745,0.6336926750856219,0.6044105313022403,-0.3356655307629506,20.38093444004379,32.201353517705954,3.537519276960493,1.6004109209945043,-2.2325601518136184,4253.340928819444,11.938777777777778,0.1588888888888889,178.31733174759052,-3.4446567109512483,92.64098090388318,1553.0,1613.0,1200.0,1528.0,1471.0,995.0,110.0,294.54999999999995,1649347954.3677423,1649347955.488835,dd005b43-9596-45c8-a24e-a0b82147d2ef
0.4105198740925359,0.4618523799234015,0.7079039094764947,-1.1750817955669095,0.2800716678593689,0.8350912363269919,0.6928749511259585,0.6590828050258014,-0.0306728778560699,20.39048385107262,34.34960106402705,4.703138100027643,1.6179055388547277,-2.247287027221453,4253.340603298611,11.91877777777778,0.1522222222222222,178.32592867902585,-3.3636009113640686,92.7085307158647,1553.0,1710.0,1200.0,1528.0,1471.0,995.0,110.0,294.54999999999995,1649347956.6062715,1649347957.9428654,349d0b80-1ff1-4b29-a469-92c944f76707
0.4168443964609753,0.4663886797291406,0.7046298844324899,-1.1748977136037553,0.2754696244181192,0.8308573565242936,0.6875628783616301,0.6570842034283862,-0.0004980678547664,20.43755012738906,34.369882483423225,4.693376168635242,1.6342966756316466,-2.2284118643562274,4243.2802734375,11.912555555555556,0.15,178.33624226467256,-3.3869647829327625,92.68584765763109,1553.0,1710.0,1200.0,1528.0,1471.0,995.0,110.0,294.54999999999995,1649347958.0517051,1649347959.1042569,349d0b80-1ff1-4b29-a469-92c944f76707
0.4152271069605751,0.4629437216162163,0.7021316323825348,-1.1799994118642405,0.2755485166329844,0.8383784100996364,0.6885095843957413,0.6638163352205002,-0.1394173037420265,20.24079914957316,34.28856019791607,4.720273587674804,1.6235463973832929,-2.2270545032132163,4249.825954861111,11.91288888888889,0.151111111111111,178.34532641626868,-3.4041789466434413,92.67397223539416,1553.0,1710.0,1200.0,1528.0,1471.0,995.0,110.0,294.54999999999995,1649347959.2191346,1649347960.4033377,349d0b80-1ff1-4b29-a469-92c944f76707
0.4155295269415425,0.467374831864516,0.68269786122401,-1.3613463921877675,0.2273191013159483,1.0122699044093926,0.7064181069537087,0.6749927259403478,-0.1219174929818103,20.963480925894103,35.871016827163466,5.524189485556101,1.647124575934978,-2.1594781978992854,4243.2802734375,11.900555555555556,0.1455555555555555,178.35404021982978,-3.323033453391536,92.71778638109996,1553.0,1814.0,1200.0,1528.0,1471.0,995.0,110.0,294.54999999999995,1649347962.5430782,1649347963.679206,da1d33b2-337c-48e3-9357-57c50675f0b9
0.4119793792417247,0.4703595856444731,0.6762287033023597,-1.3601498594829704,0.2220201769700058,1.0071419131908186,0.6979240500030711,0.6710218200947747,-0.2790735108354002,20.89456913680973,35.65859700697351,5.50907520522269,1.660755602891014,-2.1313585426896204,4244.915201822917,11.894777777777778,0.14,178.3745656971956,-3.309100578962748,92.62718088612012,1553.0,1814.0,1200.0,1528.0,1471.0,995.0,110.0,294.54999999999995,1649347963.7871485,1649347964.9270642,da1d33b2-337c-48e3-9357-57c50675f0b9
0.4186983624797434,0.4705042212943716,0.6792266057513686,-1.3585983120688518,0.2239793326419385,1.006878939275298,0.7010139933201907,0.673020421728541,-0.1539641477968479,20.94893005245692,35.86645562594636,5.505590108224292,1.6585702797631392,-2.1421234229245285,4243.2802734375,11.8795,0.14,178.38441255324904,-3.327629316929308,92.57247714214758,1553.0,1814.0,1200.0,1528.0,1471.0,995.0,110.0,294.54999999999995,1649347965.036269,1649347966.0668962,da1d33b2-337c-48e3-9357-57c50675f0b9
0.3403321388506535,0.4568032810043025,0.7279556693165875,-0.0362070658118183,0.4263246056691319,-0.2597086217074796,0.4053787342538945,0.3869311147908983,-0.9154139789101988,22.26788367996593,26.05343634336079,-0.3143695841854668,1.5398421851721773,-2.06820364725846,4254.748372395833,11.929,0.1522222222222222,178.39052253691656,-3.736506069578643,92.5820887361296,1553.0,1349.0,1200.0,1528.0,1471.0,995.0,110.0,294.54999999999995,1649347968.0699835,1649347969.2115831,ee10897a-df54-4be8-9fbc-7945116c2194
0.3596475722636492,0.454383921103675,0.7260622572336815,-0.0359309431640791,0.4256934683176275,-0.2597875138843438,0.4055496673084738,0.385077148873658,-0.8303416949639112,22.13330966031868,25.73609948743856,-0.3161638793087957,1.5328222312965216,-2.06562963114415,4257.801215277777,11.959444444444443,0.1688888888888889,178.37609110611024,-3.745014682873448,92.8462508557393,1553.0,1349.0,1200.0,1528.0,1471.0,995.0,110.0,294.54999999999995,1649347969.320566,1649347970.443383,ee10897a-df54-4be8-9fbc-7945116c2194
0.3448552900469993,0.4548704228203161,0.7245764547028125,-0.0407828122238588,0.4235765283954512,-0.2547778599995676,0.402972523051809,0.3747685718024735,-1.0342484561726613,22.25357868492804,25.864814309446064,-0.2933207189802213,1.5354545308907106,-2.05704575725233,4250.528428819444,11.953666666666669,0.1644444444444444,178.3753094289052,-3.744999789266508,93.05433105098392,1553.0,1349.0,1200.0,1528.0,1471.0,995.0,110.0,294.54999999999995,1649347970.5747862,1649347971.67239,ee10897a-df54-4be8-9fbc-7945116c2194
0.3186236428344589,0.4533583228846147,0.7313348839201582,0.2532088829378924,0.4568427270877739,-0.5367254097808655,0.3215820993063259,0.2938909465134627,-1.489744247731386,23.55196920328376,23.75877122719381,-1.5816890336571994,1.5159267286909897,-1.997112412537575,4241.1806640625,11.955444444444446,0.16,178.35665997683145,-3.818505668499885,93.51646468586662,1553.0,1264.0,1200.0,1528.0,1471.0,995.0,110.0,294.54999999999995,1649347973.6042988,1649347974.7403886,d10be23c-c0b8-45f8-aba7-c0db79757fe0
0.3241197974844808,0.4572503366350527,0.7336753516330817,0.2441099855920688,0.4572897827065701,-0.5330437738857877,0.3273412278316114,0.3054223526087749,-1.2428678279191887,23.40351866133628,23.664883546626044,-1.5536492749002615,1.5308750646784062,-2.0086190982200627,4241.1806640625,11.949666666666666,0.1533333333333333,178.3842326916009,-3.818890815278083,93.6858594485622,1553.0,1264.0,1200.0,1528.0,1471.0,995.0,110.0,294.54999999999995,1649347974.8489788,1649347976.140767,d10be23c-c0b8-45f8-aba7-c0db79757fe0
0.3226471436021271,0.4547126384785608,0.7310324639409022,0.2469238064390773,0.4547520845533401,-0.5298617885260252,0.3258685739705172,0.3059088543666133,-1.1317066571557028,23.43204671928361,24.11504082166159,-1.552660988216816,1.516067146929921,-1.9990448229480369,4238.850640190973,11.945222222222222,0.1588888888888889,178.3916092959045,-3.82766571108678,93.8039033312578,1553.0,1264.0,1200.0,1528.0,1471.0,995.0,110.0,294.54999999999995,1649347976.249137,1649347977.6173403,d10be23c-c0b8-45f8-aba7-c0db79757fe0
0.3047780665937176,0.44387811370239,0.7348455854815772,0.5448469430485665,0.4860459788753322,-0.8061291480102699,0.2399418491244133,0.223650615246659,-1.8215294407929985,25.020007720678787,22.00157171679556,-2.8354797224937567,1.4626330586219094,-1.92733835607343,4233.5009765625,11.937666666666669,0.1566666666666666,178.4059526931615,-3.9381625667726072,94.06812919929972,1553.0,1178.0,1200.0,1528.0,1471.0,995.0,110.0,294.54999999999995,1649347979.5416763,1649347980.6791165,dfa565e5-a64c-4d79-a4e5-b9afa5769b00
0.2931020250749829,0.4492690787030808,0.7394870748142057,0.5368130904260622,0.488807204830839,-0.8081540478509587,0.2467265760283118,0.2229142881657292,-1.5900469128128634,24.84940507552986,21.45809106348317,-2.8227774815094,1.4873114255229671,-1.947038877999281,4230.7138671875,11.929,0.16,178.41051070606764,-3.959319362317937,94.16589197361984,1553.0,1178.0,1200.0,1528.0,1471.0,995.0,110.0,294.54999999999995,1649347980.7877305,1649347981.9077244,dfa565e5-a64c-4d79-a4e5-b9afa5769b00
0.2970896198093096,0.4541406702418966,0.7327286455954815,0.5369142342278486,0.4824356506268248,-0.8105112057249713,0.2375159147731455,0.2180963027021718,-1.7780821089913392,24.83851876715198,21.75427998700235,-2.8287586148306167,1.5038475216682778,-1.9151530200909703,4223.421569824219,11.933875,0.15625,178.40399641314673,-3.974874317739848,94.24723525776648,1553.0,1178.0,1200.0,1528.0,1471.0,995.0,110.0,294.54999999999995,1649347982.016806,1649347983.1377137,dfa565e5-a64c-4d79-a4e5-b9afa5769b00
0.2787305009419425,0.4534109176622776,0.7138602682989285,0.7300068657444482,0.4781173157358541,-0.9945106221275484,0.1557113044196396,0.1312678783072656,-2.152206627253088,26.119704612576456,20.372217605155107,-3.670654557176256,1.49105938887846,-1.7682112615972088,4213.384114583333,11.921333333333331,0.15,178.40705918380706,-4.048058176083996,94.32553398509056,1553.0,1088.0,1200.0,1528.0,1471.0,995.0,110.0,294.54999999999995,1649347984.0464084,1649347985.1847827,a42075b6-53ab-4266-bfa2-6521e25391e3
0.2859885808220699,0.4561721436378237,0.7148990152026182,0.7187384341411536,0.4786827096248838,-0.986792332630181,0.1586171661640779,0.1273495673147981,-2.2826717827771668,26.03427796570413,20.395850788021225,-3.628468195670018,1.5035813924473465,-1.7743221410997896,4216.607638888889,11.904111111111112,0.1422222222222222,178.41551951145897,-4.043190195912416,94.37086443279212,1553.0,1088.0,1200.0,1528.0,1471.0,995.0,110.0,294.54999999999995,1649347985.293526,1649347986.4162538,a42075b6-53ab-4266-bfa2-6521e25391e3
0.28721140951523,0.4527666316047025,0.7129398596508041,0.7171342933496929,0.4762502010367464,-0.9800864932823437,0.1585119766043613,0.1427598388942924,-2.1963646525674565,26.095985281632817,20.6554874361412,-3.609384385887987,1.4879709886436556,-1.7682135714103058,4207.412543402777,11.902111111111113,0.14,178.4159566435659,-4.059622065803781,94.3921108745703,1553.0,1088.0,1200.0,1528.0,1471.0,995.0,110.0,294.54999999999995,1649347986.5246518,1649347987.638775,a42075b6-53ab-4266-bfa2-6521e25391e3
0.341502372752438,0.4451666858217739,0.7157799777641582,-0.3548657506998829,0.3858923679724014,0.0542296683475517,0.4878999448770592,0.4691630543955369,-0.6415858449516375,21.2247239778348,27.628423597598267,1.1027749929145467,1.5187448571739677,-2.1153903418678435,4215.456380208333,11.920666666666667,0.1466666666666667,178.41127113379525,-3.7388321758778553,94.37268278093116,1553.0,1435.0,1200.0,1528.0,1471.0,995.0,110.0,294.54999999999995,1649347988.5532837,1649347989.6907616,d5fadb7f-dad2-4515-b215-2f409603386b
0.3351070496313528,0.43621293015894,0.706469184567734,-0.3509767703488464,0.3789655341721583,0.0607291699749253,0.4782887544912216,0.4633321137705755,-0.8759460105790768,21.368352309282457,27.740900229440403,1.1089961267420547,1.4847580601712878,-2.080693330040912,4214.07373046875,11.959,0.16,178.42494972597308,-3.720482588081401,94.36641949746225,1553.0,1435.0,1200.0,1528.0,1471.0,995.0,110.0,294.54999999999995,1649347989.7986448,1649347990.9199655,d5fadb7f-dad2-4515-b215-2f409603386b
0.3504960803361664,0.4414850511878279,0.7196851401738888,-0.3502768548797422,0.3894951104529038,0.054624129265198,0.4906480221331699,0.4656129066172866,-0.6564320789685292,21.3986481600716,27.795893758723867,1.0946766125110634,1.50324280788077,-2.129784054520162,4233.96484375,11.958444444444446,0.16,178.41813167936158,-3.7070265936659137,94.3870269370981,1553.0,1435.0,1200.0,1528.0,1471.0,995.0,110.0,294.54999999999995,1649347991.0277965,1649347992.1621125,d5fadb7f-dad2-4515-b215-2f409603386b
0.4335826853981874,0.4829560355360982,0.9566903691637828,-0.3480284275112578,0.6039240296759224,0.0011089350333275,0.7252601868440629,0.7082983703378573,0.9178599941523216,21.44528462074992,28.06575772071775,0.982294837568799,1.659998792673737,-3.072445816296268,4236.767686631944,11.953222222222225,0.1555555555555555,178.3854348048948,-3.7377160091309896,94.36048482198343,1553.0,1435.0,1200.0,1424.0,1471.0,995.0,110.0,294.54999999999995,1649347993.0594862,1649347994.2009156,fc4f54f6-cc73-48c4-8e20-3eafae5c8307
0.4243128553158462,0.4789982783151076,0.9443568930079588,-0.3422035540116958,0.5932472893559059,0.0004252028627645,0.7116118414575056,0.6802259065514896,0.8283414491924784,21.51305863140293,28.07940881724983,0.9674111846173342,1.6441695039074051,-3.022158469149855,4241.647243923611,11.942777777777776,0.1577777777777777,178.39943669269334,-3.7338794349559503,94.3489721586824,1553.0,1435.0,1200.0,1424.0,1471.0,995.0,110.0,294.54999999999995,1649347994.3083985,1649347995.437526,fc4f54f6-cc73-48c4-8e20-3eafae5c8307
0.4325176410973799,0.4817858016736159,0.9575844804361402,-0.3453197956206494,0.6056202113285254,0.0007407715576473,0.7277189928058199,0.7038541114337573,1.0346308161892892,21.34773097392041,28.2183589724808,0.9748384459947768,1.653152264856088,-3.0792565846950977,4246.083984375,11.947333333333336,0.16,178.40090290663517,-3.742552352245789,94.31008865064744,1553.0,1435.0,1200.0,1424.0,1471.0,995.0,110.0,294.54999999999995,1649347995.5451374,1649347996.6521645,fc4f54f6-cc73-48c4-8e20-3eafae5c8307
0.503901906756196,0.5144997549738772,1.1914208826107713,-0.3276479449107221,0.8155128293941365,-0.0614788608584659,0.9525485301964104,0.930616506578986,2.5988783207567225,21.953403724540696,27.99381072222833,0.8115694362623117,1.7794267555698462,-3.9993500594012272,4242.347113715277,11.933222222222222,0.1544444444444444,178.3799236011445,-3.755163015887748,94.22603406599154,1553.0,1435.0,1200.0,1304.0,1471.0,995.0,110.0,294.54999999999995,1649347997.5679486,1649347998.701112,f2eecbd0-a74e-4508-8385-6c15f1d2effb
0.5002071234540169,0.5147627288734214,1.1820984571576758,-0.3218756663253105,0.8061772559021394,-0.0672379900350755,0.9388475897253502,0.9234899137991072,2.455904954445092,22.138667608876176,27.8773148662293,0.7862804606184849,1.7811589565995591,-3.954677854643677,4247.48583984375,11.931,0.14,178.38641379867585,-3.764107433197095,94.18800812615235,1553.0,1435.0,1200.0,1304.0,1471.0,995.0,110.0,294.54999999999995,1649347998.8088892,1649347999.9316084,f2eecbd0-a74e-4508-8385-6c15f1d2effb
0.4889518404768909,0.5064133075205569,1.1805995058124217,-0.3226119934330296,0.8084519801418429,-0.0578629692592313,0.9415036261580408,0.9196110486697624,2.315166312308821,21.97183154282799,27.95783472741928,0.8077697345038465,1.7501188208082217,-3.960447625723027,4237.689778645833,11.922999999999998,0.1466666666666666,178.40498735975882,-3.760131693917717,94.14423116703205,1553.0,1435.0,1200.0,1304.0,1471.0,995.0,110.0,294.54999999999995,1649348000.0386963,1649348001.3642604,f2eecbd0-a74e-4508-8385-6c15f1d2effb
0.5283453308310098,0.5249924136085191,1.317437986895931,-0.2743036763805446,0.9306296552053012,-0.1301150589802591,1.0593553827669555,1.045628144893221,3.349435219604333,22.855892327227007,27.56296319435784,0.5495697823392015,1.8187232353063785,-4.478704570583351,4233.732747395833,11.916,0.1477777777777777,178.39403628978957,-3.783961038135161,94.03793976316828,1553.0,1435.0,1200.0,1166.0,1471.0,995.0,110.0,294.54999999999995,1649348002.4836862,1649348003.6163633,fef95f38-bc57-4da2-afa0-2be423fed6ef
0.5326712514972867,0.5211003998809456,1.3182532060767804,-0.2698331191377455,0.9321023090661812,-0.1299178285458072,1.061472322755842,1.0353327161201262,3.482990847016976,22.845904495873825,27.6447467647484,0.5399831508201008,1.8019567877613043,-4.485054572772911,4232.108072916667,11.887111111111112,0.1277777777777777,178.39886143898323,-3.8114890720837735,93.90798478947006,1553.0,1435.0,1200.0,1166.0,1471.0,995.0,110.0,294.54999999999995,1649348003.7245786,1649348004.8464465,fef95f38-bc57-4da2-afa0-2be423fed6ef
0.5343674331560542,0.5237169901917175,1.3221189228613728,-0.2773541743579616,0.9358365385166776,-0.1277482935325118,1.0648515375057928,1.052097302876582,3.253198396426789,22.82271572431685,27.36265620800599,0.5617021707700368,1.8170678437054404,-4.500519791327275,4229.323079427083,11.864666666666668,0.13,178.3959715100544,-3.813622747289495,93.77452441090784,1553.0,1435.0,1200.0,1166.0,1471.0,995.0,110.0,294.54999999999995,1649348004.9548652,1649348006.0712347,fef95f38-bc57-4da2-afa0-2be423fed6ef
0.284502778261761,0.410099115855131,0.4430234485094859,-0.3442678997867224,0.1341342944664857,0.0954902768487663,0.2067413926762116,0.1859270073415479,-2.415804486235177,21.62476774277816,27.86857225199146,1.159802603146753,1.3790598534937069,-1.0055961871255148,4221.91552734375,11.89722222222222,0.1366666666666666,178.49266270358476,-3.791157638495023,93.73291186284447,1553.0,1435.0,1200.0,1623.0,1471.0,995.0,110.0,294.54999999999995,1649348008.0110362,1649348009.1444104,1fa909b0-400d-45c3-8ab7-52ce5b8dfd7e
0.2794931252842315,0.4024071291646018,0.440288519924657,-0.3443599406122031,0.1335820492409059,0.103221710169456,0.2056237535496024,0.1801941756709373,-2.587536070794239,21.6518973516934,27.8699484485844,1.1773412260270917,1.3512519158659568,-1.000585548195798,4229.556640625,11.960444444444445,0.16,178.49930923655708,-3.786000039329888,93.7853479840126,1553.0,1435.0,1200.0,1623.0,1471.0,995.0,110.0,294.54999999999995,1649348009.255926,1649348010.3796322,1fa909b0-400d-45c3-8ab7-52ce5b8dfd7e
0.2619790628885879,0.4100070749881062,0.4389605017162841,-0.3457142565461394,0.1311889865794668,0.0980542726173463,0.2041905457152444,0.1841913793298087,-2.4343785486385063,21.50658759368464,28.006883345751188,1.1678538302452215,1.3775387632504792,-0.992207694141184,4265.808376736111,11.958666666666668,0.1555555555555555,178.48977884593518,-3.785913286441053,93.84980675593972,1553.0,1435.0,1200.0,1623.0,1471.0,995.0,110.0,294.54999999999995,1649348010.488406,1649348011.6037047,1fa909b0-400d-45c3-8ab7-52ce5b8dfd7e
0.2128029413629803,0.3783187195282658,0.2832142060928045,-0.303086176485718,-0.0074640150147613,0.0986065178921145,0.0336125125967618,0.0001622284535821,-3.778380247827856,22.103787545856857,27.995349119205567,1.0684617045070073,1.2531911195142449,-0.3528529648863352,4260.622667100694,11.959666666666667,0.1577777777777777,178.48730631745565,-3.7817630453147553,93.94285214627308,1553.0,1435.0,1200.0,1712.0,1471.0,995.0,110.0,294.54999999999995,1649348012.5168676,1649348013.6522477,2f66e989-61a7-4c52-a2c1-5264b57c973d
0.2152880448539312,0.3811062429201283,0.279769247881141,-0.3058211058748956,-0.0110667578609845,0.0973836890495213,0.0311011116073845,-0.0001533401929671,-3.692763909754295,21.9826717954262,27.82994060691993,1.0709254786117524,1.2646223494325022,-0.3394847436430817,4265.807237413194,11.963,0.151111111111111,178.49852907717187,-3.785414350608558,93.98882690848636,1553.0,1435.0,1200.0,1712.0,1471.0,995.0,110.0,294.54999999999995,1649348013.760476,1649348014.8823402,2f66e989-61a7-4c52-a2c1-5264b57c973d
0.222204258763205,0.3858529218984401,0.2736025097026841,-0.3117906147399054,-0.0190743140587483,0.1006971605698114,0.0256707000022643,0.0042251760968274,-3.586041169866306,21.9657659167736,28.135503136891906,1.0915203374419475,1.2793054805291295,-0.3114059219103356,4262.510362413194,11.96,0.16,178.51200124585478,-3.8135317729643,94.01765637806308,1553.0,1435.0,1200.0,1712.0,1471.0,995.0,110.0,294.54999999999995,1649348014.990815,1649348016.1143882,2f66e989-61a7-4c52-a2c1-5264b57c973d
0.1574337835599588,0.3576489705792424,0.1126624739476844,-0.2533446519053987,-0.1640255490987827,0.0806322502866986,-0.1592131258934898,-0.1898627395658011,-4.9887289498081655,22.872964069793483,27.670836489197704,0.9118120711194811,1.1701864196914848,0.3637282022372896,4266.278917100694,11.958666666666668,0.1555555555555555,178.513291392698,-3.8119717862169904,94.13290747229804,1553.0,1435.0,1200.0,1801.0,1471.0,995.0,110.0,294.54999999999995,1649348018.0441628,1649348019.1831005,e241bc58-7cae-42e6-af91-45f9ebaaac89
0.160918187969827,0.3597922079133536,0.1152790644664392,-0.2530816780028969,-0.1593709102245525,0.0777921319059323,-0.1544927435583691,-0.1786600494380207,-4.9590879192145305,22.57700524927457,27.631722597152265,0.903013768723187,1.1784902171847194,0.3474495629577323,4276.684624565973,11.951777777777778,0.15,178.50407974423737,-3.7979126955841656,94.12959255382086,1553.0,1435.0,1200.0,1801.0,1471.0,995.0,110.0,294.54999999999995,1649348019.2913506,1649348020.4124734,e241bc58-7cae-42e6-af91-45f9ebaaac89
0.1712793602651112,0.3636842217103687,0.1116631730391274,-0.2593141607701617,-0.1638546160503208,0.079159596266423,-0.1584110553626499,-0.1828676330434048,-5.025153005135929,22.55477733276409,27.524052855772844,0.9197677804265176,1.1950472487091133,0.3642915817965661,4265.570583767361,11.952333333333334,0.15,178.52230268894294,-3.8103673083763376,94.13768405125762,1553.0,1435.0,1200.0,1801.0,1471.0,995.0,110.0,294.54999999999995,1649348020.5210524,1649348021.644471,e241bc58-7cae-42e6-af91-45f9ebaaac89
0.3617382148107746,0.4193952433369955,0.6909289442788833,-0.3984668361123066,0.3869442635190883,0.1492289972424927,0.5252159413976334,0.5034679998147112,0.2585242225249692,17.87332786012447,31.916968544311604,1.3922870218338137,1.381442221861029,-2.1315254827760266,7414.72802734375,11.641666666666667,7.692222222222223,179.41875894622788,-4.0768034540928175,80.39219092943505,1553.0,1435.0,1350.0,1528.0,1471.0,995.0,110.0,294.54999999999995,1649348026.6004045,1649348027.7846756,1c4d1443-1c5a-4b4f-8ebb-09af8e53a4c4
0.3311371550759965,0.4217493654924469,0.6832313948091672,-0.4046841477076422,0.3760955785076408,0.1485220020476577,0.5167866164426688,0.5036884932633214,0.4337608806920969,18.003003942447283,31.266299180921884,1.405183881996439,1.395077895165132,-2.094873062651231,7414.72802734375,11.642555555555557,7.718888888888888,179.66931912356046,-4.077790606155362,75.05963533034365,1553.0,1435.0,1350.0,1528.0,1471.0,995.0,110.0,294.54999999999995,1649348027.8927362,1649348029.0110157,1c4d1443-1c5a-4b4f-8ebb-09af8e53a4c4
0.3564392906101007,0.4192900537746806,0.6651706508388147,-0.4283932749529749,0.3642233181507144,0.1470594624279337,0.5105814438311487,0.4820882215928126,0.6039445755545748,16.945999322732675,27.53283056475061,1.4469635563338163,1.419495320834393,-2.050467350365293,7423.295735677083,11.643,7.719999999999999,179.7696910301435,-4.028337854698486,70.60633605438727,1553.0,1435.0,1350.0,1528.0,1471.0,995.0,110.0,294.54999999999995,1649348029.1190288,1649348030.242077,1c4d1443-1c5a-4b4f-8ebb-09af8e53a4c4
0.5576932181002843,0.7969468719782131,0.727955669333574,-0.4439481865094816,0.3492864002666899,-0.2036294261954586,0.4409722520340518,0.4202104623408825,0.9147164455980128,17.049436096529956,28.2176292325256,0.6980844334855558,2.8335662144565283,-1.969896109257575,7421.14794921875,11.642,7.720000000000001,179.5895926021086,-3.955617826674613,65.63825452760594,1658.0,1435.0,1350.0,1528.0,1551.0,995.0,110.0,294.54999999999995,1649348030.8945403,1649348031.8812606,544f03f2-9ade-4e62-84e6-7a430c9bf02c
0.550921640170936,0.7998527335794577,0.7193038280300402,-0.4493523013175899,0.340082313580396,-0.2002239132875966,0.4306899724402136,0.4143592929813045,0.7068866376687677,17.125348258544776,28.326314792428747,0.7179125705259828,2.8450908221436446,-1.9306456020958327,7427.57958984375,11.616777777777775,7.771111111111111,179.57009013529847,-3.949748654607196,62.95387786512457,1658.0,1435.0,1350.0,1528.0,1551.0,995.0,110.0,294.54999999999995,1649348031.989369,1649348033.1067865,544f03f2-9ade-4e62-84e6-7a430c9bf02c
0.5500302682258428,0.7999376522376688,0.7249216079686093,-0.447558599778486,0.3438696856493965,-0.201431402149083,0.434746344887311,0.4220496359816214,0.7648673217804257,17.30346200503228,28.43602028323527,0.712660169784432,2.8441649436489413,-1.9490890237452003,7427.57958984375,11.619222222222222,7.69888888888889,179.5198396746648,-3.872472890406925,60.402916046610976,1658.0,1435.0,1350.0,1528.0,1551.0,995.0,110.0,294.54999999999995,1649348033.2149656,1649348034.3375518,544f03f2-9ade-4e62-84e6-7a430c9bf02c
0.7460351249192579,1.1496869218435497,0.7847843291416651,-0.4629875028710493,0.3301024537482974,-0.5419191464375378,0.372322914356836,0.3422255508971944,1.479715626281576,17.28440827457599,26.71742747696322,-0.0147170918488111,4.171803956945432,-1.882791147689885,7434.02099609375,11.61611111111111,7.723333333333334,179.20136009622564,-3.880114449132092,56.96025216192975,1767.0,1435.0,1350.0,1528.0,1630.0,995.0,110.0,294.54999999999995,1649348035.455335,1649348036.5908077,27d867cf-05ea-42c3-be51-62497d6698f4
0.7433527911385426,1.1467942087685743,0.7701629802679325,-0.4771618005136867,0.3186236427507252,-0.5325046773185308,0.3637499651290306,0.3448026950859729,1.3895163447006869,16.884808728046483,25.713955203741424,0.0348298175256259,4.171298148867837,-1.8368087158867288,7440.47412109375,11.588,7.739999999999999,179.04498063844846,-3.8520461187610096,55.167151058247846,1767.0,1435.0,1350.0,1528.0,1630.0,995.0,110.0,294.54999999999995,1649348036.6995003,1649348038.020888,27d867cf-05ea-42c3-be51-62497d6698f4
0.7321895490958219,1.1554066045253584,0.7713332141185623,-0.4805936110618279,0.3118257672582616,-0.5286784054818522,0.3564261418601254,0.3293398294670435,1.244112274444996,17.64507097067514,26.975443299087985,0.0563953209188426,4.19395807581979,-1.8163398396644088,7440.47412109375,11.586666666666666,7.754444444444443,178.95015180983182,-3.795040648470045,53.96547527588744,1767.0,1435.0,1350.0,1528.0,1630.0,995.0,110.0,294.54999999999995,1649348038.1327837,1649348039.2488625,27d867cf-05ea-42c3-be51-62497d6698f4
0.8627692395086419,1.3688888367832754,0.8076762072281225,-0.4670898972304552,0.3063559098753297,-0.7831189189679538,0.3059877464368036,0.2831879085785962,1.4850320479695498,17.666055253016665,22.255382856456887,-0.5445099425966566,5.035416560226355,-1.7671632547547031,7440.47412109375,11.570333333333334,7.74888888888889,178.4759970420099,-3.7425851276674313,51.73912199222824,1886.0,1435.0,1350.0,1528.0,1710.0,995.0,110.0,294.54999999999995,1649348040.8953807,1649348042.115359,b3c4ad2c-317f-4142-9a04-0380651c7e1b
0.8556426467457087,1.3565948052526016,0.7961710990452686,-0.4702981796899254,0.2976777709291118,-0.7788981855475849,0.2978881500859392,0.2819650799299381,1.4693694046040275,17.59062745873566,20.64945882169899,-0.5291250671359967,5.003314954345251,-1.7318892076471617,7440.47412109375,11.527444444444445,7.735555555555556,178.36011301691184,-3.7133984486834968,50.9780958641712,1886.0,1435.0,1350.0,1528.0,1710.0,995.0,110.0,294.54999999999995,1649348042.2235413,1649348043.3498027,b3c4ad2c-317f-4142-9a04-0380651c7e1b
0.8530260564160155,1.3612494438283584,0.8157363572249612,-0.4532706140717904,0.3127724733460469,-0.7765182702483756,0.3082098760709396,0.2850681720645444,1.2215005775635888,18.35355192941175,23.970323138119184,-0.5557507640963226,4.992251110927736,-1.7889044387666453,7440.47412109375,11.525666666666666,7.706666666666667,178.22103670503205,-3.692947534216141,50.401055300696704,1886.0,1435.0,1350.0,1528.0,1710.0,995.0,110.0,294.54999999999995,1649348043.459385,1649348044.5835545,b3c4ad2c-317f-4142-9a04-0380651c7e1b
0.1220769402713537,0.0077621755265712,0.6392414243556341,-0.3591653753360373,0.4188035519893905,0.5134347106641343,0.6111952579904129,0.5843587714550246,0.0529445315382983,18.073663789553567,31.63097504158577,2.1206567079008884,-0.1665544241331626,-2.276971834949597,7434.02099609375,11.572333333333331,7.758888888888888,178.710299851298,-3.489344978575218,49.197156671216405,1449.0,1435.0,1350.0,1528.0,1386.0,995.0,110.0,294.54999999999995,1649348046.5123332,1649348047.651124,2a66ab00-569b-4d75-ae80-0ec2f66e3c4d
0.1090728799628503,0.0028182656616238,0.661278637122244,-0.3421246620761257,0.4366331826399437,0.5274512195699815,0.6258166068007339,0.6028063905991125,-0.2517923549241805,19.0416926972071,35.29451269698603,2.121659079766836,-0.2160946986646991,-2.348005377579211,7440.47412109375,11.628888888888888,7.805555555555555,178.65031409436733,-3.5047684706425577,48.808285922101,1449.0,1435.0,1350.0,1528.0,1386.0,995.0,110.0,294.54999999999995,1649348047.7594128,1649348048.8065157,2a66ab00-569b-4d75-ae80-0ec2f66e3c4d
0.1187371714931321,-0.000968558924067,0.6431334380688777,-0.3476076694228027,0.4278761516578403,0.5103579160200382,0.615179312566847,0.5976126560789787,-0.1858765170509585,17.964550642887264,31.52341677715136,2.087004496852937,-0.1978345022587675,-2.3015357450298426,7440.47412109375,11.624555555555554,7.77,178.53518746135722,-3.4290274831510974,48.50370198407327,1449.0,1435.0,1350.0,1528.0,1386.0,995.0,110.0,294.54999999999995,1649348048.9157054,1649348050.103999,2a66ab00-569b-4d75-ae80-0ec2f66e3c4d
-0.0983478068832622,-0.3996239210476607,0.5778764648822294,-0.3062681618044717,0.4371196843264437,0.8673712827829171,0.6762550006907627,0.648445510821376,-0.3300457068048208,18.945348846559373,32.13104255288563,2.799286156383336,-1.7066095571379825,-2.359653326734515,7434.02099609375,11.612222222222222,7.797777777777778,178.81561833266,-3.3398798778200263,47.981209588040215,1342.0,1435.0,1350.0,1528.0,1293.0,995.0,110.0,294.54999999999995,1649348051.0179443,1649348052.152629,2a0d508b-e61c-48ca-92b0-d1db905dd4bd
-0.096651624969362,-0.401648820657359,0.5761145397717984,-0.3055055373395177,0.4389999477630779,0.8633214846783869,0.676675758927722,0.6548489252850297,-0.3894535576502258,18.621765403817093,31.372620268501265,2.786081818214148,-1.7072728898821563,-2.3616284404638224,7434.02099609375,11.576333333333332,7.768888888888887,178.6701034291226,-3.2935795432563246,47.69706309382897,1342.0,1435.0,1350.0,1528.0,1293.0,995.0,110.0,294.54999999999995,1649348052.261417,1649348053.3844965,2a0d508b-e61c-48ca-92b0-d1db905dd4bd
-0.1014640480483624,-0.400189315094095,0.5751678337258845,-0.2939872777896032,0.4350421905073585,0.857693843200706,0.6702460470907647,0.6526662419208684,-0.2870979302383711,19.0385487334629,32.24920460791502,2.7503604080796653,-1.711763541530666,-2.3443783652348635,7431.158148871527,11.579666666666665,7.777777777777778,178.6301938748923,-3.247238441001016,47.45742704516393,1342.0,1435.0,1350.0,1528.0,1293.0,995.0,110.0,294.54999999999995,1649348053.4940176,1649348054.6137094,2a0d508b-e61c-48ca-92b0-d1db905dd4bd
-0.3477260073845402,-0.8200010287343233,0.4843497971609236,-0.1924530332718445,0.428533586430405,1.175458365768677,0.6867345105784797,0.6645789595683971,-1.1758024038574035,20.6955684050836,31.9365215398685,3.241348596319124,-3.2954816931399424,-2.286844064006748,7427.57958984375,11.538888888888888,7.775555555555554,178.81427506212322,-3.1978212397301307,47.12510950346632,1227.0,1435.0,1350.0,1528.0,1189.0,995.0,110.0,294.54999999999995,1649348055.524129,1649348056.6609013,32a68135-4b1c-4f50-8cd1-fd1f235033d8
-0.3498692452999908,-0.8289289978234251,0.4826273180920558,-0.1840115694217482,0.4294671437668937,1.1759974622552665,0.685656317594941,0.665854382996742,-1.207921669694973,20.726244608638144,31.86367323731905,3.223607951670991,-3.329242021069015,-2.2853766248007177,7427.57958984375,11.48977777777778,7.707777777777778,178.76564563305257,-3.169599016659311,47.0081956376234,1227.0,1435.0,1350.0,1528.0,1189.0,995.0,110.0,294.54999999999995,1649348056.7694557,1649348057.89036,32a68135-4b1c-4f50-8cd1-fd1f235033d8
-0.3412831451789258,-0.8239587882568865,0.4935933297634244,-0.1771742467480014,0.4390919886019112,1.165609992555262,0.6933614528446586,0.6798314457210312,-1.13945255546874,20.7933335482241,32.04495436866792,3.185896733223418,-3.3128375073016865,-2.323466988506562,7439.040093315973,11.497777777777776,7.743333333333333,178.75736289031906,-3.183784394643977,46.87319391303846,1227.0,1435.0,1350.0,1528.0,1189.0,995.0,110.0,294.54999999999995,1649348057.9992597,1649348059.1205535,32a68135-4b1c-4f50-8cd1-fd1f235033d8
0.3380179684735533,0.4141094678815096,0.6633561309288817,-0.3915637690912071,0.3671817745735808,0.1324907073910688,0.4969068009834632,0.4758557401561859,0.0022446509331805,17.408481025218006,29.498147635779624,1.3341331751640677,1.3822634145313963,-2.030696321601113,7444.784016927083,11.589333333333334,7.789999999999998,177.92692420591186,-3.236551163372519,46.69503108472336,1553.0,1435.0,1350.0,1528.0,1471.0,995.0,110.0,294.54999999999995,1649348061.0532758,1649348062.3984518,66dd1e30-8505-41ea-9b6d-3954fabd5f10
0.3399508266835173,0.4139385348451719,0.662711844875231,-0.397244006922386,0.3653804032804444,0.1323197743778085,0.4983663061051351,0.4732260011208226,0.2078602572049774,17.33519926633407,28.70986689552188,1.3460222611142625,1.387810799062374,-2.030451000400611,7444.065700954861,11.640444444444446,7.819999999999999,177.90742629256118,-3.249681158550745,46.65635437963825,1553.0,1435.0,1350.0,1528.0,1471.0,995.0,110.0,294.54999999999995,1649348062.50686,1649348063.6241114,66dd1e30-8505-41ea-9b6d-3954fabd5f10
0.3403189901502121,0.4174492364534307,0.6624225735880276,-0.3953637430249964,0.3645125894037659,0.1335294544393169,0.4963545557745669,0.4675983596413296,0.1182599638237923,17.415793029805275,29.607081477968773,1.3451169397499898,1.3934117710539966,-2.0243994072681226,7452.694607204861,11.642222222222223,7.765555555555555,177.8862162784586,-3.2391290143177027,46.65597758086905,1553.0,1435.0,1350.0,1528.0,1471.0,995.0,110.0,294.54999999999995,1649348063.7320087,1649348064.8371923,66dd1e30-8505-41ea-9b6d-3954fabd5f10
0.3518969221015584,0.4152382327874412,0.6563397850063666,-0.6937911908751696,0.3303280044858175,0.4265789822983498,0.5753994530543186,0.5499491424425534,0.1863267820101232,16.546542051169897,32.182298178833925,2.671197080188079,1.3981557702444232,-2.0809380456005564,7453.4140625,11.63511111111111,7.800000000000001,177.90132465690263,-3.120656940422565,46.76582561601559,1553.0,1522.0,1350.0,1528.0,1471.0,995.0,110.0,294.54999999999995,1649348066.9928246,1649348068.3354237,2efcd331-b3cb-4ec2-849d-f0595ab192f7
0.3569257923166751,0.4083240420008735,0.6545596539962311,-0.6906966944280035,0.3260395069656795,0.4281522742658485,0.570171329644531,0.5536171226375162,0.164803465595169,17.0301000776914,31.81549504247493,2.6707996725907264,1.375141005954244,-2.0667670500703115,7449.097330729167,11.628333333333334,7.786666666666666,177.90133376382153,-3.106870417026306,46.75299662347954,1553.0,1522.0,1350.0,1528.0,1471.0,995.0,110.0,294.54999999999995,1649348068.4445553,1649348069.570422,2efcd331-b3cb-4ec2-849d-f0595ab192f7
0.3403285988336796,0.4137337186321908,0.673900878572546,-0.6708315354339673,0.3448800702238012,0.4252008978903095,0.5831495973191133,0.5653230012141711,-0.0633448868448128,17.356861863313245,34.86976808567127,2.622857836029816,1.3687612613119593,-2.1324282091963704,7453.4140625,11.629,7.778888888888888,177.95027738159402,-3.13630893551995,46.79015816493376,1553.0,1522.0,1350.0,1528.0,1471.0,995.0,110.0,294.54999999999995,1649348069.6833355,1649348070.7890608,2efcd331-b3cb-4ec2-849d-f0595ab192f7
0.3712447214754381,0.4038666343325546,0.6472621282914501,-1.0490120040198407,0.282951232067856,0.7706889280511205,0.6647761899873328,0.63599369669258,0.5768013142109476,16.040126917267216,33.32867737886103,4.242319400068479,1.3857325712185118,-2.133681549805298,7445.502332899306,11.625333333333336,7.783333333333335,177.9576312186004,-3.03882899743609,46.906264171179856,1553.0,1613.0,1350.0,1528.0,1471.0,995.0,110.0,294.54999999999995,1649348071.9083416,1649348072.961509,db0966c9-75db-49fb-9186-da16e7b67fb4
0.3690094432799796,0.4025386161190584,0.6504046663811109,-1.0526147491801,0.2842398041466742,0.7788148215582693,0.6668273863975148,0.6487084847375685,0.438545553131027,16.305267793463386,33.84447381948734,4.270633032995598,1.377806036754921,-2.1423110219884705,7442.629069010417,11.628666666666666,7.793333333333333,177.951758773734,-3.050761551359513,46.94458684479298,1553.0,1613.0,1350.0,1528.0,1471.0,995.0,110.0,294.54999999999995,1649348073.0698402,1649348074.0688913,db0966c9-75db-49fb-9186-da16e7b67fb4
0.3734931483549796,0.4070354698757845,0.6546385461697303,-1.0399393973345017,0.2881712641712128,0.7648640561579095,0.6659858699253185,0.6409639033959746,0.4459205926669545,16.403485830787044,34.15854287159423,4.211607007132724,1.3905456516058563,-2.1511758445384936,7446.93896484375,11.625,7.80111111111111,177.9684411313268,-3.0391618505784543,46.95790153967001,1553.0,1613.0,1350.0,1528.0,1471.0,995.0,110.0,294.54999999999995,1649348074.1788042,1649348075.3037927,db0966c9-75db-49fb-9186-da16e7b67fb4
0.3814744063731685,0.3964902163280422,0.6443299693012517,-1.3638052009947033,0.2407833653360818,1.085573881706249,0.744010225941514,0.7230906521976437,0.7742190782873806,16.22157992587708,36.14550410468975,5.661609528181552,1.3702787547180058,-2.184679130454437,7446.93896484375,11.614,7.809999999999999,178.0150017719889,-2.953984031827172,47.08084570364015,1553.0,1710.0,1350.0,1528.0,1471.0,995.0,110.0,294.54999999999995,1649348076.8935368,1649348077.962139,1b00827b-1e98-4ff3-892e-c24696c3a47c
0.3963981754419546,0.4059704255585856,0.6600163624071256,-1.366014184071135,0.2547735775217039,1.0828915478162435,0.7590391843140298,0.7414199330765454,0.7860794699126191,16.135638584278034,36.91428543433747,5.660904770918201,1.4002026180531002,-2.244259017994775,7446.93896484375,11.591,7.7666666666666675,178.01930023770652,-2.953960126165077,47.06539467737272,1553.0,1710.0,1350.0,1528.0,1471.0,995.0,110.0,294.54999999999995,1649348078.069582,1649348079.0133789,1b00827b-1e98-4ff3-892e-c24696c3a47c
0.3903892217372559,0.405694302963687,0.6614101240715519,-1.3606100646300552,0.2567721792832035,1.0755282783007352,0.7579741399942919,0.7415514199393896,0.720661596780734,16.17725596804946,36.53784353753074,5.632420501699377,1.4023900971876495,-2.247944434216941,7446.93896484375,11.592666666666666,7.733333333333332,178.0338303268009,-2.9473160596499466,47.10157191267656,1553.0,1710.0,1350.0,1528.0,1471.0,995.0,110.0,294.54999999999995,1649348079.1214087,1649348080.210992,1b00827b-1e98-4ff3-892e-c24696c3a47c
0.4096915062937824,0.3992777397044479,0.6659595725289357,-1.6116058090120438,0.2214153368038338,1.3389361057807443,0.8194837353402,0.7948430808382159,0.6903542728452269,17.40985430638436,40.47033505788527,6.799527147275828,1.3748972816560934,-2.2915228956050453,7446.93896484375,11.596,7.779999999999999,178.0474998120598,-2.8928350557353406,47.19613588173539,1553.0,1814.0,1350.0,1528.0,1471.0,995.0,110.0,294.54999999999995,1649348080.893611,1649348081.8579962,1c2da581-1eb3-4b0d-9a04-16855ff3b20a
0.4031829021581302,0.3974106249852828,0.6462233813867853,-1.6242811683783729,0.2011400481658744,1.338725726576375,0.8035606656220868,0.7912008923492199,0.9698445298819952,17.20531639954138,38.38602700762439,6.825116702832345,1.3846954425272586,-2.217330952113548,7440.47412109375,11.563333333333333,7.786666666666666,178.07285802771833,-2.9037745286125656,47.23929584710069,1553.0,1814.0,1350.0,1528.0,1471.0,995.0,110.0,294.54999999999995,1649348081.9768918,1649348083.0817354,1c2da581-1eb3-4b0d-9a04-16855ff3b20a
0.3894819617704866,0.3954383207067698,0.6486295925656093,-1.6132888441154856,0.2114486254620865,1.3274046988937789,0.8079260324223881,0.7761850825936425,0.7654606567737031,16.620417603237414,37.97532883931177,6.7709549507838185,1.3811739197074997,-2.241491288030776,7440.47412109375,11.561,7.777777777777778,178.0714707404069,-2.9016742691587214,47.262461192580695,1553.0,1814.0,1350.0,1528.0,1471.0,995.0,110.0,294.54999999999995,1649348083.190403,1649348084.316068,1c2da581-1eb3-4b0d-9a04-16855ff3b20a
0.3482345047513697,0.4405646425268835,0.6988970534273545,-0.0181539053718538,0.4213018040908117,-0.2204729074465282,0.4103883871074225,0.3804225106529814,-0.3045401706813777,19.96379264351809,31.660962856416944,-0.2824448547666254,1.4208104695893524,-2.02140981897795,7439.757107204861,11.56488888888889,7.767777777777777,178.12679679050385,-3.412004493589376,47.38203503765039,1553.0,1349.0,1350.0,1528.0,1471.0,995.0,110.0,294.54999999999995,1649348086.448819,1649348087.59422,70800bee-f47e-4241-971d-5b62fc4b075c
0.3312069442883587,0.4365805879043607,0.6727048530509198,-0.0369959876737499,0.4059835742055082,-0.2274417172918601,0.398409925778502,0.3711658292897625,-0.1453640874173547,18.506595885241936,27.5210579289884,-0.2671455093236846,1.4420678108916345,-1.953565081984608,7440.47412109375,11.637555555555556,7.821111111111112,178.16964787953668,-3.511311270116868,47.48657867199651,1553.0,1349.0,1350.0,1528.0,1471.0,995.0,110.0,294.54999999999995,1649348087.7261574,1649348088.8218253,70800bee-f47e-4241-971d-5b62fc4b075c
0.3242381357641838,0.4300456864179508,0.6527582827860127,-0.0559432597036032,0.3901656938801829,-0.2260348066874503,0.389705489562093,0.3735588918016611,0.2222839036115186,17.726654220054378,24.22962648173664,-0.2277467318831389,1.4451827901448329,-1.897459845177168,7434.738009982639,11.64188888888889,7.791111111111111,178.1947010134123,-3.503527083760908,47.57063629229204,1553.0,1349.0,1350.0,1528.0,1471.0,995.0,110.0,294.54999999999995,1649348088.9342277,1649348090.045328,70800bee-f47e-4241-971d-5b62fc4b075c
0.3144818037959324,0.4398020182088087,0.6804625830792774,0.2835823694380499,0.4424712032726944,-0.5361863131055571,0.3096167864555068,0.2839899789859252,-0.6507969710262319,19.848625620317605,25.72016049487092,-1.6753408069562377,1.4347332726251465,-1.8876582887783693,7440.47412109375,11.631666666666666,7.816666666666666,178.2280353722016,-3.612011926985605,47.73103645476062,1553.0,1264.0,1350.0,1528.0,1471.0,995.0,110.0,294.54999999999995,1649348090.954553,1649348092.0923986,1edc7342-31b6-47c3-a2f3-107e5b13b9a0
0.3128382168597631,0.4358442609719485,0.6724418791520539,0.2724717217221867,0.4339377001285498,-0.5285863647010003,0.3051593787243115,0.2852259562498377,-0.5607161307092207,19.797335410252835,24.747521498664977,-1.634048895393038,1.4287308003688337,-1.8606199314254863,7440.47412109375,11.627,7.773333333333331,178.23284382537727,-3.655507140802677,47.83567609121008,1553.0,1264.0,1350.0,1528.0,1471.0,995.0,110.0,294.54999999999995,1649348092.200547,1649348093.3202164,1edc7342-31b6-47c3-a2f3-107e5b13b9a0
0.3051632137965169,0.4305415017971404,0.6659031427144041,0.2656212514323856,0.4297060117250042,-0.5262453481641173,0.3036291992793436,0.288836916781451,-0.4516082033268134,19.496929106346617,23.41770400653537,-1.6158094096083282,1.4202799530087518,-1.8461422479981,7439.040093315973,11.63211111111111,7.705555555555555,178.18593712179725,-3.6635824639720087,47.93564691390687,1553.0,1264.0,1350.0,1528.0,1471.0,995.0,110.0,294.54999999999995,1649348093.4281485,1649348094.5576782,1edc7342-31b6-47c3-a2f3-107e5b13b9a0
0.2766267096703994,0.432070585468278,0.6673927802886126,0.5838328237284427,0.4579209200318502,-0.8369102605509073,0.2068991769162376,0.1892536270773438,-0.8891329644733987,21.034979859125976,20.74138364746002,-3.0220990547111795,1.41377366284895,-1.7506163737864997,7434.02099609375,11.626666666666669,7.75,178.27567670057235,-3.817306353686248,48.1236945437708,1553.0,1178.0,1350.0,1528.0,1471.0,995.0,110.0,294.54999999999995,1649348095.664757,1649348096.8084147,1d7ef53d-ca8b-4d77-af88-cdc9e4ae6104
0.2836086669490623,0.4345819862431135,0.6648550821557467,0.598598808188758,0.4567112400869157,-0.8450098614661951,0.1976030491129504,0.1684655390940747,-1.2135953438269356,21.246559156892644,21.82568254156732,-3.072322640980854,1.4139039968692857,-1.7306249619759893,7440.47412109375,11.616888888888887,7.694444444444445,178.2963569955593,-3.910632018934925,48.216292177258566,1553.0,1178.0,1350.0,1528.0,1471.0,995.0,110.0,294.54999999999995,1649348096.9405737,1649348098.0418632,1d7ef53d-ca8b-4d77-af88-cdc9e4ae6104
0.2923525494230082,0.4373037661345184,0.6638426326446075,0.589250086062566,0.4554752627522621,-0.838290874344561,0.2034936647867643,0.1888854638154044,-0.8483650208902788,20.87562333351317,21.95737995227784,-3.038440303762641,1.4214406380851208,-1.7351076515661146,7440.47412109375,11.593666666666666,7.733333333333332,178.29633271044224,-3.914118735642477,48.30392540158461,1553.0,1178.0,1350.0,1528.0,1471.0,995.0,110.0,294.54999999999995,1649348098.1536572,1649348099.2574928,1d7ef53d-ca8b-4d77-af88-cdc9e4ae6104
0.2595465542117388,0.4390393938883627,0.6711401583474763,0.7808528693186784,0.4701229090895535,-1.0093160634781824,0.142588905845256,0.1194603494739728,-1.3957495677500429,22.94122406747346,22.73946860746617,-3.841060060574668,1.401800170430932,-1.676527697367295,7434.02099609375,11.597333333333331,7.75111111111111,178.37277466981325,-3.950291702078081,48.48137675186117,1553.0,1088.0,1350.0,1528.0,1471.0,995.0,110.0,294.54999999999995,1649348100.5808232,1649348101.7183511,cd644229-9908-47d0-b86f-90c515d7b453
0.2691713993000889,0.4365279931228115,0.6538496244665116,0.7780521972979344,0.4579735147932738,-1.0127741730229096,0.1281516376977591,0.0967262539968943,-1.529609203652866,22.49465919602021,21.41616870316325,-3.846612873372029,1.4042978114773663,-1.6179604554036553,7434.738009982639,11.572222222222225,7.7555555555555555,178.37020803650512,-3.979090957554093,48.5349531351657,1553.0,1088.0,1350.0,1528.0,1471.0,995.0,110.0,294.54999999999995,1649348101.826362,1649348102.956727,cd644229-9908-47d0-b86f-90c515d7b453
0.2667914854224887,0.441116887721412,0.6504046663813938,0.7678356613020321,0.4528981184528118,-1.0153644680702063,0.1256007905817725,0.0987643019362307,-1.4210091562855507,22.373106019597326,20.32818620348092,-3.8304837008736015,1.4314204940738855,-1.6036628541581337,7440.47412109375,11.572,7.713333333333332,178.3874565408891,-3.9897569619892375,48.584511849418455,1553.0,1088.0,1350.0,1528.0,1471.0,995.0,110.0,294.54999999999995,1649348103.0678756,1649348104.1380055,cd644229-9908-47d0-b86f-90c515d7b453
