raw_voltage_G-,raw_voltage_G0,raw_voltage_G1,raw_voltage_G2,raw_voltage_G3,raw_voltage_G4,raw_voltage_G5,raw_voltage_G6,load_x,load_y,load_z,load_l,load_m,load_n,rpm,voltage,current,roll,pitch,yaw,aileron1_pwm,elevator_pwm,throttle_pwm,rudder_pwm,aileron2_pwm,pbaro,pdiff,Tt,sample_start_time,sample_end_time,uid
-0.0402700130043909,0.1167648671267367,-0.0085948029060837,-0.0586518910276992,-0.1921900589196412,0.0511660221519582,-0.3447412527878364,-0.3763770223210982,-14.786784392297028,26.192334143899544,14.254761904883734,0.4153143645578547,0.4233775172781772,0.7769523662380017,4639.054850260417,11.966,0.15,178.9839824957008,0.9221871688559686,90.73276341247492,1553.0,1435.0,1200.0,1528.0,1471.0,993.0,107.0,294.2,1649338495.2748744,1649338496.2540274,7d1f70cc-9bdc-4ee0-ad78-2115a6baf799
-0.0346292221912007,0.1049047433116397,-0.0153926790123371,-0.0548650663399147,-0.1947409062363161,0.0581742772560754,-0.3478443456334275,-0.3761797912243933,-14.859058052998444,26.08088436428699,14.058483911841982,0.4213757293486438,0.3802469057965264,0.7924276015200441,4647.440375434027,11.966666666666669,0.15,178.9895938755589,0.8969627466425829,90.43364893815256,1553.0,1435.0,1200.0,1528.0,1471.0,993.0,107.0,294.2,1649338496.3621464,1649338497.695856,7d1f70cc-9bdc-4ee0-ad78-2115a6baf799
-0.0410852322039584,0.1086389729893214,-0.0128155344920246,-0.0561799360275469,-0.1928343451036383,0.0571618276477782,-0.3462270557146283,-0.3704601074244788,-14.907095805162395,26.082011686493694,14.27883322674771,0.4222133854853456,0.3929648714034964,0.7847322283522707,4649.960286458333,11.969,0.1566666666666666,178.9974152010685,0.8920129049936842,90.20624689665586,1553.0,1435.0,1200.0,1528.0,1471.0,993.0,107.0,294.2,1649338497.8049817,1649338498.801259,7d1f70cc-9bdc-4ee0-ad78-2115a6baf799
0.1798391612157274,0.4928175568362958,0.009182234725918,-0.2636269335923337,-0.2643369632822772,-0.1226203015713107,-0.4051463746127879,-0.4238832709831699,-14.584317873860812,25.30902008096572,14.94282366190932,0.4824079473380739,1.852621263553428,0.9821707643804288,4646.040798611111,11.937888888888889,0.1455555555555555,178.66599317306205,0.8825396875611738,89.83532512576933,1658.0,1435.0,1200.0,1528.0,1551.0,993.0,107.0,294.2,1649338500.6460714,1649338501.994567,0c0e4397-3d00-4250-9110-95eba236b301
0.1762232698662888,0.4919760403532977,0.0075780937641077,-0.2635611900940269,-0.2649549520697297,-0.1198459264709073,-0.4059221478202831,-0.430470769338229,-14.640461135930666,25.258654128136687,15.220190052754626,0.4880962326260288,1.8472934993990164,0.9865750064022372,4648.279296875,11.937,0.15,178.69638144358936,0.8829851913929748,89.6976983318134,1658.0,1435.0,1200.0,1528.0,1551.0,993.0,107.0,294.2,1649338502.1073844,1649338503.217288,0c0e4397-3d00-4250-9110-95eba236b301
0.1812723690625116,0.5043489623999784,0.0126008958071047,-0.2700172008115113,-0.2633771083136769,-0.1273932786277271,-0.4037920585872405,-0.4196888360646991,-14.603640229808724,25.254629623006263,15.053067481002016,0.4859148205173486,1.8960332972795115,0.9757787086473516,4644.361382378473,11.939444444444442,0.15,178.68882421872772,0.8971384817181031,89.62906100193403,1658.0,1435.0,1200.0,1528.0,1551.0,993.0,107.0,294.2,1649338503.325144,1649338504.6483,0c0e4397-3d00-4250-9110-95eba236b301
0.4081005141694285,0.8966139807338993,0.0337571482682019,-0.4785292647652893,-0.3401786544184267,-0.3143151647445054,-0.4685756992935882,-0.4860897673161838,-14.210427000258,24.754732160248963,15.659575397134532,0.5342626885765168,3.3861120939482663,1.190756421744528,4650.80078125,11.909,0.14,178.37557656519277,0.9139893766002688,89.49692947462033,1767.0,1435.0,1200.0,1528.0,1630.0,993.0,107.0,294.2,1649338505.766302,1649338506.8733568,34aa8159-4c2e-4871-bb78-57186129a6d9
0.4039455264921691,0.8884880871308735,0.0270381644440177,-0.4739009225432027,-0.3445440223063392,-0.3093449568024529,-0.4736379485659489,-0.4994225487861901,-14.240102118263012,24.76622028216532,15.79472606102548,0.5347392050626457,3.35365164779313,1.2122909879181654,4650.80078125,11.914333333333332,0.14,178.37427882925044,0.938390334131845,89.43240923099067,1767.0,1435.0,1200.0,1528.0,1630.0,993.0,107.0,294.2,1649338507.007221,1649338507.9415283,34aa8159-4c2e-4871-bb78-57186129a6d9
0.4076929046292871,0.899191124986799,0.0324948734343449,-0.4829735252082013,-0.3431239628751769,-0.3130660384271853,-0.4699563127242755,-0.4885485740345966,-14.157330730275469,24.79957258858357,15.603379263490194,0.547346973985767,3.396368136911608,1.198666692730575,4653.326171875,11.904666666666666,0.1388888888888889,178.3684868288343,0.9436986480614796,89.34191605467716,1767.0,1435.0,1200.0,1528.0,1630.0,993.0,107.0,294.2,1649338508.0505106,1649338509.162615,34aa8159-4c2e-4871-bb78-57186129a6d9
0.4934881402746714,1.052570655857728,0.0646302870979278,-0.5778150976139607,-0.3589681445954468,-0.4011228727275964,-0.480475272296164,-0.5006190802374357,-14.007725774239132,25.391300967791345,12.111829072011052,0.5684523628120784,4.0152455625489285,1.2040842935896536,4650.80078125,11.843333333333334,0.1266666666666666,178.19473592326804,0.9734620037115872,89.12724776252311,1886.0,1435.0,1200.0,1528.0,1710.0,993.0,107.0,294.2,1649338511.2954032,1649338512.430228,537af36a-9982-4c7b-b28b-e7fdb9b4ab66
0.4954867419220675,1.043221933351209,0.0616192356535489,-0.5724241304765189,-0.3602041222797684,-0.3984536868969732,-0.4833942836128573,-0.5156348953275902,-14.088954382486326,25.51863956171951,11.871010222760152,0.5629046150364243,3.982038988210576,1.212495535716655,4637.939019097223,11.844555555555557,0.1288888888888889,178.20143406211412,1.006094418268054,88.98860478820065,1886.0,1435.0,1200.0,1528.0,1710.0,993.0,107.0,294.2,1649338512.5396678,1649338513.6694024,537af36a-9982-4c7b-b28b-e7fdb9b4ab66
0.5001150825878126,1.0395140012377635,0.0569382998127474,-0.5716352084948338,-0.3626366315199358,-0.3960343262806699,-0.4856558599093913,-0.5135836984819904,-14.083126080243884,25.365771704381824,11.776873415305616,0.5653030956937619,3.9685285971475706,1.2249016360019682,4636.824001736111,11.84722222222222,0.13,178.20873477542693,1.0107293063762406,88.90941861060315,1886.0,1435.0,1200.0,1528.0,1710.0,993.0,107.0,294.2,1649338513.7777512,1649338514.891492,537af36a-9982-4c7b-b28b-e7fdb9b4ab66
-0.2936454112370648,-0.3458062973494831,-0.0371274744978863,0.1902529282721548,-0.1111151916259884,0.2688295332487942,-0.2821665977502621,-0.3110016928539106,-15.486561006150357,27.633514055978576,13.466596901274093,0.3506201780040339,-1.3320371456015991,0.5603444296412584,4630.70068359375,11.958,0.16,179.2445238561405,0.996851915376492,88.58759755184002,1449.0,1435.0,1200.0,1528.0,1386.0,993.0,107.0,294.2,1649338516.8261728,1649338517.963052,393bf965-c0bc-4471-8b13-cb7dfb5ab774
-0.2819299212169906,-0.3375883608155556,-0.0311316688384503,0.1907788761045769,-0.1071837312221826,0.261453115069214,-0.2781430961617894,-0.2979450356100519,-15.37490371068903,27.616070131731867,13.66957253980708,0.33312944612722,-1.3034890871536786,0.5424585922810802,4633.481553819444,11.952333333333334,0.151111111111111,179.24255827947934,1.0159969237620703,88.40046934132937,1449.0,1435.0,1200.0,1528.0,1386.0,993.0,107.0,294.2,1649338518.0718434,1649338519.1918955,393bf965-c0bc-4471-8b13-cb7dfb5ab774
-0.2699120112129078,-0.3468055984402013,-0.040717068684488,0.1928826674231102,-0.1152307337960875,0.2682246932564699,-0.2862558428486727,-0.3160770905588286,-15.402056640998822,27.711561824842487,13.554658804753316,0.3437241997327625,-1.3377137384810955,0.5767185820734106,4641.009385850694,11.957666666666666,0.1555555555555555,179.231056240917,1.0311392159926425,88.2569663079575,1449.0,1435.0,1200.0,1528.0,1386.0,993.0,107.0,294.2,1649338519.301997,1649338520.416628,393bf965-c0bc-4471-8b13-cb7dfb5ab774
-0.5147402356887215,-0.7669898438935618,-0.0525224068832128,0.4253505065184949,-0.0314160093910903,0.4668510755078919,-0.2171550527004543,-0.2407268328427081,-15.799985563162377,29.380270034829383,13.897104470251188,0.276002233465399,-2.943220635036424,0.3309828732551614,4638.496799045139,11.913,0.14,179.39470301997108,1.0405689561880145,87.91684944913764,1342.0,1435.0,1200.0,1528.0,1293.0,993.0,107.0,294.2,1649338522.367739,1649338523.6976595,0b043f6d-7aa1-4694-b521-2b87364496df
-0.5245102675186366,-0.7783722370164102,-0.0617155373541924,0.4353051644705391,-0.0372063666694429,0.4711353586559534,-0.2244043680162961,-0.2403274414211887,-15.778491032996548,29.39498999224834,14.160052539468184,0.2628668794072678,-2.990202342061027,0.3608121463485981,4639.612901475694,11.908555555555555,0.14,179.38947564852631,1.0522248163022487,87.71571024390956,1342.0,1435.0,1200.0,1528.0,1293.0,993.0,107.0,294.2,1649338523.80641,1649338524.923179,0b043f6d-7aa1-4694-b521-2b87364496df
-0.5189352188168709,-0.7708906255254655,-0.0590989467050948,0.4287834116788797,-0.0376008275736983,0.4696101100231542,-0.2233524722082414,-0.2449426340637004,-15.746713475136868,29.45746058257263,14.14482288327716,0.2747089006886545,-2.9612617791575286,0.3571082358378269,4640.449978298611,11.906555555555554,0.14,179.3839765873346,1.0658668859407494,87.54191380374886,1342.0,1435.0,1200.0,1528.0,1293.0,993.0,107.0,294.2,1649338525.0313358,1649338526.1557312,0b043f6d-7aa1-4694-b521-2b87364496df
-0.7348763311335458,-1.153504767925014,-0.0752981411706678,0.645999853575552,0.0311274090126818,0.6490766481976884,-0.1692061358454492,-0.1914274346235043,-16.049461929135884,31.27940839773747,14.923093753440911,0.1992500656143273,-4.428792493357254,0.1642327576823139,4638.2177734375,11.816777777777778,0.12,179.55284618437395,1.0862572061951568,87.26507712976935,1227.0,1435.0,1200.0,1528.0,1189.0,993.0,107.0,294.2,1649338527.270831,1649338528.4056442,77107e63-6f32-46c2-8f26-e448fd9605bc
-0.7424499833274486,-1.1678237093806232,-0.0827140062057541,0.6523243758539607,0.026827785298966,0.6553091296104379,-0.1742289382358001,-0.1959242891586682,-16.064418708991248,31.34792876307932,14.594079133052515,0.1990137042966743,-4.4807229692697605,0.1851692741844321,4633.759982638889,11.819888888888888,0.12,179.5432565987793,1.0835684002498622,87.03485725578508,1227.0,1435.0,1200.0,1528.0,1189.0,993.0,107.0,294.2,1649338528.5140276,1649338529.6382904,77107e63-6f32-46c2-8f26-e448fd9605bc
-0.7360334168318263,-1.162288103813892,-0.0849492846740888,0.6482614291100407,0.0226464998519916,0.653363122756031,-0.1771479490586523,-0.193333996027179,-15.97484859863305,31.345942048825727,14.536369810771076,0.2037171954857961,-4.459725064450908,0.1986835607284161,4633.204833984375,11.8215,0.12,179.53163844700106,1.088846345925219,86.82689127648159,1227.0,1435.0,1200.0,1528.0,1189.0,993.0,107.0,294.2,1649338529.7470963,1649338530.869158,77107e63-6f32-46c2-8f26-e448fd9605bc
-0.0260431232805842,0.1161863245014502,-0.0149850694237987,-0.0600982476503578,-0.1951748132555305,0.0549528466873487,-0.3492644050614198,-0.3625971860396011,-15.001769643030029,25.952060636176,14.485051687288758,0.4251039877965935,0.4204570846606409,0.796358737583041,4638.2177734375,11.968222222222222,0.1555555555555555,179.08879250742453,1.1069658298660414,86.63755425868436,1553.0,1435.0,1200.0,1528.0,1471.0,993.0,107.0,294.2,1649338531.7761295,1649338532.912896,6991e813-912d-4d4c-9008-c86b442d6444
-0.0308029514570914,0.1176195323614226,-0.0130916571142011,-0.0590200545221882,-0.1938730921939687,0.0520469848096853,-0.3479232378068047,-0.3646089363699388,-14.937970903627908,25.9586025846335,14.424802963591452,0.416302145946508,0.4259023111823913,0.7902351081754255,4648.840060763889,11.970333333333334,0.16,179.09400318285137,1.1318894035908291,86.72552405955447,1553.0,1435.0,1200.0,1528.0,1471.0,993.0,107.0,294.2,1649338533.0210974,1649338534.1466124,6991e813-912d-4d4c-9008-c86b442d6444
-0.0259905284869406,0.1122417156968403,-0.0159054781802316,-0.0563377203794081,-0.1947803523251637,0.0560047423928522,-0.3493827433456552,-0.3816890968630337,-14.995043318923235,25.939848848317368,14.573471983588298,0.418875606647816,0.4043095717091481,0.7969346739268818,4650.80078125,11.967333333333334,0.1566666666666666,179.0931653463132,1.131737265870254,86.80353544461474,1553.0,1435.0,1200.0,1528.0,1471.0,993.0,107.0,294.2,1649338534.269108,1649338535.3684788,6991e813-912d-4d4c-9008-c86b442d6444
-0.023852348103805,0.1167122723392051,-0.0266464461295798,-0.329736565010339,-0.2351797257969644,0.3154219355297621,-0.2866998642653183,-0.3106709524895211,-14.795865186697094,25.373039227441936,16.489751500723706,1.6146549372494052,0.4356539231024473,0.7785725526903432,4651.361979166667,11.968444444444444,0.15,179.13109869914362,1.2419641393563896,86.97911001068935,1553.0,1522.0,1200.0,1528.0,1471.0,993.0,107.0,294.2,1649338537.5089214,1649338538.8536885,a6444ef0-1e95-4ed4-968f-5598232d9e55
-0.0333406498499928,0.1094278947528765,-0.0325122819825838,-0.3280687032601345,-0.2398672365525237,0.3217135862440752,-0.2916205116653796,-0.3230459005646794,-14.85859569813324,25.473802196488865,16.54540934136437,1.6253840146715637,0.4077082720700787,0.7990853352563541,4658.3837890625,11.967666666666666,0.15,179.12216632952905,1.254498923865538,87.0072390064212,1553.0,1522.0,1200.0,1528.0,1471.0,993.0,107.0,294.2,1649338538.962675,1649338540.082077,a6444ef0-1e95-4ed4-968f-5598232d9e55
-0.0091733455687522,0.1061538694357485,-0.0370748797152807,-0.3275690526915069,-0.2416949055371373,0.3233308757769972,-0.2938031955569014,-0.3115933843620438,-14.896298553547304,25.277459346706355,16.361392904520912,1.6263141116076805,0.3969723792267948,0.8103045870797334,4655.853515625,11.968333333333334,0.16,179.12393762525383,1.254893972046439,87.00811099390523,1553.0,1522.0,1200.0,1528.0,1471.0,993.0,107.0,294.2,1649338540.1903534,1649338541.239354,a6444ef0-1e95-4ed4-968f-5598232d9e55
-0.01619474951255,0.0962923474025974,-0.0554173116129103,-0.6024557621447059,-0.2909630767662457,0.6003475846421601,-0.2373032404849691,-0.2591958225583678,-14.710638713555923,25.170640471107475,18.52981208043057,2.867702382313196,0.372132790337937,0.8215970371020725,4660.354058159723,11.948777777777778,0.15,179.13753729080122,1.3644106955863695,87.04393457719203,1553.0,1613.0,1200.0,1528.0,1471.0,993.0,107.0,294.2,1649338543.2458518,1649338544.381426,74fcfde7-90a1-4807-a9ec-404b98740ee6
-0.0059387662500839,0.1026957623819964,-0.0554173116087913,-0.6083726773783255,-0.2930011249723385,0.5988354847210379,-0.2389731250958456,-0.262811715137118,-14.756043117111496,25.20748732482857,18.42566663182709,2.8778564084445053,0.3981230132538458,0.8272796631207769,4655.853515625,11.950333333333331,0.15,179.11669155345433,1.3725655027105743,87.02804224481324,1553.0,1613.0,1200.0,1528.0,1471.0,993.0,107.0,294.2,1649338544.4890597,1649338545.612085,74fcfde7-90a1-4807-a9ec-404b98740ee6
-0.0187324479775321,0.0928342403358604,-0.0587833779828996,-0.6073733761248122,-0.2929748275757196,0.6076056642693585,-0.2377502962059378,-0.2639819485077808,-14.76653357851361,25.06699146415789,18.423116096305417,2.894205335236298,0.360894355314384,0.8289533616747206,4648.560329861111,11.947111111111113,0.1455555555555555,179.1297220365709,1.374274555964926,87.0146740467877,1553.0,1613.0,1200.0,1528.0,1471.0,993.0,107.0,294.2,1649338545.7204354,1649338546.8468597,74fcfde7-90a1-4807-a9ec-404b98740ee6
-0.001126343300093,0.0954113847619595,-0.0703805285589159,-0.9039029027518656,-0.3413488885898078,0.8915517331011915,-0.1731638937366816,-0.1934260366466095,-14.45898593608364,24.96302288052588,20.532486099969866,4.20039240337649,0.3854603449580753,0.8196361615198573,4643.245768229167,11.933,0.14,179.13299445609326,1.5014690304474825,87.00215962240843,1553.0,1710.0,1200.0,1528.0,1471.0,993.0,107.0,294.2,1649338547.7511504,1649338548.8888578,37a418b5-f273-4ce8-a958-9a27752648f4
-0.0141435528594738,0.0872065984081948,-0.0792033041384831,-0.9044025534854068,-0.3474498846774934,0.9002298719100044,-0.1806980973516924,-0.1958716942976985,-14.702481970628824,24.99507887456645,20.49586147235844,4.22066520950087,0.3562381603104442,0.8494671978653,4645.759765625,11.935,0.14,179.12933347469811,1.4886949047261682,86.9263968874049,1553.0,1710.0,1200.0,1528.0,1471.0,993.0,107.0,294.2,1649338548.9976285,1649338550.1204293,37a418b5-f273-4ce8-a958-9a27752648f4
-0.0138937276228628,0.0855761600867087,-0.0824115861861093,-0.9001555222919716,-0.3492775537808319,0.8984285006686095,-0.1834198777313575,-0.2057200689308413,-14.664288483818108,24.9207776012369,20.54646360799422,4.206412014711461,0.3486766672264126,0.86017355542402,4640.72900390625,11.934333333333331,0.1344444444444444,179.1195693398246,1.4994662434849186,86.85439379208455,1553.0,1710.0,1200.0,1528.0,1471.0,993.0,107.0,294.2,1649338550.2293005,1649338551.3464613,37a418b5-f273-4ce8-a958-9a27752648f4
-0.0019152650958104,0.0851948478939859,-0.0748116394170755,-1.0112752210283082,-0.3623079140873717,1.0073522923482028,-0.1529280486220748,-0.1748995220511827,-14.505519299526847,25.619050380196555,21.568419507520005,4.707087321497204,0.3512400677220608,0.8243933245119502,4647.159505208333,11.899555555555557,0.1255555555555555,179.13043996534367,1.5648016749352105,86.70268542478976,1553.0,1814.0,1200.0,1528.0,1471.0,993.0,107.0,294.2,1649338553.281006,1649338554.4153397,e7357eb9-1b52-4701-b082-546905be68c6
0.0061580345279084,0.0873117879731577,-0.0720898591484917,-1.0252917398845052,-0.3615715869377744,1.017595126029195,-0.1473135548631508,-0.1674836567272599,-14.497910985826088,25.59185944136203,21.51697184847707,4.761673072141251,0.3614798283329879,0.8117636611655056,4648.279296875,11.899,0.13,179.12206615342123,1.550787620862225,86.59916935445878,1553.0,1814.0,1200.0,1528.0,1471.0,993.0,107.0,294.2,1649338554.5245595,1649338555.6611345,e7357eb9-1b52-4701-b082-546905be68c6
0.0046853805254285,0.0877588436400042,-0.0671459491715428,-1.006791512443306,-0.3548657507003914,0.9977931907961374,-0.147826354070571,-0.1795936070344796,-14.517771357594494,25.63061928657337,21.20289795337841,4.67588655415554,0.3641170556239567,0.7963646284582484,4644.361382378473,11.891666666666667,0.1255555555555555,179.11360127230984,1.5627071784534785,86.49511369918335,1553.0,1814.0,1200.0,1528.0,1471.0,993.0,107.0,294.2,1649338555.7701006,1649338556.8712816,e7357eb9-1b52-4701-b082-546905be68c6
-0.0474229040604459,0.110177370423385,0.005237625794661,0.2843581426023464,-0.1428035516900435,-0.2707666765833808,-0.4282880848322598,-0.4472090631527758,-15.41421254440308,27.335323695406927,12.19598958165676,-1.074236225724077,0.3800224385173668,0.8081827820080701,4643.24267578125,11.967,0.15,179.11833231667495,1.1335166012968465,86.46378589819022,1553.0,1349.0,1200.0,1528.0,1471.0,993.0,107.0,294.2,1649338557.7865818,1649338558.9238293,c29d8877-8fee-47fc-85c7-ef3f9a8fe890
-0.0295406765281605,0.1165544879831247,0.0107206322157296,0.2778626870442414,-0.1398713922100614,-0.2728836169647743,-0.4213850178090914,-0.4400693192907747,-15.159742249105102,27.227870072197703,11.980784049676291,-1.0646866341538697,0.4051922902623288,0.7875198457579218,4641.567925347223,11.96888888888889,0.15,179.10926637891666,1.1221437671463446,86.65476405866305,1553.0,1349.0,1200.0,1528.0,1471.0,993.0,107.0,294.2,1649338559.0327194,1649338560.357577,c29d8877-8fee-47fc-85c7-ef3f9a8fe890
-0.0445433395036739,0.1163309601546225,0.0048694622931701,0.2764952227174378,-0.1455384807128136,-0.2711348401163405,-0.4283406796263998,-0.4533363575454786,-15.300307974037452,27.293468220920047,11.969903632602302,-1.0576012173362983,0.4052437911663589,0.8129381877138848,4653.326171875,11.967,0.1533333333333333,179.10304179985303,1.1275820206817515,86.82363213788261,1553.0,1349.0,1200.0,1528.0,1471.0,993.0,107.0,294.2,1649338560.4657342,1649338561.586835,c29d8877-8fee-47fc-85c7-ef3f9a8fe890
-0.0621494443838944,0.116620231465241,0.022541310292476,0.5693561105682365,-0.1032522708082348,-0.5530692437991815,-0.4972530129160139,-0.5117560294899652,-15.51317460902565,28.577091173666123,10.057439538788216,-2.342790656364757,0.3898700998416144,0.8286004323589871,4647.719401041667,11.95977777777778,0.15,179.12308157487783,1.03761205345983,87.15616596890396,1553.0,1264.0,1200.0,1528.0,1471.0,993.0,107.0,294.2,1649338563.7258568,1649338564.8647273,9ae0f4ae-a6a6-481a-9a2b-ea1f3f2fb24c
-0.0527612748969723,0.1277703256525558,0.0301807028637072,0.5621243283192898,-0.0980716842045944,-0.5562380805332333,-0.4899291872562658,-0.5038405119522636,-15.438712852744745,28.452770012150083,10.271964927312148,-2.3339703971727417,0.4306339526636584,0.8023948052555256,4641.00830078125,11.955666666666666,0.15,179.10092444121034,1.0231761640577923,87.31746999307272,1553.0,1264.0,1200.0,1528.0,1471.0,993.0,107.0,294.2,1649338564.9733715,1649338566.0924318,9ae0f4ae-a6a6-481a-9a2b-ea1f3f2fb24c
-0.0512491747572438,0.1265606456251909,0.0349931257348343,0.5509479375678269,-0.0943637516568406,-0.5458506074774785,-0.4821451571299227,-0.4997249689371537,-15.46658364186091,28.45037643317278,10.165826654662204,-2.2852243482483616,0.428915974783736,0.7792892305717332,4631.812879774306,11.953333333333337,0.1455555555555555,179.11457267699183,1.0271907737540096,87.4296004497669,1553.0,1264.0,1200.0,1528.0,1471.0,993.0,107.0,294.2,1649338566.2012465,1649338567.5219069,9ae0f4ae-a6a6-481a-9a2b-ea1f3f2fb24c
-0.0542339289191339,0.1323723692335806,0.0552421179940089,0.8064139324103181,-0.0564166125708243,-0.7982662236444575,-0.5417350643923798,-0.5676248552604599,-15.60239626887351,29.829109863118465,8.367933222380834,-3.418911539815498,0.4374631329328885,0.7845921447330785,4643.24267578125,11.922111111111112,0.1322222222222222,179.10136460895683,0.9363296921467802,87.55522204789168,1553.0,1178.0,1200.0,1528.0,1471.0,993.0,107.0,294.2,1649338568.140178,1649338569.3688946,2d323f5a-863c-48df-b650-b0634d05cce2
-0.0540235498127237,0.1334637109899367,0.0569908945861302,0.8125675216852764,-0.054983404624185,-0.8051692923444774,-0.5414194955822181,-0.5709646258376759,-15.483687012367923,29.84989110720476,8.351228610054179,-3.4480227154823337,0.440217762667992,0.7800439205132688,4639.054850260417,11.917666666666667,0.1366666666666666,179.09034675491569,0.9322309620304724,87.65935814761731,1553.0,1178.0,1200.0,1528.0,1471.0,993.0,107.0,294.2,1649338569.4768753,1649338570.5977905,2d323f5a-863c-48df-b650-b0634d05cce2
-0.0551937837882265,0.141431820720509,0.0601597303896968,0.8014963204588167,-0.0531688844723496,-0.803499407114375,-0.53704097848097,-0.5687819405409898,-15.501157577976649,29.68106180165304,8.280446616474999,-3.420277823190504,0.4724151360163055,0.7678432411509023,4640.72900390625,11.919,0.1288888888888889,179.0996737576823,0.913565217109624,87.7316837796485,1553.0,1178.0,1200.0,1528.0,1471.0,993.0,107.0,294.2,1649338570.7056186,1649338572.0402443,2d323f5a-863c-48df-b650-b0634d05cce2
-0.0683950753528315,0.1398276798132397,0.0670364984104273,0.9486696651818132,-0.0381793703247774,-0.9417711700398028,-0.5798794438308584,-0.6129089802743782,-15.803824203676184,30.963729936303768,7.514459262191938,-4.054409023164494,0.4576672736794942,0.7983239140891729,4628.477593315973,11.922666666666666,0.1388888888888889,179.0844834169682,0.8230467062489693,87.86915347925353,1553.0,1088.0,1200.0,1528.0,1471.0,993.0,107.0,294.2,1649338573.1477554,1649338574.2834852,a315184c-6c84-4abc-9118-1e7a522dfc80
-0.0677113431299851,0.1366719927914796,0.0705340516589492,0.960450896127082,-0.034116423007977,-0.9502652326618152,-0.5776967593409864,-0.6057560861779175,-15.633694348812408,31.016581559411883,7.430000918950546,-4.099475196132734,0.4441480444421246,0.7846144292868259,4644.921766493056,11.90033333333333,0.13,179.08151304358913,0.8270621993637511,87.92440591508938,1553.0,1088.0,1200.0,1528.0,1471.0,993.0,107.0,294.2,1649338574.3921006,1649338575.7182086,a315184c-6c84-4abc-9118-1e7a522dfc80
-0.0617812808530177,0.1345156066650233,0.0721644899777911,0.9744279592859164,-0.0300666244644947,-0.9612969956954625,-0.5803264994561321,-0.6057823843348136,-15.81813361078778,31.08550869607384,7.387383560210203,-4.1553553949614725,0.4361270721421683,0.7802644294000445,4672.77490234375,11.901666666666666,0.1266666666666666,179.09463156025498,0.8343985340103833,87.96933489944975,1553.0,1088.0,1200.0,1528.0,1471.0,993.0,107.0,294.2,1649338575.827274,1649338576.9460795,a315184c-6c84-4abc-9118-1e7a522dfc80
-0.0297945475288728,0.113526242152588,-0.0137253231463216,-0.0449408346340683,-0.1942544044276132,0.0446473031444762,-0.3513054876454486,-0.3601429304442055,-14.820599307144082,26.144760609167868,14.62731146690128,0.3692086771809885,0.4061539618889972,0.7963532867182577,4692.101996527777,11.967333333333334,0.15,179.0840629808793,1.138751704136315,88.04436225075261,1553.0,1435.0,1200.0,1528.0,1471.0,993.0,107.0,294.2,1649338578.6009846,1649338579.814441,0a5dcc45-b9be-47a6-8f6a-38d8e544ced3
-0.0491848293486808,0.1137275183408705,-0.0129864675547554,-0.0457661682256002,-0.1932814008196135,0.0425667747906465,-0.3507633567051922,-0.379072504973325,-14.845192338059569,26.11069930172544,14.257240024089334,0.3661348250678601,0.4105107453356133,0.7927409457727578,4701.82421875,11.968,0.1466666666666667,179.0935660507445,1.1439724114034704,88.01677967015436,1553.0,1435.0,1200.0,1528.0,1471.0,993.0,107.0,294.2,1649338579.923023,1649338581.049359,0a5dcc45-b9be-47a6-8f6a-38d8e544ced3
-0.0110799065379095,0.114240317493032,-0.0082397880934066,-0.0451218820817608,-0.1892973454706131,0.0413044999572784,-0.3464768809735316,-0.3711438395454119,-14.806459327107875,26.157154245224024,14.267572106630457,0.3624104258712536,0.4122907148165313,0.7748315350026741,4693.529405381944,11.969,0.15,179.0997132209975,1.14158376618467,88.01511613963652,1553.0,1435.0,1200.0,1528.0,1471.0,993.0,107.0,294.2,1649338581.1812184,1649338582.2741177,0a5dcc45-b9be-47a6-8f6a-38d8e544ced3
0.0178998204287862,0.1347391344977959,0.140629750256138,-0.0568768169398621,-0.0542076315054978,0.025000116513351,-0.1926897094279566,-0.2068114110373076,-13.799802034723776,26.069170715671905,14.427127637475564,0.3596501677276318,0.4915180591137437,0.1722911480407599,4662.88916015625,11.96977777777778,0.15,179.07494088378778,1.1371793139552002,87.959350680703,1553.0,1435.0,1200.0,1424.0,1471.0,993.0,107.0,294.2,1649338584.2058227,1649338585.3434083,b303df22-18dd-4b13-902a-8d1c139afae2
0.0180313074021517,0.1380920519607788,0.1390782041399214,-0.0604927085760312,-0.056903114344262,0.0255786591385337,-0.1943595940104013,-0.2263109299317934,-13.771826878627646,26.06559730691014,14.490514789962504,0.3690300369506796,0.5036805114474611,0.1809394122610493,4658.3837890625,11.958666666666666,0.1344444444444444,179.06731991049386,1.1473826797957818,87.93190394497826,1553.0,1435.0,1200.0,1424.0,1471.0,993.0,107.0,294.2,1649338585.451434,1649338586.5690005,b303df22-18dd-4b13-902a-8d1c139afae2
0.025644402622091,0.1305184031075582,0.1413792259261217,-0.0566269917005987,-0.0531162896799964,0.0287869410684852,-0.1908357430824008,-0.211899956822079,-13.790603761307274,26.11625408944236,14.41966480671872,0.3679490044120053,0.4757063424098159,0.1666114947132452,4655.853515625,11.967111111111112,0.15,179.06310492486605,1.1403049911320948,87.91043134804755,1553.0,1435.0,1200.0,1424.0,1471.0,993.0,107.0,294.2,1649338586.676779,1649338587.8020525,b303df22-18dd-4b13-902a-8d1c139afae2
0.0769637640978584,0.1677292124263507,0.3356380546330327,-0.0661992429616398,0.1185399410750725,-0.0092785351178149,0.0023449125837439,-0.0122501407260927,-12.334724301826844,26.288957660869936,14.420228406062638,0.3155540585353203,0.6184566010924638,-0.6016681290944725,4642.68408203125,11.963888888888889,0.1477777777777777,179.0190517225393,1.1504799927148732,87.8459224880665,1553.0,1435.0,1200.0,1304.0,1471.0,993.0,107.0,294.2,1649338589.6309483,1649338590.8731265,6f570449-99a6-420d-b8b3-5981a7f391ae
0.0855235652537451,0.1699118959300279,0.3400034214761394,-0.0706435024844686,0.1221821298661487,-0.0066487958216021,0.0082881233828227,-0.0091996430147757,-12.27385360781269,26.21570207626184,14.556481349891914,0.331272700763752,0.6258272391652162,-0.620551319468316,4631.535915798611,11.956,0.1411111111111111,179.01022863595142,1.1409831245665647,87.84176366177186,1553.0,1435.0,1200.0,1304.0,1471.0,993.0,107.0,294.2,1649338590.9813683,1649338592.102349,6f570449-99a6-420d-b8b3-5981a7f391ae
0.0612379235010502,0.1617728532204231,0.3354013781168867,-0.0669881647977447,0.120091487206674,-0.00138931724264,0.0061974806558259,-0.0207310500008275,-12.275349809157248,26.172762286933388,14.623688704443255,0.3343420611342214,0.5939732896173133,-0.6092954747872908,4626.257161458333,11.961444444444446,0.1422222222222222,179.0095258853768,1.1498722837482516,87.84277149412941,1553.0,1435.0,1200.0,1304.0,1471.0,993.0,107.0,294.2,1649338592.210739,1649338593.3310795,6f570449-99a6-420d-b8b3-5981a7f391ae
0.1496629043111175,0.1981815917994955,0.5301992968332272,-0.0606899390038119,0.2932203633248301,-0.0561536386284915,0.1933297230536022,0.1624039905948072,-10.936818461427617,26.536778175808177,14.193552683491436,0.2097900219701073,0.7364465608737437,-1.372430025238449,4628.19970703125,11.944666666666668,0.14,178.95897944987914,1.1416283402837846,87.80086600684164,1553.0,1435.0,1200.0,1166.0,1471.0,993.0,107.0,294.2,1649338595.267986,1649338596.4031942,826a1e6a-326f-4eae-929e-7c7b91677467
0.141839430274654,0.2054528205175232,0.5413493902074887,-0.0612290355825402,0.3012147701405948,-0.0607030877107487,0.2018106317903088,0.1818114654878682,-10.876766925427695,26.664223880740725,14.56255581682714,0.2022719750642866,0.7607979861531879,-1.4092072795904664,4628.19970703125,11.945,0.14,178.95336048092193,1.1398275182204285,87.7927449119185,1553.0,1435.0,1200.0,1166.0,1471.0,993.0,107.0,294.2,1649338596.5105703,1649338597.6023283,826a1e6a-326f-4eae-929e-7c7b91677467
0.1451397529284611,0.197931766582165,0.5373784843133445,-0.0580470509715767,0.2993082093055113,-0.0576788874620022,0.1993649743851135,0.170529884190427,-10.899540873300175,26.65878509477317,14.337018140966252,0.2016087843222041,0.7341059873581589,-1.3989295414899197,4636.27490234375,11.947666666666668,0.14,178.9587654372851,1.1421281891797632,87.75994786134392,1553.0,1435.0,1200.0,1166.0,1471.0,993.0,107.0,294.2,1649338597.7170331,1649338598.8664863,826a1e6a-326f-4eae-929e-7c7b91677467
-0.08972226170391,0.0718357726074298,-0.2085207412900916,-0.0120266126964071,-0.3693687651933107,0.062960402683816,-0.5569875564408377,-0.5795901726637686,-16.31012662630143,26.72909647948685,14.191528373628474,0.3294691016938346,0.2478026702034938,1.5865883403811534,4663.45556640625,11.967333333333332,0.1433333333333333,179.05143744394385,1.1502178367736045,87.86268832574916,1553.0,1435.0,1200.0,1623.0,1471.0,993.0,107.0,294.2,1649338599.7705371,1649338600.9119997,01420bcd-30c0-4fad-9eb1-4bf90621113a
-0.1130086039974884,0.0777395371916404,-0.2046550242089348,-0.012657750131727,-0.3666995793872253,0.0578455598520669,-0.5536214892303502,-0.5839292432637038,-16.193555263647273,26.649306086735283,14.232285634224011,0.3191277810767671,0.2690805020164724,1.5737714278110306,4673.6240234375,11.970333333333334,0.1488888888888888,179.09691436125763,1.148175728791444,87.86573990248833,1553.0,1435.0,1200.0,1623.0,1471.0,993.0,107.0,294.2,1649338601.0200212,1649338602.137561,01420bcd-30c0-4fad-9eb1-4bf90621113a
-0.0868558457519657,0.0846294539633432,-0.2009602401821868,-0.0158397347223953,-0.3640961370515145,0.0541902222858653,-0.5506893290780681,-0.5760794693288421,-16.18264749166698,26.56483139245956,14.28225248852594,0.3177289654655672,0.295026388827127,1.5619328291953598,4681.28173828125,11.969555555555557,0.1477777777777777,179.10866076881024,1.1383498257662437,87.87054228438477,1553.0,1435.0,1200.0,1623.0,1471.0,993.0,107.0,294.2,1649338602.2468498,1649338603.370937,01420bcd-30c0-4fad-9eb1-4bf90621113a
-0.1646829839715559,0.0437633061690635,-0.3976253188917007,0.0393716416094111,-0.5393945958183584,0.0517708622003277,-0.7658809700892323,-0.7813701415719061,-17.761277197169957,27.3057966501338,13.887564585026238,0.1820107849365087,0.1371720969156646,2.368733401394073,4682.419108072917,11.950111111111111,0.14,179.11392456793055,1.0986340544377162,87.82896844072671,1553.0,1435.0,1200.0,1712.0,1471.0,993.0,107.0,294.2,1649338605.1230314,1649338606.2332,fb1a9957-bb3b-40ef-973e-d80b0f807dae
-0.1591473823839566,0.0503508030108473,-0.3818863263867252,0.0343488396195116,-0.5260749627696585,0.0509293456401333,-0.7486035757072458,-0.7720477115869032,-17.559261931051143,27.205534174709427,14.155083155230308,0.1917133735931097,0.1596928727522071,2.3058510545967312,4683.83935546875,11.94877777777778,0.14,179.1254372312316,1.1106561360143234,87.80522442644204,1553.0,1435.0,1200.0,1712.0,1471.0,993.0,107.0,294.2,1649338606.3552487,1649338607.4643934,fb1a9957-bb3b-40ef-973e-d80b0f807dae
-0.1588844085383529,0.0509687917263659,-0.3910509694849628,0.0321661560192629,-0.535121268351475,0.0522705126558681,-0.7580837898642447,-0.7833030006401609,-17.61309781928052,27.207409381876964,14.074625172217214,0.19916692224606,0.1627926177935558,2.3440664136548097,4685.830891927083,11.949,0.14,179.13097272009892,1.1089312998054837,87.75779179829591,1553.0,1435.0,1200.0,1712.0,1471.0,993.0,107.0,294.2,1649338607.5725508,1649338608.6908047,fb1a9957-bb3b-40ef-973e-d80b0f807dae
-0.2129387036992864,0.0231198529288414,-0.5466658270508463,0.0912826941759286,-0.6737874642556424,0.0333232412958976,-0.9348681000737616,-0.9552354425933942,-18.8929052261317,27.92476507439038,13.95917547285747,0.0195816779437536,0.0512920578050211,2.9925545226910284,4681.28173828125,11.934222222222225,0.1288888888888889,179.1177039392713,1.1020967824774028,87.68031165017112,1553.0,1435.0,1200.0,1801.0,1471.0,993.0,107.0,294.2,1649338609.806547,1649338610.9500992,c81c4b30-10e5-40b3-b86c-e25460bf8b07
-0.2013284037225498,0.0284713723476611,-0.5313475914986217,0.0880349662138544,-0.6610989676224179,0.0297862419592686,-0.9202598900672544,-0.9515801026106764,-18.79254118496902,27.95554687398928,13.890987849543112,0.0199661000823545,0.0726289838136414,2.9341733508541807,4677.876139322917,11.927222222222222,0.1311111111111111,179.12232418278987,1.0954522297856133,87.6353265064776,1553.0,1435.0,1200.0,1801.0,1471.0,993.0,107.0,294.2,1649338611.0581362,1649338612.1736507,c81c4b30-10e5-40b3-b86c-e25460bf8b07
-0.2222742790090994,0.0261046069960677,-0.54404923565855,0.0839457217656707,-0.6724331479410068,0.0371758093087213,-0.9315414778480272,-0.9562873391673716,-18.923726302588328,27.913224721975823,13.985319785145732,0.044831764262517,0.063542148463439,2.9827236725737736,4671.07666015625,11.934333333333331,0.13,179.12939266967092,1.09407165408369,87.6189097673525,1553.0,1435.0,1200.0,1801.0,1471.0,993.0,107.0,294.2,1649338612.2821827,1649338613.403082,c81c4b30-10e5-40b3-b86c-e25460bf8b07
-0.0552858246539934,0.0957663995650924,-0.0751666542401093,-0.0555487986093029,-0.2212749780179694,0.074544404011125,-0.3743126759083398,-0.4059221486036871,-15.005341318817258,22.81594657265096,14.7308703703778,0.4351174574558529,0.3372880330341455,0.94880603501067,7565.248046875,11.661888888888887,7.548888888888888,179.01280134053883,0.8340147271824913,76.37674168913225,1553.0,1435.0,1350.0,1528.0,1471.0,993.0,107.0,294.2,1649338618.1569831,1649338619.344169,dbf5eaa8-0fb2-42cf-bea8-7a4cf8c1519f
-0.0445301907522928,0.0895207689238123,-0.0863298979109095,-0.0577446309807675,-0.2299531185089466,0.0805533581547365,-0.3847264453160733,-0.4108923567061592,-15.250595105928582,22.813425887311183,14.346190245034387,0.4528162999130558,0.3185709981706235,0.9891816848154744,7565.248046875,11.661,7.586666666666667,178.9869042988458,0.754763206256138,70.68162371178852,1553.0,1435.0,1350.0,1528.0,1471.0,993.0,107.0,294.2,1649338619.4524078,1649338620.5690813,dbf5eaa8-0fb2-42cf-bea8-7a4cf8c1519f
-0.0543977818878644,0.0964202943263805,-0.0775217881287679,-0.067685551443372,-0.2247619114902342,0.0804395713648584,-0.3734433446453346,-0.4097539826592531,-14.912855633350588,22.707462014095427,14.066729046821914,0.4748464862887989,0.3463153640933788,0.9546731226150166,7557.842176649306,11.656111111111109,7.644444444444444,178.96500823018653,0.7338973696546703,66.21499570112182,1553.0,1435.0,1350.0,1528.0,1471.0,993.0,107.0,294.2,1649338620.6780665,1649338621.830014,dbf5eaa8-0fb2-42cf-bea8-7a4cf8c1519f
0.153094713926636,0.46820319965635,-0.0697099450640216,-0.2556851201066318,-0.3033097044018683,-0.1011353306121428,-0.449404895708691,-0.4634345579577291,-15.060840546503492,21.98882661712401,15.176389220874372,0.4866318551926987,1.7555696243512977,1.2042566193658923,7545.26953125,11.625666666666667,7.649999999999999,178.6764646119696,0.7486126031215907,61.3283664569226,1658.0,1435.0,1350.0,1528.0,1551.0,993.0,107.0,294.2,1649338622.707957,1649338623.84801,ed30ed8a-5c46-4df8-8b17-a8493f5f9b9e
0.1580386235786839,0.46485028240607,-0.0760476169521724,-0.2558692018828605,-0.3091871725185429,-0.0970592345370027,-0.4543751040352656,-0.4772932872349703,-15.014865223270332,21.99840393880687,15.220789436580857,0.4959847666419824,1.7418962783076086,1.227660931619864,7538.63330078125,11.623,7.66,178.70561585934718,0.7703438460352401,59.58902918729244,1658.0,1435.0,1350.0,1528.0,1551.0,993.0,107.0,294.2,1649338623.9568503,1649338625.0802295,ed30ed8a-5c46-4df8-8b17-a8493f5f9b9e
0.1601161175052418,0.4745408706868991,-0.067606153578387,-0.2554878896144265,-0.3046245742146666,-0.1065262963817251,-0.4500623306651649,-0.4797783913158454,-14.905848438765991,22.143892916659528,15.32140037852986,0.4753065743280988,1.777069233408787,1.205133728764504,7538.63330078125,11.62188888888889,7.653333333333332,178.726215709884,0.8122602307949487,56.77971584287808,1658.0,1435.0,1350.0,1528.0,1551.0,993.0,107.0,294.2,1649338625.188596,1649338626.305192,ed30ed8a-5c46-4df8-8b17-a8493f5f9b9e
0.3867733305427805,0.8851088724775589,-0.0592304337113444,-0.4761756476612064,-0.3985062816870319,-0.2951969575835805,-0.5314790784145899,-0.5651791977656516,-14.594390385034671,21.663952193005137,16.521463724396014,0.5467394672150515,3.331802531787212,1.4873582111271764,7551.91748046875,11.586666666666666,7.62,178.39645417675578,0.9529143163730214,53.1116485059423,1767.0,1435.0,1350.0,1528.0,1630.0,993.0,107.0,294.2,1649338628.2387822,1649338629.3762867,3ae1119d-cc87-456a-8065-5e6977d1f632
0.4008424344230901,0.8863579985207712,-0.0586781884415341,-0.4793050381253954,-0.3950218764931491,-0.296617016978325,-0.5279420781427305,-0.5429184477781416,-14.644847615711678,21.28923074843315,16.104704390414064,0.5480591339928708,3.340952314571245,1.4764780294250772,7551.91748046875,11.590444444444444,7.627777777777778,178.37215843496813,1.014535773172282,51.94499679528086,1767.0,1435.0,1350.0,1528.0,1630.0,993.0,107.0,294.2,1649338629.4847076,1649338630.6059573,3ae1119d-cc87-456a-8065-5e6977d1f632
0.3818557185272729,0.8916437739653243,-0.0528270184005671,-0.4868129454983952,-0.3938779397179123,-0.2960647716562372,-0.524076360406175,-0.5480332926952477,-14.554982795568383,21.52953266797445,15.970764928803124,0.5681443271533773,3.3626276396161496,1.4617892587641703,7551.91748046875,11.59422222222222,7.626666666666665,178.40293830300783,1.0705583128370653,51.1527950276672,1767.0,1435.0,1350.0,1528.0,1630.0,993.0,107.0,294.2,1649338630.7140968,1649338631.8333845,3ae1119d-cc87-456a-8065-5e6977d1f632
0.4913054568940097,1.071623115656468,-0.0273711416679916,-0.5899250506762005,-0.4208459212528426,-0.3968495456212967,-0.5507550726395714,-0.566730744011505,-14.770616706401327,22.18482802316687,13.205085175967476,0.5793252845542352,4.078018138544773,1.5183591957069456,7561.5419921875,11.529555555555554,7.597777777777777,178.21855355181378,1.15481646321776,49.48339775677313,1886.0,1435.0,1350.0,1528.0,1710.0,993.0,107.0,294.2,1649338633.7674117,1649338634.9058974,eee0f214-716c-4ec8-9ddd-d756e1885307
0.4946583741343185,1.0690854174177218,-0.0359966866250558,-0.5925810882831577,-0.42722304023901,-0.3959554341762172,-0.5553045228469596,-0.5712933423224824,-14.631802321004418,21.88695896616545,12.583519702549063,0.5848925324388682,4.072801802114824,1.5442923910785729,7558.5771484375,11.533888888888889,7.5744444444444445,178.22278219781992,1.2096435181923466,49.02686753319452,1886.0,1435.0,1350.0,1528.0,1710.0,993.0,107.0,294.2,1649338635.0234995,1649338636.1360972,eee0f214-716c-4ec8-9ddd-d756e1885307
0.4909504421299246,1.0633525861713058,-0.0303821931501267,-0.5805894735084216,-0.4228839695374294,-0.3954820809744002,-0.5543052216202061,-0.5876371773740204,-14.7389895489963,22.37234081090799,13.441721250850282,0.5624861414696344,4.043340361847408,1.5296541749877293,7558.5771484375,11.531777777777778,7.610000000000001,178.23746103325618,1.2422922137379286,48.663987551145766,1886.0,1435.0,1350.0,1528.0,1710.0,993.0,107.0,294.2,1649338636.2443342,1649338637.3639553,eee0f214-716c-4ec8-9ddd-d756e1885307
-0.3148016666006535,-0.3675410960764014,-0.0898405999966966,0.1845332456020942,-0.1317980922106452,0.2990978301855572,-0.2951838088968075,-0.3173130680182374,-15.284757673262575,24.47242922993286,13.77701173914695,0.4081103751041137,-1.4204264943713292,0.6780990585016352,7561.5419921875,11.645888888888887,7.66,179.21939179563446,1.268040580236865,47.88217563962457,1449.0,1435.0,1350.0,1528.0,1386.0,993.0,107.0,294.2,1649338639.2982178,1649338640.442624,5a0d1cd7-aace-407e-8424-34c5ea6782a6
-0.3161165364245586,-0.3727742781373075,-0.0871845632198958,0.1883989621434624,-0.1242507400688259,0.3000576849462352,-0.2892142999462224,-0.312329711823802,-15.410113888609292,24.153955082432145,13.7283147579964,0.3994973730926662,-1.4390482432486236,0.6550745524211571,7571.93115234375,11.648888888888887,7.633333333333334,179.29327774643605,1.284460900468072,47.605971896508144,1449.0,1435.0,1350.0,1528.0,1386.0,993.0,107.0,294.2,1649338640.5554492,1649338641.6677616,5a0d1cd7-aace-407e-8424-34c5ea6782a6
-0.3132632689218096,-0.3728794677311138,-0.0904717374316469,0.1854799516730664,-0.1301545050502421,0.3024375988119219,-0.2938294929734476,-0.3116065332099094,-15.353249020755666,24.38455267622232,13.636425547682938,0.4128088864147214,-1.4388759178482795,0.6739447272433611,7571.93115234375,11.648555555555555,7.636666666666666,179.2830992467529,1.2874333727073335,47.383180612156174,1449.0,1435.0,1350.0,1528.0,1386.0,993.0,107.0,294.2,1649338641.776638,1649338642.895399,5a0d1cd7-aace-407e-8424-34c5ea6782a6
-0.5495848382990592,-0.8135976105946354,-0.1128376710120639,0.4306636750759554,-0.0534318584555276,0.5070838909668577,-0.233937173896713,-0.2653099676006603,-15.749036132753396,26.29985511753337,13.560213483659492,0.3309737393813012,-3.1199329213947737,0.4623115410121028,7571.93115234375,11.600222222222222,7.622222222222222,179.41321283262184,1.3141715237375562,47.02793640214455,1342.0,1435.0,1350.0,1528.0,1293.0,993.0,107.0,294.2,1649338644.6230166,1649338645.7612789,c5f02109-3d41-47ad-bc6c-d22ebcd4d4b4
-0.546718421754899,-0.8014219121196793,-0.1112203812885539,0.4254962378736567,-0.0526955314406644,0.5009697477685351,-0.2332665903001698,-0.2579861425766056,-15.765618717649584,26.07615267793816,13.722041759442543,0.3275059443831998,-3.0748486059961,0.4598857366678535,7571.93115234375,11.600333333333332,7.62,179.4258820746223,1.31700614710685,46.96564887146357,1342.0,1435.0,1350.0,1528.0,1293.0,993.0,107.0,294.2,1649338645.870619,1649338646.989703,c5f02109-3d41-47ad-bc6c-d22ebcd4d4b4
-0.5455613361140529,-0.811257141551279,-0.1104446081344418,0.429782712502054,-0.051341215658452,0.5075440952929318,-0.2317939361527796,-0.2552512131698742,-15.782406537203004,26.28811228056701,13.853924394943414,0.3340664509547541,-3.113261730742209,0.4538216966690633,7571.93115234375,11.592666666666666,7.621111111111111,179.43009857806993,1.311670642858176,46.92928001140803,1342.0,1435.0,1350.0,1528.0,1293.0,993.0,107.0,294.2,1649338647.099593,1649338648.2236526,c5f02109-3d41-47ad-bc6c-d22ebcd4d4b4
-0.7653944682460763,-1.2068227738002166,-0.1243559296563239,0.6504441124725561,0.0225150128444695,0.6916389737996355,-0.1709154665092439,-0.2019726900030012,-15.967105187585805,28.02974442377976,13.972561727941372,0.2607729055670471,-4.624638089640367,0.2389061993903192,7571.188585069444,11.496666666666666,7.59,179.5698670157856,1.306392863194362,46.79697772936507,1227.0,1435.0,1350.0,1528.0,1189.0,993.0,107.0,294.2,1649338650.1572332,1649338651.2906506,a6a481f1-e215-4b7c-8708-00f2ea8f0801
-0.7677875319009212,-1.2002484202746353,-0.1184784620507852,0.6443431180091015,0.0239876668451837,0.6934666423992992,-0.1663002737465636,-0.1806455027227683,-15.838663044667229,28.21197222903852,14.3867404325123,0.2802736154713058,-4.603433350494049,0.223658903879332,7570.446017795139,11.50477777777778,7.597777777777777,179.58048264757562,1.2987670637077484,46.801224589209,1227.0,1435.0,1350.0,1528.0,1189.0,993.0,107.0,294.2,1649338651.3986037,1649338652.5245757,a6a481f1-e215-4b7c-8708-00f2ea8f0801
-0.7787141033997296,-1.2142912394597216,-0.1282084978850696,0.6506281942024569,0.019096351806096,0.7012638185144543,-0.1722040388358592,-0.2003685488823333,-15.905184843535595,28.121499671340384,14.30319605300898,0.2824862720814286,-4.65628337788176,0.250218570143068,7565.248046875,11.507666666666667,7.603333333333334,179.5860894739743,1.304941412421832,46.83042213009098,1227.0,1435.0,1350.0,1528.0,1189.0,993.0,107.0,294.2,1649338652.6333342,1649338653.7484877,a6a481f1-e215-4b7c-8708-00f2ea8f0801
-0.0458845065305615,0.1048652972309745,-0.0776254605408759,-0.067698194442624,-0.2241808402089063,0.0726904378644298,-0.3758247762706719,-0.3880399174713995,-15.065470436785272,22.542153659826536,14.132974049447924,0.4562943943254454,0.3784744826032199,0.958489937167054,7560.060926649306,11.65222222222222,7.666666666666667,179.12269453082484,1.2758438697781604,46.854764165383,1553.0,1435.0,1350.0,1528.0,1471.0,993.0,107.0,294.2,1649338654.659229,1649338655.7977192,8a888909-690d-4481-8b53-77ab41e74dcb
-0.0368119058013941,0.1046286207026135,-0.0759555760540863,-0.068605454498165,-0.2236285948993747,0.0778184293683017,-0.3748517725654144,-0.3967969512505416,-15.132698048413726,22.701838726162908,14.718486594302014,0.471065446455343,0.3730935123776163,0.9547528421600892,7571.93115234375,11.653333333333332,7.66,179.10183209746,1.3126343042874804,46.89202588294505,1553.0,1435.0,1350.0,1528.0,1471.0,993.0,107.0,294.2,1649338655.906324,1649338657.0247116,8a888909-690d-4481-8b53-77ab41e74dcb
-0.043859607208929,0.1033400484923462,-0.0804655790874348,-0.0634774628329267,-0.2275337581331216,0.0750966492469052,-0.3822544899398553,-0.4006363710560536,-15.287766961564005,22.837008803990017,14.776658272142695,0.4539844561693426,0.3679275653967738,0.9765665100982376,7571.93115234375,11.655666666666669,7.664444444444445,179.1159296079069,1.3155098495019577,46.916292406701245,1553.0,1435.0,1350.0,1528.0,1471.0,993.0,107.0,294.2,1649338657.1333387,1649338658.2575817,8a888909-690d-4481-8b53-77ab41e74dcb
-0.0284887808430857,0.0939255821121098,-0.1060003485249446,-0.3658054679031934,-0.2806282001186767,0.3737298248846988,-0.3202189302948692,-0.3360368144585515,-15.101353438675355,21.984546629019125,16.490968191955435,1.8004755555791254,0.3516941408841402,0.994472463351406,7571.93115234375,11.645,7.633333333333334,179.08926758502685,1.3963225726172697,47.01562536562056,1553.0,1522.0,1350.0,1528.0,1471.0,993.0,107.0,294.2,1649338660.1796887,1649338661.3249424,1ca0c9cd-56fc-4f2e-8481-a2f1c79e9b07
-0.0459896960674578,0.0956217639023987,-0.1029761482228981,-0.3662262262612404,-0.2766046985325318,0.371139531923147,-0.317089540108485,-0.3466609628501716,-15.170882805571011,21.860783308274453,16.329569573446047,1.794873364995234,0.3602198611058734,0.9803904876020526,7571.93115234375,11.64922222222222,7.676666666666667,179.09335355597034,1.3773501095140048,47.04420629220248,1553.0,1522.0,1350.0,1528.0,1471.0,993.0,107.0,294.2,1649338661.4328852,1649338662.5548356,1ca0c9cd-56fc-4f2e-8481-a2f1c79e9b07
-0.0137758950462106,0.0963950083758366,-0.0951587421429445,-0.3613313703514911,-0.2700237751642111,0.3678270721564365,-0.3110375988568059,-0.3260195296562156,-15.109429565303191,21.994186884588338,16.658408918190307,1.777745185872709,0.3596657350322776,0.9527428767702044,7558.5771484375,11.65011111111111,7.683333333333333,179.08040807076344,1.361401605944058,46.993286473030125,1553.0,1522.0,1350.0,1528.0,1471.0,993.0,107.0,294.2,1649338662.663003,1649338663.9879894,1ca0c9cd-56fc-4f2e-8481-a2f1c79e9b07
-0.0196660054498275,0.0869041783990409,-0.1347302516699391,-0.7186113871315375,-0.3463190966684903,0.721486511381987,-0.252989637004686,-0.2848489323761335,-14.98369962303152,21.503956984929285,18.91726022670402,3.373604523940853,0.3446312050615471,1.0271462370405104,7551.91748046875,11.635444444444444,7.67,179.05828736477147,1.4538653511229418,47.03975073213391,1553.0,1613.0,1350.0,1528.0,1471.0,993.0,107.0,294.2,1649338664.6024525,1649338665.83721,5470732d-e7cb-4fc6-a2e0-490f959da506
-0.0306846131390316,0.095556020426857,-0.1242507400359742,-0.7226611872269754,-0.3369440746483866,0.7181467428581715,-0.2431544110154672,-0.2688601156643969,-15.02102882317227,21.38268931206004,19.19716626577474,3.374978714676475,0.3760251852917632,0.9875189368740644,7551.91748046875,11.629,7.663333333333333,179.06778891681688,1.4595025694918276,47.0767931247326,1553.0,1613.0,1350.0,1528.0,1471.0,993.0,107.0,294.2,1649338665.950345,1649338667.0698135,5470732d-e7cb-4fc6-a2e0-490f959da506
-0.025648662368556,0.0872460444954534,-0.1315877130335803,-0.7208729637805321,-0.3446623606451156,0.7259176215882357,-0.2491107711359594,-0.2728441709949267,-14.9070101542525,21.582703730677306,19.32417539088789,3.389445350347499,0.342243146912529,1.015700163829222,7560.0595703125,11.632555555555555,7.64777777777778,179.07382528622333,1.4687745157162182,47.084942299322336,1553.0,1613.0,1350.0,1528.0,1471.0,993.0,107.0,294.2,1649338667.2025385,1649338668.1572957,5470732d-e7cb-4fc6-a2e0-490f959da506
-0.0049131678982671,0.0887844419425633,-0.1544138513920275,-1.0862885829739577,-0.4079207500990916,1.0765801738808518,-0.1768849751109935,-0.1987118130953994,-14.858775969512532,21.160069053326502,21.74682630396273,4.998191214934164,0.3697360500557737,1.0307470440747029,7565.248046875,11.613666666666669,7.655555555555556,179.08134152995,1.5622291007854792,47.163796833290135,1553.0,1710.0,1350.0,1528.0,1471.0,993.0,107.0,294.2,1649338670.2245655,1649338671.3692226,abba38ab-4e3b-46f7-9ccb-dac4a029dbf9
-0.0066487958560981,0.0885609141053455,-0.1574774978740514,-1.0866830441583135,-0.4119179545968145,1.079170466911271,-0.1825126176131704,-0.1959505870044347,-15.035246464069967,21.38018382770205,21.99696475645123,5.0061594180793785,0.36778780951448,1.0484885757408966,7571.188585069444,11.600888888888887,7.633333333333334,179.09384381177074,1.5911527344805962,47.18633076572687,1553.0,1710.0,1350.0,1528.0,1471.0,993.0,107.0,294.2,1649338671.4830754,1649338672.597901,abba38ab-4e3b-46f7-9ccb-dac4a029dbf9
-0.0108300813542392,0.0827097443391073,-0.1583979066827782,-1.0799114608942817,-0.4122466720829872,1.0828258042935917,-0.1833672829633758,-0.2037609129836192,-15.011959430844865,21.52693509630631,22.57894739360354,5.000129911623095,0.3396298610397483,1.051536053379152,7567.475748697917,11.611333333333333,7.633333333333332,179.09386657906796,1.59411528160122,47.20078724056015,1553.0,1710.0,1350.0,1528.0,1471.0,993.0,107.0,294.2,1649338672.7126954,1649338673.8200696,abba38ab-4e3b-46f7-9ccb-dac4a029dbf9
0.00578987101359,0.0822495399663282,-0.1645251997425519,-1.2953793207918023,-0.447156468354458,1.2850264504510986,-0.1378859390299371,-0.1614747023238497,-14.86896553373913,21.76087090421112,23.2010582291158,5.941961301813013,0.3575222216580231,1.0416173827809896,7571.93115234375,11.570555555555558,7.62,179.09022684715026,1.6479219703468304,47.27489706978452,1553.0,1814.0,1350.0,1528.0,1471.0,993.0,107.0,294.2,1649338675.751113,1649338676.891132,74062ba5-ec97-4dee-820a-766317642a08
-0.0106722969593545,0.0886003601819595,-0.156412453525188,-1.2850970314417018,-0.4410423232628072,1.2696161785493134,-0.1343620882018861,-0.1573328623898509,-14.695939096589305,21.864955847903047,23.28354827252034,5.8853322363955405,0.3786360131343614,1.0182671513354284,7571.93115234375,11.571666666666664,7.643333333333334,179.07387689209705,1.672096476276706,47.29542178824041,1553.0,1814.0,1350.0,1528.0,1471.0,993.0,107.0,294.2,1649338676.9995472,1649338678.1190758,74062ba5-ec97-4dee-820a-766317642a08
-0.0006529902720225,0.0850765096305633,-0.1495356847251143,-1.2731185575410031,-0.4334029288377795,1.261043228340934,-0.1307067503175153,-0.1457357112727272,-14.73065053099528,22.016610892981817,23.181009887224025,5.840361108949392,0.3655376211238054,0.9927313089764672,7571.93115234375,11.562222222222225,7.614444444444445,179.0954724324328,1.6432312193546512,47.30374133810444,1553.0,1814.0,1350.0,1528.0,1471.0,993.0,107.0,294.2,1649338678.2275658,1649338679.3511531,74062ba5-ec97-4dee-820a-766317642a08
-0.0528533157640047,0.1005130788403878,-0.0526955314044596,0.3285640565344813,-0.1624871515066609,-0.30375676009147,-0.4635265987359184,-0.4829603773004393,-15.36190106516719,23.995401757191143,11.628352754956628,-1.2731766424311153,0.3392641820028321,0.9639589305464052,7566.083435058594,11.653625,7.66,179.0719223196296,1.0872295120826296,47.37629407392551,1553.0,1349.0,1350.0,1528.0,1471.0,993.0,107.0,294.2,1649338681.1212482,1649338682.2113502,2d29f5b3-c6a4-425e-a2d0-c73fc674992d
-0.0845548237497103,0.0960819682645799,-0.0547072820472126,0.3340733598750047,-0.1637231291026349,-0.3012059126332564,-0.466511353535598,-0.4962011174727152,-15.450960508788324,24.14188242247828,12.074167377956233,-1.278975084696894,0.3185205571341982,0.9726527928258668,7571.93115234375,11.655555555555557,7.665555555555557,179.082789530054,1.0998970702517377,47.48517203248244,1553.0,1349.0,1350.0,1528.0,1471.0,993.0,107.0,294.2,1649338682.3202877,1649338683.4512298,2d29f5b3-c6a4-425e-a2d0-c73fc674992d
-0.043701822824433,0.1044576876544985,-0.0506706321416837,0.3268152800358866,-0.1612248765883664,-0.3046640202681276,-0.4628691637699761,-0.4778718298441267,-15.44500347325312,24.018519587236,11.83027075025219,-1.271026133245816,0.3532015193720271,0.9592226072445068,7571.93115234375,11.657,7.652222222222223,179.04685059246123,1.0899193852449818,47.54696816899813,1553.0,1349.0,1350.0,1528.0,1471.0,993.0,107.0,294.2,1649338683.5667465,1649338684.6703084,2d29f5b3-c6a4-425e-a2d0-c73fc674992d
-0.0773756352981152,0.1038791450324961,-0.0134992667662548,0.6848673958908863,-0.0944820899822319,-0.6481080509766605,-0.5310188739408042,-0.5538187198758697,-15.71019473121159,25.62474379187668,9.661255147195522,-2.838449081756492,0.3304323495573701,0.9138440693471226,7568.960883246527,11.639222222222225,7.645555555555556,179.0330232539415,0.9584237058543156,47.73066420945085,1553.0,1264.0,1350.0,1528.0,1471.0,993.0,107.0,294.2,1649338686.813918,1649338688.1630802,7a1f71ba-2e30-436d-bff0-e8ebf1376d43
-0.0737071488702873,0.1080604303686301,-0.0163919799867924,0.6772805988958643,-0.0976114798370338,-0.6460437049509866,-0.5334513834018761,-0.563338379369374,-15.808907076845376,25.523926033892423,9.52530113926132,-2.817579997395825,0.3487673351274801,0.9257328818041204,7571.93115234375,11.638444444444442,7.631111111111112,179.04047423141606,0.9520158619059492,47.81842872519093,1553.0,1264.0,1350.0,1528.0,1471.0,993.0,107.0,294.2,1649338688.2757702,1649338689.3843508,7a1f71ba-2e30-436d-bff0-e8ebf1376d43
-0.0773624865910214,0.1060092337870743,-0.0215725664267154,0.6736910051697562,-0.1033837578028618,-0.6397060311685392,-0.5362652051847244,-0.5639037731118134,-15.679036423934647,25.52514068848942,9.639089388172044,-2.7954075486378867,0.3392599607584388,0.9446340678712464,7571.93115234375,11.629222222222223,7.64777777777778,179.03095598335273,0.9516024931655558,47.86141831528195,1553.0,1264.0,1350.0,1528.0,1471.0,993.0,107.0,294.2,1649338689.4926813,1649338690.612965,7a1f71ba-2e30-436d-bff0-e8ebf1376d43
-0.0772835944116242,0.118382156730502,0.0103261712386706,0.9914949656350984,-0.0483696102354479,-0.9620596196292468,-0.6048619743998976,-0.622152516114742,-15.962682833559589,27.05032908782211,6.982926583044698,-4.225534161407509,0.3741346342300374,0.923601552506633,7576.394368489583,11.612666666666666,7.63,179.0407686884603,0.8563476137124837,47.98863590094279,1553.0,1178.0,1350.0,1528.0,1471.0,993.0,107.0,294.2,1649338692.750264,1649338693.8902442,0f0395eb-9801-473c-89e4-ec265f53950a
-0.0872897527395622,0.117672127144954,0.0101815355883902,0.9833033284516578,-0.0484879485054036,-0.9513302771734916,-0.6028107771002457,-0.623125520255202,-16.09539537873608,27.0337610740528,7.344993184082434,-4.183071691640839,0.3702010269688984,0.9213063349919096,7571.93115234375,11.603666666666667,7.633333333333332,179.03144016787388,0.832500150520992,48.04049828622061,1553.0,1178.0,1350.0,1528.0,1471.0,993.0,107.0,294.2,1649338693.9981797,1649338695.118165,0f0395eb-9801-473c-89e4-ec265f53950a
-0.0913001052876828,0.1197101750244065,0.0128244235894877,0.9848680232055592,-0.0468969561795123,-0.9554852676676624,-0.6009173642104337,-0.6195622217959676,-15.979846283259432,27.05259491632676,7.259707076091525,-4.195637058710358,0.3777582231717879,0.9130540935018568,7571.93115234375,11.598444444444445,7.639999999999999,179.02810399991927,0.831803791390768,48.05760183881223,1553.0,1178.0,1350.0,1528.0,1471.0,993.0,107.0,294.2,1649338695.2266304,1649338696.3520367,0f0395eb-9801-473c-89e4-ec265f53950a
-0.0926149749958009,0.1152790644723183,0.0290367662153839,1.115513461859111,-0.0241365622978009,-1.07562498371291,-0.6272147655407171,-0.6419807572896414,-16.132917663234053,28.230499151675385,6.614000794768171,-4.75187538890363,0.3529076473164829,0.8965044573952845,7571.93115234375,11.580666666666666,7.620000000000001,179.0260792282853,0.8089385592053867,48.11875441972612,1553.0,1088.0,1350.0,1528.0,1471.0,993.0,107.0,294.2,1649338697.2578366,1649338698.3949058,f601eab4-c90a-46ac-be21-651611212ce0
-0.0814648800265375,0.1224451037866516,0.031193152384738,1.1130941017410592,-0.0248860380467988,-1.0772817200191962,-0.6276749700223739,-0.6513820779822224,-16.12671618189178,28.36609585180543,7.064527771601864,-4.74905961409942,0.3761846279014256,0.8966711042096921,7571.93115234375,11.593555555555556,7.612222222222223,179.02702027657097,0.7810369281387346,48.13009405156814,1553.0,1088.0,1350.0,1528.0,1471.0,993.0,107.0,294.2,1649338698.502833,1649338699.624113,f601eab4-c90a-46ac-be21-651611212ce0
-0.0874080910102042,0.1231551333688197,0.0251841981455041,1.106809025345861,-0.0310133306766109,-1.0782021297942632,-0.6314749446438741,-0.653959223380491,-15.982481217073344,28.20039717763265,6.173833586226699,-4.738417325194562,0.386111092629969,0.9175613512317716,7571.93115234375,11.580444444444446,7.615555555555555,179.02263681294366,0.7748299759435346,48.163595749992105,1553.0,1088.0,1350.0,1528.0,1471.0,993.0,107.0,294.2,1649338699.7319927,1649338700.8532677,f601eab4-c90a-46ac-be21-651611212ce0
-0.0513412156220423,0.1002501049193141,-0.0804787277896263,-0.0565875456612099,-0.2257981300389639,0.0699818064555709,-0.3820046646758588,-0.4118259137804824,-15.216462225157557,22.75576423914785,14.522729327625582,0.426404936864279,0.3572337790736059,0.9732763400249904,7588.321723090277,11.65522222222222,7.686666666666667,179.00312068575522,1.123423668705814,48.22407669563761,1553.0,1435.0,1350.0,1528.0,1471.0,993.0,107.0,294.2,1649338702.6097214,1649338703.7167614,2e1895f6-fd24-4e4c-8701-30a01b2112e7
-0.0344188429822543,0.0954639795553762,-0.0906558191969178,-0.0576131439996537,-0.2360015194849073,0.0717042856562016,-0.3900648170285934,-0.4057643639373881,-15.008315774215305,22.74640520323298,13.895842322090443,0.4320251290169943,0.342846714378421,1.0111992805983925,7598.7822265625,11.657000000000002,7.634444444444445,179.00853626685708,1.1385440118388968,48.15993363023212,1553.0,1435.0,1350.0,1528.0,1471.0,993.0,107.0,294.2,1649338703.8251047,1649338704.9552753,2e1895f6-fd24-4e4c-8701-30a01b2112e7
