raw_voltage_G-,raw_voltage_G0,raw_voltage_G1,raw_voltage_G2,raw_voltage_G3,raw_voltage_G4,raw_voltage_G5,raw_voltage_G6,load_x,load_y,load_z,load_l,load_m,load_n,rpm,voltage,current,roll,pitch,yaw,aileron1_pwm,elevator_pwm,throttle_pwm,rudder_pwm,aileron2_pwm,pbaro,pdiff,Tt,sample_start_time,sample_end_time,uid
0.0784364180854882,0.1946971874343668,0.1759865933697587,-0.0977298181015748,-0.0436623767434761,0.0038044178849578,-0.1474055957085029,-0.1631840324581122,-11.15934656291654,25.358562841489203,14.722444249956247,0.4026010068843123,0.7023505961369955,0.0547093579429235,4648.279296875,11.965,0.16,178.89664259005414,0.7713064758213888,91.49754880076014,1553.0,1435.0,1200.0,1528.0,1471.0,993.0,107.0,294.2,1649339148.097072,1649339149.172392,abfdbee6-efeb-4e55-93ee-70710ec8dfa0
0.066431658472471,0.1991545952779984,0.1704772898395253,-0.1023976055040496,-0.0503024685676409,0.0029760500121956,-0.153716970383621,-0.1856551563817512,-11.170108422235444,25.34763012286466,14.569292155804131,0.4108923070121226,0.7207273972333946,0.080528615617047,4655.853515625,11.966555555555557,0.1544444444444444,178.89882825058854,0.787069010890028,90.72046755414908,1553.0,1435.0,1200.0,1528.0,1471.0,993.0,107.0,294.2,1649339149.2811496,1649339150.403702,abfdbee6-efeb-4e55-93ee-70710ec8dfa0
0.0715333526006163,0.1925276526405054,0.1769332994702865,-0.0945741308056795,-0.043228469748982,0.0047642727410709,-0.1479183949047838,-0.1708760207012197,-11.203027451928836,25.531143463589046,14.969473109961728,0.3988480589363113,0.6920076839571412,0.0535702035647237,4658.3837890625,11.964,0.15,178.91589006313524,0.8006394169030961,90.10566553093828,1553.0,1435.0,1200.0,1528.0,1471.0,993.0,107.0,294.2,1649339150.5163023,1649339151.621049,abfdbee6-efeb-4e55-93ee-70710ec8dfa0
0.2728267366674023,0.5795332004892404,0.2004037213572934,-0.2366984003893973,-0.1076307869145034,-0.2413398907006946,-0.2249434646262467,-0.2484796337966017,-10.897300832406408,24.9582814796978,15.08406108559865,0.1639599348491047,2.1593110614384283,0.265155090248322,4660.9169921875,11.940888888888889,0.15,178.5971873651832,0.828610061339487,89.25005228707022,1658.0,1435.0,1200.0,1528.0,1551.0,993.0,107.0,294.2,1649339152.7407453,1649339153.8786786,7eec0036-b10f-4d4e-93e2-39c92c30e4e8
0.2725900601339815,0.5856999384377508,0.2028756761541245,-0.2396568573833213,-0.1049616014151688,-0.2445876190631624,-0.2230106060624415,-0.257197221202071,-10.985914917911948,24.80993902090785,15.113259268000126,0.1624351647760024,2.183326926390383,0.2561583677565571,4658.3837890625,11.944,0.15,178.60641419184196,0.8619066406449336,88.9037161615561,1658.0,1435.0,1200.0,1528.0,1551.0,993.0,107.0,294.2,1649339153.9886906,1649339155.1033456,7eec0036-b10f-4d4e-93e2-39c92c30e4e8
0.282859191317345,0.5920507581145243,0.2031517987572624,-0.2442720503118481,-0.1067761216059578,-0.2468491950868759,-0.2239047174998903,-0.2528055555904852,-10.945903410769269,24.821164751942884,15.0695112507713,0.1678651788744836,2.207836831520321,0.2602161029594036,4653.326171875,11.94511111111111,0.15,178.60938760086063,0.8854310809489596,88.61502531481709,1658.0,1435.0,1200.0,1528.0,1551.0,993.0,107.0,294.2,1649339155.212752,1649339156.336406,7eec0036-b10f-4d4e-93e2-39c92c30e4e8
0.4995102426111231,0.9920077647385556,0.2453459630343604,-0.3857651925290535,-0.1601335346636913,-0.5060231956149169,-0.2901215600898414,-0.3047823586526227,-10.501756010952544,24.70591096322362,15.320117086225034,-0.0937590660612574,3.7226478635889206,0.4175197894574022,4653.326171875,11.909777777777778,0.14,178.2851661100592,0.9141545580848836,88.2168025189081,1767.0,1435.0,1200.0,1528.0,1630.0,993.0,107.0,294.2,1649339157.2471488,1649339158.3934326,23a1d1aa-1bf6-404e-8df4-fcea90400441
0.499339309579605,0.9850389562084324,0.2428477108664383,-0.3836482519755516,-0.1595155458929694,-0.5009346488172636,-0.287978322298877,-0.3112909643112942,-10.40665172155676,24.48572557063217,15.35068368655634,-0.0886310074878299,3.695143808053426,0.41640726852998,4653.326171875,11.89,0.14,178.3014872265359,0.9452815325436628,88.02095519246697,1767.0,1435.0,1200.0,1528.0,1630.0,993.0,107.0,294.2,1649339158.5019555,1649339159.6088026,23a1d1aa-1bf6-404e-8df4-fcea90400441
0.502679078119656,0.9884050222216773,0.2420324917394021,-0.387211549396885,-0.1603570625216624,-0.5015394890517411,-0.2891354077372334,-0.3029678390141981,-10.490000700519088,24.41891470347621,15.260817180620345,-0.0824920090587787,3.709540914879403,0.4205305558293378,4654.449435763889,11.907444444444444,0.14,178.30709101729494,0.9634049296136974,87.83524614348387,1767.0,1435.0,1200.0,1528.0,1630.0,993.0,107.0,294.2,1649339159.7171166,1649339160.842139,23a1d1aa-1bf6-404e-8df4-fcea90400441
0.6350601393634854,1.2111833727488293,0.294298556313988,-0.492295953633152,-0.1734005703719187,-0.6426250429938186,-0.3012453589239517,-0.3226382910251908,-10.12661940696757,25.161272453147053,12.624447469308986,-0.1551990720844359,4.5821534513075965,0.4065597663263499,4651.923177083333,11.84688888888889,0.1344444444444444,178.2549554244503,0.9872805317616136,87.4264767765865,1886.0,1435.0,1200.0,1528.0,1710.0,993.0,107.0,294.2,1649339162.7750597,1649339163.9209964,ded72365-4c88-45c2-89ff-878887d55a55
0.6217668087485412,1.1783116328109156,0.2849498338819276,-0.4948468011412126,-0.1760960532928222,-0.6118307858345732,-0.2986945113399058,-0.3244922577787136,-10.163588405528452,25.12272270872684,12.064300075159268,-0.0810751323764738,4.463811421392067,0.4145426655342861,4643.557312011719,11.844625,0.13,178.2480051377874,1.0178111245770431,87.22861397515777,1886.0,1435.0,1200.0,1528.0,1710.0,993.0,107.0,294.2,1649339164.0334938,1649339165.138338,ded72365-4c88-45c2-89ff-878887d55a55
0.6167045611860181,1.1781538483916654,0.2937726085191605,-0.488522276558575,-0.1653535675380395,-0.6175899166625745,-0.2898454374833157,-0.3099760945466961,-10.18141508510066,24.982301975422416,12.12131619909904,-0.1087746817893254,4.462618725351677,0.3754473458537491,4637.940104166667,11.853777777777776,0.13,178.25512390244984,1.005259818954941,87.08149758198748,1886.0,1435.0,1200.0,1528.0,1710.0,993.0,107.0,294.2,1649339165.246132,1649339166.29625,ded72365-4c88-45c2-89ff-878887d55a55
-0.2105719381185329,-0.2812198915020959,0.1492815921349788,0.0865491635948916,0.0310616655269355,0.3005310379869519,-0.0589937571324151,-0.081215055198762,-11.400277721911602,26.854118756030065,14.957733741791252,0.6621978257092693,-1.1073641963261631,-0.1929659307585553,4669.432779947917,11.958000000000002,0.16,179.35431990595836,1.055708580375942,86.75780277466205,1449.0,1435.0,1200.0,1528.0,1386.0,993.0,107.0,294.2,1649339168.203295,1649339169.4436834,9308684c-3d7e-4be0-b3e2-cf44bef14ff5
-0.1779631682899603,-0.2797472373452617,0.1526739556653668,0.0833277330382621,0.0331260108435734,0.300596781457539,-0.0550359994197137,-0.0695258634470928,-11.300845882220424,26.85666057515292,14.77835047286626,0.6698195419535395,-1.1003430046841505,-0.2060713792295839,4750.198676215277,11.963333333333331,0.1588888888888888,179.26905030654007,1.0953864892148522,86.53530556789934,1449.0,1435.0,1200.0,1528.0,1386.0,993.0,107.0,294.2,1649339169.5524583,1649339170.6771832,9308684c-3d7e-4be0-b3e2-cf44bef14ff5
-0.202419745699981,-0.2758420740316198,0.152673955662535,0.0856287548580662,0.0321924533973992,0.29416706939575,-0.0561799360430798,-0.0802026058100902,-11.168782344243107,26.830906509410102,14.70472568947023,0.6500645933612554,-1.0862621884068024,-0.2026793335989604,4788.805067274306,11.960111111111113,0.1544444444444444,179.27380715384206,1.1175867503094763,86.34951076209664,1449.0,1435.0,1200.0,1528.0,1386.0,993.0,107.0,294.2,1649339170.7848625,1649339171.9020224,9308684c-3d7e-4be0-b3e2-cf44bef14ff5
-0.4523765017845575,-0.7484457913131604,0.1164361496944041,0.276416330542603,0.0973968378504101,0.5866729418648312,0.0170057090962999,-0.0044924097958839,-11.690032454571368,28.54461477987188,15.556700884128997,0.8864237214079844,-2.888433477851746,-0.4016731885359936,4804.611328125,11.913333333333334,0.1344444444444444,179.44020270458208,1.1273656602102309,86.08136132983148,1342.0,1435.0,1200.0,1528.0,1293.0,993.0,107.0,294.2,1649339173.6289666,1649339174.974065,d93b117a-f1f0-4e6e-9e82-69cfe96edf09
-0.4480505797166447,-0.7349815206509845,0.1252720734088288,0.2684745184618204,0.1020383275749471,0.5800985943721905,0.0241848973390242,0.0008854071103688,-11.534332315309154,28.501247742335487,15.51929502539388,0.8897899645231341,-2.8371675347642906,-0.4286275669437379,4807.3056640625,11.91,0.1288888888888889,179.4396183439531,1.1222642203782696,85.91783369963296,1342.0,1435.0,1200.0,1528.0,1293.0,993.0,107.0,294.2,1649339175.0819848,1649339176.1851883,d93b117a-f1f0-4e6e-9e82-69cfe96edf09
-0.4410817691083021,-0.7245414515255252,0.1197233236972588,0.2620185089785102,0.0957006560574356,0.5754834024296345,0.0178340769622843,5.703885038481405e-05,-11.554483441905017,28.306893050590503,15.428969762351372,0.8923929543034833,-2.7966279371077287,-0.4022447362174037,4807.3056640625,11.910444444444444,0.13,179.44982568221272,1.1349618622104407,85.741710441695,1342.0,1435.0,1200.0,1528.0,1293.0,993.0,107.0,294.2,1649339176.2979271,1649339177.4315026,d93b117a-f1f0-4e6e-9e82-69cfe96edf09
-0.6460437050413248,-1.0994241398366718,0.0945698682079073,0.4166603147403437,0.1454816190445323,0.8056250107006112,0.0761353962519706,0.0548082106986277,-11.663656269876144,30.14308489774302,16.276972930184066,1.071717935991764,-4.230012247859697,-0.5624087858889575,4690.68994140625,11.818333333333332,0.1166666666666666,179.5973790177624,1.1657453113562766,85.4265351569943,1227.0,1435.0,1200.0,1528.0,1189.0,993.0,107.0,294.2,1649339179.1607745,1649339180.3051274,61114eac-9522-48bc-8bf4-10aa8ff24a09
-0.6495544081874168,-1.0932705455769014,0.0866543531347739,0.4142935496115258,0.1382761336791023,0.8012464952533752,0.0668655654389696,0.0456698667684194,-11.789631959581966,29.996582076164188,16.13819939588676,1.065766810455982,-4.205023843328865,-0.528106536712867,4657.542209201389,11.821666666666664,0.12,179.58345909223394,1.1783398007308263,85.20849958157945,1227.0,1435.0,1200.0,1528.0,1189.0,993.0,107.0,294.2,1649339180.42477,1649339181.5228636,61114eac-9522-48bc-8bf4-10aa8ff24a09
-0.6412444291957433,-1.0891550007285045,0.0871145575133928,0.4153980400031418,0.1370664536628011,0.7982354440910558,0.0639597035890937,0.0426719642052554,-11.870397691956375,30.160858323092427,16.416861790182764,1.0576248039091336,-4.191590211574449,-0.5221720989864456,4642.96337890625,11.821555555555555,0.1188888888888888,179.59599780173028,1.1891278473655151,85.03414913718606,1227.0,1435.0,1200.0,1528.0,1189.0,993.0,107.0,294.2,1649339181.631183,1649339182.758522,61114eac-9522-48bc-8bf4-10aa8ff24a09
0.0644067592471597,0.1933560204702627,0.1620226784272745,-0.0950474839014024,-0.0579813074744905,0.0010563403267983,-0.1655245005636196,-0.1895603195764834,-11.3290849997672,25.60073290507877,14.370783996127734,0.3911435870909381,0.700427144031807,0.1181912308528699,4633.203125,11.967,0.16,179.02252297645748,1.169752782556174,84.71459949577692,1553.0,1435.0,1200.0,1528.0,1471.0,993.0,107.0,294.2,1649339184.68912,1649339185.8240538,1fee4cb0-256a-463a-8ad2-41e3071054a2
0.05952859295362,0.1915283517660501,0.1616676636367795,-0.0912343617985844,-0.0583889170742945,0.0003200133271498,-0.1661424893447852,-0.1997768582905867,-11.2614409629482,25.660393394451614,14.505782423680934,0.3813208818040735,0.6914060484680397,0.120135726866938,4636.266764322917,11.964555555555556,0.151111111111111,179.01054130683346,1.1931254883105131,84.8930184561859,1553.0,1435.0,1200.0,1528.0,1471.0,993.0,107.0,294.2,1649339185.9322312,1649339187.26183,1fee4cb0-256a-463a-8ad2-41e3071054a2
0.0524282969825593,0.1865844421702984,0.1563029957387803,-0.0896959642535217,-0.0615709016941054,0.0048168675218157,-0.1699950576724018,-0.1975678764364347,-11.34767335227908,25.61028144319312,14.623297712227108,0.3873316682603232,0.6719018273579123,0.1368088569288971,4643.523871527777,11.966777777777777,0.16,179.01174797358684,1.2078578861851137,85.0363006467746,1553.0,1435.0,1200.0,1528.0,1471.0,993.0,107.0,294.2,1649339187.3700483,1649339188.4903777,1fee4cb0-256a-463a-8ad2-41e3071054a2
0.0830253130286004,0.1889512074019047,0.1447452920640242,-0.3499481373922604,-0.0978613050557847,0.252104392548464,-0.1083802626508045,-0.1302991409505913,-11.195019608736697,24.742124619373307,16.23997321857748,1.5240888322971669,0.6966648288485204,0.1150134847610504,4638.2177734375,11.965333333333332,0.1577777777777777,179.00263194777455,1.2897633209879542,85.35596412466992,1553.0,1522.0,1200.0,1528.0,1471.0,993.0,107.0,294.2,1649339190.62871,1649339191.767985,c45af922-a894-45cc-998a-f8e3ef7063e3
0.0526386761404877,0.1868868621693717,0.1453895781612885,-0.3443862379301343,-0.0981111303002856,0.2509078612518422,-0.1108653663863243,-0.1381489132902853,-11.271398858584002,25.00834777502816,16.50037282702808,1.5106537526411647,0.686515527912322,0.1180173563022332,4640.72900390625,11.967999999999998,0.151111111111111,179.00160590157924,1.3030639523157577,85.42493916945824,1553.0,1522.0,1200.0,1528.0,1471.0,993.0,107.0,294.2,1649339191.8766286,1649339193.2061594,c45af922-a894-45cc-998a-f8e3ef7063e3
0.052323107447533,0.1895166013150624,0.1475722616798778,-0.3473446950893712,-0.0965727327444228,0.2500400473488776,-0.1071179877290708,-0.1395032293033705,-11.12183242717321,24.88811135640611,16.37957898673992,1.5147448674705588,0.6968912276662006,0.1078871288516421,4645.759765625,11.966,0.1555555555555555,178.99335655088169,1.3117266598957436,85.47617924861169,1553.0,1522.0,1200.0,1528.0,1471.0,993.0,107.0,294.2,1649339193.3204775,1649339194.347268,c45af922-a894-45cc-998a-f8e3ef7063e3
0.093886135988524,0.1961172465753006,0.1454684703328798,-0.6566678552937905,-0.1364527309508241,0.5446365639668868,-0.0287517547543478,-0.0595460024897822,-10.799362448311824,24.60488888108201,18.98006574646507,2.873094425328905,0.7342633781111729,0.0555920217223802,4642.68408203125,11.95411111111111,0.15,178.98450917917685,1.4409160832244727,85.62693821961183,1553.0,1613.0,1200.0,1528.0,1471.0,993.0,107.0,294.2,1649339196.111488,1649339197.2973166,eba64b2c-f99b-4301-b45c-9c95a9394d80
0.0869567731348791,0.189556047404394,0.1342526327341306,-0.6509876165383431,-0.144433990140852,0.5461486638892891,-0.0400464851647371,-0.0724448743267158,-10.971662990112366,24.594075000508383,18.939090605066447,2.862955665055188,0.7098269879036078,0.0969145475920995,4646.601453993056,11.951,0.1422222222222222,178.97914823958826,1.434605854062995,85.60476363101644,1553.0,1613.0,1200.0,1528.0,1471.0,993.0,107.0,294.2,1649339197.4054947,1649339198.5263977,eba64b2c-f99b-4301-b45c-9c95a9394d80
0.0942280020870888,0.1947892283047385,0.1458629312222727,-0.6527100963033312,-0.1351247125228184,0.540849739802352,-0.0290936208445046,-0.0456215326710253,-10.820435291201711,24.591289584153145,18.775450825217444,2.85554345698243,0.7307826386928705,0.0533085284761917,4650.80078125,11.948333333333332,0.1444444444444445,178.95682566356083,1.4385830874462535,85.59566126558254,1553.0,1613.0,1200.0,1528.0,1471.0,993.0,107.0,294.2,1649339198.634298,1649339199.9746344,eba64b2c-f99b-4301-b45c-9c95a9394d80
0.1008286475184382,0.1876231891325341,0.1284935039148361,-0.946123390367309,-0.1861811041781473,0.8334213520404188,0.0307592455199435,0.0194119200705143,-10.762202129671245,24.55791071301154,21.12170241923309,4.174176604300988,0.7177224677471117,0.0612317298834517,4655.853515625,11.934777777777777,0.14,178.94427329368617,1.5296491103024858,85.60929508207579,1553.0,1710.0,1200.0,1528.0,1471.0,993.0,107.0,294.2,1649339200.592809,1649339201.798138,c5d355d9-11c5-4715-b920-162af001fa12
0.1008286475015575,0.185203829108821,0.1316754883235359,-0.944111638629075,-0.1810136660890245,0.8331320807455791,0.0354270327070559,0.0144417131782177,-10.791734363972218,24.42131904306556,21.039009597086693,4.168213465445972,0.7095420376308104,0.0428538356455013,4654.449435763889,11.939,0.1455555555555555,178.96214865765398,1.542615263946403,85.55734921670812,1553.0,1710.0,1200.0,1528.0,1471.0,993.0,107.0,294.2,1649339201.906151,1649339203.2359312,c5d355d9-11c5-4715-b920-162af001fa12
0.1031559667234706,0.1925539500327985,0.1363169779905265,-0.945058345337556,-0.1805271642919236,0.8255058376135344,0.0357557501109452,0.0070784431863629,-10.70441724653526,24.650139101675844,20.870765621079137,4.154976942408087,0.7383972791465913,0.0360072399761648,4648.279296875,11.934666666666669,0.14,178.9734548974601,1.54560912795869,85.52961409521842,1553.0,1710.0,1200.0,1528.0,1471.0,993.0,107.0,294.2,1649339203.3445463,1649339204.4647589,c5d355d9-11c5-4715-b920-162af001fa12
0.0965158752087412,0.1880702447855874,0.1131095296083732,-0.990184698511031,-0.2126888784311806,0.8772591015365004,0.0180970508902674,0.0048431645867622,-10.903362014569671,25.32689504452072,21.531290797827523,4.376403302115673,0.7212307914032051,0.1361657207480522,4648.000217013889,11.901222222222222,0.1344444444444444,178.9598294289758,1.550668294137194,85.49492280551402,1553.0,1814.0,1200.0,1528.0,1471.0,993.0,107.0,294.2,1649339205.7847495,1649339206.9198787,adb55ad1-ec07-44e8-8805-1516345f13ac
0.1001975101066905,0.1889249100102594,0.1230762411580161,-0.9694886377331268,-0.1997768574153372,0.8539464650863302,0.0232907859516878,0.0004909462435905,-10.90383544740008,25.226646176271338,21.1053101090016,4.277095024442733,0.7262971207184049,0.0973234685970349,4645.480088975694,11.895555555555555,0.13,178.95484035524208,1.5641523682192688,85.42289163052708,1553.0,1814.0,1200.0,1528.0,1471.0,993.0,107.0,294.2,1649339207.0336487,1649339208.1542616,adb55ad1-ec07-44e8-8805-1516345f13ac
0.0912432480913045,0.182823915183915,0.1180008445113131,-0.986950117833496,-0.2073242098522379,0.8775615215987256,0.0236326520434416,0.0045275960370422,-10.856211864009149,25.384386309631665,21.306280123748035,4.370398996394768,0.7031272245904694,0.1133955057346478,4643.24267578125,11.902444444444445,0.1355555555555555,178.97184145499617,1.575907716679226,85.35197757092435,1553.0,1814.0,1200.0,1528.0,1471.0,993.0,107.0,294.2,1649339208.2632344,1649339209.3800497,adb55ad1-ec07-44e8-8805-1516345f13ac
0.0486298409526101,0.1947952969375304,0.1860716430175298,0.2326230828936887,-0.0058993201229079,-0.311657104834166,-0.2376830355591597,-0.2650930136414433,-11.625172138760886,26.986549501433952,12.8108292544656,-1.040723282313848,0.6829515957978789,0.1172818685057794,4644.641059027777,11.966777777777777,0.1544444444444444,178.9584117852681,1.1748737406023253,85.34111681123414,1553.0,1349.0,1200.0,1528.0,1471.0,993.0,107.0,294.2,1649339210.2909536,1649339211.4332554,5eba108a-da42-427d-9d2f-9f755b7af362
0.0275904096969105,0.1822848186593779,0.1820481421245075,0.2388505074238116,-0.0063463757932444,-0.3073463546769943,-0.2375267683400496,-0.2594850938897152,-11.512586354975928,26.87851733490328,12.48226004388262,-1.0459961999253495,0.6371213121627739,0.121353245804795,4653.606987847223,11.96677777777778,0.15,178.96986980705574,1.1613556104381395,85.52591896287744,1553.0,1349.0,1200.0,1528.0,1471.0,993.0,107.0,294.2,1649339211.5416214,1649339212.652455,5eba108a-da42-427d-9d2f-9f755b7af362
0.0211566514296018,0.1869440084248848,0.1834924757834765,0.236795265154583,-0.0049131678766044,-0.3084584311177885,-0.2360394483457811,-0.2664584553387239,-11.540349172611569,26.7676350445146,12.71673537471318,-1.0444987934504526,0.6530571828789216,0.116217293891885,4655.853515625,11.969,0.15,178.9622260664646,1.1513267820183797,85.64479385192206,1553.0,1349.0,1200.0,1528.0,1471.0,993.0,107.0,294.2,1649339212.760383,1649339213.8863418,5eba108a-da42-427d-9d2f-9f755b7af362
0.0329287803780495,0.1976030491842366,0.2091870500738996,0.5279771673781847,0.0447626070878629,-0.599865468115283,-0.2979713328803769,-0.311488195353055,-11.714158677286653,27.83115085389891,10.742520700815788,-2.3482369457964487,0.6775588730818382,0.1022107306201166,4668.53271484375,11.952333333333334,0.1433333333333333,178.94778704655923,1.064569505737466,85.94984603736289,1553.0,1264.0,1200.0,1528.0,1471.0,993.0,107.0,294.2,1649339215.6112912,1649339216.7530525,3a305019-4779-46cf-8a0a-1bd1944e7afe
0.03559796574,0.1828370638785131,0.2011794944058121,0.5330920097408736,0.0381882589413997,-0.5917001251310132,-0.3058211057050585,-0.3280687040750493,-11.820147050300449,28.13701957235776,10.452100095503086,-2.3398968897767087,0.6243694051183882,0.1309057088117939,4665.71044921875,11.948777777777776,0.14,178.9476307111182,1.0519242761208012,86.04032099983861,1553.0,1264.0,1200.0,1528.0,1471.0,993.0,107.0,294.2,1649339216.8613474,1649339217.9813955,3a305019-4779-46cf-8a0a-1bd1944e7afe
0.0248686294682095,0.1981289970151898,0.207753842236303,0.5210346564065237,0.0418041504208141,-0.5963284676780716,-0.2997069610394591,-0.3219019640789837,-11.773646060328252,27.931070708643773,10.396907937291068,-2.324122250217761,0.683781300036879,0.1100977411875661,4665.9912109375,11.948,0.1366666666666666,178.95176677011557,1.0585154679597,86.19267975292435,1553.0,1264.0,1200.0,1528.0,1471.0,993.0,107.0,294.2,1649339218.0894337,1649339219.4159963,3a305019-4779-46cf-8a0a-1bd1944e7afe
0.0219496189200969,0.1973926700542994,0.2291336213600651,0.7602883102929511,0.0809346703286561,-0.8266674210883461,-0.3506976132444188,-0.381399824714139,-11.90397619947362,29.216957729418866,8.74150017693139,-3.3721628753384376,0.6685338341761914,0.0993123912740526,4658.3837890625,11.93311111111111,0.1388888888888889,178.9407155240385,0.969868766883697,86.32573183795621,1553.0,1178.0,1200.0,1528.0,1471.0,993.0,107.0,294.2,1649339220.1176307,1649339221.2591217,0c6efe12-f9ca-4567-b885-9bb19b881eae
0.0087220303290939,0.1922252326401951,0.2267668561458611,0.7598807007435853,0.0787388380892214,-0.8198300956661929,-0.3530512302587137,-0.3782046917273885,-12.022734414192444,29.381319330450964,8.920723796889574,-3.3549385116761323,0.6483078217561693,0.1083538419840445,4656.696940104167,11.909,0.1266666666666666,178.9533878016786,0.9679353134559892,86.43794729256007,1553.0,1178.0,1200.0,1528.0,1471.0,993.0,107.0,294.2,1649339221.3674595,1649339222.4879496,0c6efe12-f9ca-4567-b885-9bb19b881eae
0.0179392665211074,0.1949075665626725,0.2269772352724051,0.7598938494366716,0.0795540572374695,-0.8227491076152045,-0.3515128325584929,-0.3699473087255351,-11.915841806848382,29.1927652106032,8.889556838272416,-3.362718215251544,0.6578963974561809,0.1051992219947466,4658.3837890625,11.927666666666664,0.13,178.95404653547854,0.9590626012749596,86.46696497179391,1553.0,1178.0,1200.0,1528.0,1471.0,993.0,107.0,294.2,1649339222.5956757,1649339223.712917,0c6efe12-f9ca-4567-b885-9bb19b881eae
0.0115884461556022,0.1981947404916351,0.2452933681956239,0.9327071491503428,0.1082050659474899,-0.9918282868080084,-0.3894994230387222,-0.4227130371744475,-12.109965943820525,30.37107383365974,7.845322556902131,-4.124027174142115,0.6607583957034554,0.0951142536946014,4677.025119357639,11.91211111111111,0.1288888888888889,178.9462631554644,0.9153284968484798,86.68819100446109,1553.0,1088.0,1200.0,1528.0,1471.0,993.0,107.0,294.2,1649339225.650882,1649339226.5965223,4f95d882-d562-43f6-931e-9dfa1e295d2e
0.0159538133480876,0.1932902769894097,0.2371674742903119,0.9232926834751672,0.0982383543221917,-0.9796525870851815,-0.3968100996935682,-0.4132722707334288,-12.18540953907275,30.618599311273584,7.598793567717669,-4.074271036632528,0.6457308088714042,0.1289965654730588,4686.39990234375,11.896666666666668,0.12,178.95168784348516,0.8881061197942083,86.72193972806002,1553.0,1088.0,1200.0,1528.0,1471.0,993.0,107.0,294.2,1649339226.7047565,1649339227.8094914,4f95d882-d562-43f6-931e-9dfa1e295d2e
0.0134818584278884,0.2029282709341836,0.2417958150771577,0.910827720287856,0.1014071899979298,-0.976496897227724,-0.3891707057701019,-0.4142584239821492,-12.090041630482304,30.33967237936036,7.808105978275583,-4.0405990856264005,0.6811724102647042,0.109027980422431,4686.39990234375,11.896666666666668,0.12,178.94810275308086,0.8798876946753903,86.75766009959938,1553.0,1088.0,1200.0,1528.0,1471.0,993.0,107.0,294.2,1649339227.9189816,1649339229.0424414,4f95d882-d562-43f6-931e-9dfa1e295d2e
0.0493378476589058,0.1948964407440063,0.1680554012002784,-0.097067831759799,-0.0544609967940727,0.0036966997128475,-0.1584621329770017,-0.1848353861276467,-11.109087222457967,25.678810508804627,14.744301660211605,0.4026224942984071,0.7019696034722447,0.0959351639803352,4690.105251736111,11.961666666666666,0.14,178.94729527293896,1.1580622378875605,86.81390746632434,1553.0,1435.0,1200.0,1528.0,1471.0,993.0,107.0,294.2,1649339231.181176,1649339232.3177345,f80c50ca-d04e-47a6-93fe-59d5642063c3
0.0829934527426297,0.1934930703328748,0.1687507649275097,-0.0971057607004219,-0.0535380594187974,0.0029886929862871,-0.1575012666287872,-0.1693983096536748,-11.097597036567462,25.670145383700653,14.449809699615574,0.4010530895020401,0.699283466556073,0.091788259878371,4701.251410590277,11.961,0.14,178.95758002000915,1.1746891239092911,86.77986276786136,1553.0,1435.0,1200.0,1528.0,1471.0,993.0,107.0,294.2,1649339232.4253795,1649339233.5473912,f80c50ca-d04e-47a6-93fe-59d5642063c3
0.0583846563976717,0.1956833396043393,0.1658620976009361,-0.0941665212116442,-0.0565875456208023,0.0005829872572398,-0.1615930400707537,-0.1817236957656041,-11.08412867238581,25.6863710449916,14.770326522457207,0.3890385407330688,0.7040175154906652,0.106450769895383,4706.98828125,11.964000000000002,0.14,178.97573162718345,1.1671147642848645,86.77670873828464,1553.0,1435.0,1200.0,1528.0,1471.0,993.0,107.0,294.2,1649339233.655833,1649339234.7058227,f80c50ca-d04e-47a6-93fe-59d5642063c3
0.1182506697307657,0.2171157135703182,0.3526261689616748,-0.1153359233808681,0.1098486530131909,-0.0115401109230064,0.0325869143019776,0.0199773140316122,-9.666729827161673,25.825756597664423,14.718534145875472,0.4204781391924224,0.7892775992124791,-0.648023547408391,4704.4052734375,11.966555555555557,0.14,178.9384615616124,1.1608924026611458,86.71247156805059,1553.0,1435.0,1200.0,1424.0,1471.0,993.0,107.0,294.2,1649339235.6868362,1649339236.8281107,4a9b64fe-b566-4976-9327-43b05e8678d9
0.1359488145161883,0.2236111692125908,0.3555714767038895,-0.1184521645897356,0.1124257974230005,-0.0140646606576592,0.0350062744105499,0.0183863219760111,-9.71761681907554,25.70957677648156,14.878698248716455,0.4212110179980797,0.8131485647560995,-0.657996522705995,4704.4052734375,11.96888888888889,0.14,178.95506347475495,1.1538511535309997,86.72388329633385,1553.0,1435.0,1200.0,1424.0,1471.0,993.0,107.0,294.2,1649339236.936395,1649339238.0590098,4a9b64fe-b566-4976-9327-43b05e8678d9
0.1176063836355168,0.2220859205214683,0.3540988228310124,-0.1137843771298327,0.1120970800272042,-0.0156293555514994,0.0332180517114752,0.009668736356762,-9.735149560555609,25.694342525912056,15.04247175126948,0.4070085176441502,0.8054322055227459,-0.6529140085097056,4709.5751953125,11.969666666666669,0.1333333333333333,178.9431561783019,1.1551204540676947,86.73217818162587,1553.0,1435.0,1200.0,1424.0,1471.0,993.0,107.0,294.2,1649339238.1712196,1649339239.2812426,4a9b64fe-b566-4976-9327-43b05e8678d9
0.1788004142597637,0.2471341856321978,0.5575485824552513,-0.1233566286231214,0.2989137484415387,-0.0445959342187482,0.2417563691239986,0.2180755681940049,-8.484421640079786,25.54672945445676,14.74204240076036,0.3732429911172215,0.9072624574204694,-1.4781451816804647,4656.7333984375,11.959666666666667,0.14,178.9132308428184,1.148958840810501,86.68115439179617,1553.0,1435.0,1200.0,1304.0,1471.0,993.0,107.0,294.2,1649339241.2161944,1649339242.353076,a63babb4-cc8e-4749-8151-c1e16cb8f0fb
0.1918307717320236,0.2558649194724167,0.5607831614288378,-0.128813337912767,0.2982694623770585,-0.0482775693035984,0.2423086143527588,0.2174707282486958,-8.419211838466278,25.67291683752078,14.73318123343192,0.3783078490360204,0.940504047743284,-1.4814731174973,4613.017469618056,11.952777777777778,0.14,178.91101330806785,1.144190028819526,86.69200225001795,1553.0,1435.0,1200.0,1304.0,1471.0,993.0,107.0,294.2,1649339242.462464,1649339243.5826943,a63babb4-cc8e-4749-8151-c1e16cb8f0fb
0.1783928046981736,0.2442940673933316,0.5569568911827579,-0.1205954022032464,0.2955871285056382,-0.0433336593145521,0.2388110613233458,0.2137364986735856,-8.39749005623678,25.90319361914528,14.868893834001565,0.3722484028074885,0.8944992950685731,-1.4688402112963868,4584.469509548611,11.957,0.14,178.9137909183303,1.1427183483547672,86.67255670145093,1553.0,1435.0,1200.0,1304.0,1471.0,993.0,107.0,294.2,1649339243.6909606,1649339244.8112786,a63babb4-cc8e-4749-8151-c1e16cb8f0fb
0.2512365786280219,0.2819256339468126,0.7770923425106716,-0.1017138732786507,0.4936853706985871,-0.1100107010930762,0.4499922569111502,0.4338456591692295,-6.84772502739105,26.258063960512803,14.751749432420606,0.1938992767264353,1.0373466532175668,-2.3339111569291573,4598.40478515625,11.92488888888889,0.1344444444444444,178.8404149549868,1.1264717829185398,86.60797878066826,1553.0,1435.0,1200.0,1166.0,1471.0,993.0,107.0,294.2,1649339246.748562,1649339247.892064,dcdbdb12-277e-4031-ba47-540fb46133bd
0.2525382994801241,0.276902832279306,0.7845213551864967,-0.0970592345446607,0.5019033051187098,-0.1102210802400879,0.4562641844976061,0.4359231530702694,-6.973897298920334,26.39132468785748,14.683392365520096,0.1841057103775231,1.0199070905552212,-2.364967018047052,4603.34375,11.931,0.13,178.84694613365312,1.1295514986141444,86.58038633424124,1553.0,1435.0,1200.0,1166.0,1471.0,993.0,107.0,294.2,1649339248.0131514,1649339249.1116,dcdbdb12-277e-4031-ba47-540fb46133bd
0.2560621498644457,0.2884868329805597,0.7884791124075453,-0.1024370516122287,0.503823014573656,-0.1171504435853137,0.4608662277536535,0.4270609322821028,-6.736241121142625,26.14764312226632,14.642526124430228,0.1793603345474463,1.062943153070225,-2.3779658355361435,4605.543619791667,11.932666666666668,0.13,178.83512535292954,1.1218175663236396,86.58214396958766,1553.0,1435.0,1200.0,1166.0,1471.0,993.0,107.0,294.2,1649339249.2199895,1649339250.3413515,dcdbdb12-277e-4031-ba47-540fb46133bd
-0.0211593938993987,0.148332357463673,-0.0249396441770342,-0.0563068715153544,-0.2250779859178345,0.0204612876586241,-0.3609647238992102,-0.3793096872291972,-12.56805699417909,26.1502544168286,14.456994388206027,0.3410832092234435,0.5229531989034247,0.8728198373999321,4644.361924913194,11.964444444444446,0.14,178.9916292719316,1.1383952299230704,86.76558387794651,1553.0,1435.0,1200.0,1623.0,1471.0,993.0,107.0,294.2,1649339252.092395,1649339253.2043357,461ecf0e-2370-40cf-bd4a-7d4d7b65a061
0.0165672506629037,0.1564238626134519,-0.0154574110755966,-0.0619962114603766,-0.2180864187996384,0.0165798936399024,-0.3522537111146474,-0.3641760411030652,-12.49750998605977,26.10848789857281,14.357759073764708,0.3454099251220382,0.5549823627211682,0.8388248192231784,4662.611979166667,11.966,0.14,178.99061233265513,1.137724567008005,86.72580333840054,1553.0,1435.0,1200.0,1623.0,1471.0,993.0,107.0,294.2,1649339253.3126876,1649339254.4415152,461ecf0e-2370-40cf-bd4a-7d4d7b65a061
-0.0091733455656799,0.1570524714096138,-0.018232797479356,-0.0606504929084087,-0.2211829370938299,0.0162693821112619,-0.3547474123604197,-0.3698421190641924,-12.396935217988103,26.100946189752385,14.556484491463696,0.3415706670514036,0.5545251266917586,0.8508176208956898,4671.07666015625,11.969333333333331,0.14,178.9791527930477,1.1341208121631117,86.70319085878835,1553.0,1435.0,1200.0,1623.0,1471.0,993.0,107.0,294.2,1649339254.5499058,1649339255.665953,461ecf0e-2370-40cf-bd4a-7d4d7b65a061
-0.0591383928194746,0.1266263891035706,-0.1699819089990633,-0.0191006114563032,-0.356167471810099,0.0153095272630291,-0.5211573490241351,-0.5357392579668014,-13.71105904043701,26.662053725729173,14.39647557963368,0.2411639464713778,0.4364017712413461,1.4737622607683392,4671.07666015625,11.953666666666669,0.1366666666666666,179.01501887528937,1.1199641541752676,86.66315456660347,1553.0,1435.0,1200.0,1712.0,1471.0,993.0,107.0,294.2,1649339257.807862,1649339258.8560169,1d60eeaa-3ca7-4197-9d93-3df725eb212e
-0.0589937571676872,0.1312284326889562,-0.1676808869599854,-0.0272265059351759,-0.3552865090121102,0.0176631439336503,-0.5172653338717101,-0.5442333176207961,-13.636212916454529,26.56062373960066,14.333064082284393,0.2642526158549336,0.4548391286185375,1.464374544230842,4671.642740885417,11.950777777777777,0.1377777777777778,179.01978786514985,1.1214294787695491,86.64168879986192,1553.0,1435.0,1200.0,1712.0,1471.0,993.0,107.0,294.2,1649339258.9643536,1649339259.966896,1d60eeaa-3ca7-4197-9d93-3df725eb212e
-0.0583626197159688,0.1272575265111025,-0.1714414143956593,-0.0204812245724965,-0.3580345869920115,0.0167558838789589,-0.5213545795041113,-0.5419848897987682,-13.599791912827133,26.615562885168707,14.502791462681934,0.2472205172269233,0.4371157935937619,1.478886723843477,4668.53271484375,11.957333333333333,0.14,179.00525474041586,1.1106062732617887,86.62936865641903,1553.0,1435.0,1200.0,1712.0,1471.0,993.0,107.0,294.2,1649339260.074999,1649339261.201628,1d60eeaa-3ca7-4197-9d93-3df725eb212e
-0.098698775919014,0.1073817553605539,-0.3060815510825873,0.0289573684010545,-0.4782410048310288,-0.0042936619819259,-0.6760404435237042,-0.6962565722254502,-14.799744880455368,27.19984738042043,14.099365267845586,0.0848988022390097,0.3600255891074433,2.042761806176483,4668.53271484375,11.93911111111111,0.13,179.05962456402895,1.1086046483800212,86.57737422081726,1553.0,1435.0,1200.0,1801.0,1471.0,993.0,107.0,294.2,1649339263.1311862,1649339264.267687,d5f92a6c-fa31-4070-9a1c-d3d9887f9bcd
-0.1058031180593454,0.1082839581966485,-0.3067809607195556,0.0298914315578241,-0.4793970789807726,-0.004729086128544,-0.677955602442326,-0.7065277305963569,-14.838878801196916,27.2718737610943,14.27457742615853,0.0822642048693488,0.3619753571212157,2.0483241211525565,4665.9912109375,11.940333333333331,0.1333333333333333,179.07092625037563,1.1046511902212164,86.52433324845268,1553.0,1435.0,1200.0,1801.0,1471.0,993.0,107.0,294.2,1649339264.3760178,1649339265.4949248,d5f92a6c-fa31-4070-9a1c-d3d9887f9bcd
-0.0970197884676611,0.1116368756802143,-0.3114487485951764,0.0274852201258287,-0.486379038411091,-0.0062806323143739,-0.6832676777352157,-0.708039831300892,-14.670503380385144,27.340321464184186,14.165975025030257,0.0844942643578531,0.3743231608426157,2.072080862484607,4665.427083333333,11.940555555555555,0.13,179.07718270365538,1.0937235160214636,86.48453904852836,1553.0,1435.0,1200.0,1801.0,1471.0,993.0,107.0,294.2,1649339265.6038406,1649339266.73257,d5f92a6c-fa31-4070-9a1c-d3d9887f9bcd
0.0366893075411987,0.1720945794322846,0.1162915140348086,-0.1108653664149111,-0.0738517845463166,0.0411467156094939,-0.1671154929589825,-0.1977256606182849,-10.903380396637983,22.38460003434041,14.891729841058671,0.4936133714408079,0.6120475153088037,0.2040503245647247,7538.63330078125,11.659888888888888,7.596666666666668,178.90070124024092,0.7858724649117574,74.89164606879729,1553.0,1435.0,1350.0,1528.0,1471.0,993.0,107.0,294.2,1649339271.6850903,1649339272.674804,dc743794-4163-4219-b4b3-ce52d6e77084
0.0431847634579367,0.1679001454704641,0.1112292660570593,-0.1078806121959582,-0.0789797763229332,0.0421197191367053,-0.1731507450598279,-0.1988433008551476,-10.914272791922365,22.54213206309641,14.792021784652247,0.4898378217390188,0.5965909064239764,0.225833891876412,7545.26953125,11.654777777777776,7.63,178.90151479166207,0.7088244804055266,70.11938834224992,1553.0,1435.0,1350.0,1528.0,1471.0,993.0,107.0,294.2,1649339272.786026,1649339273.8926735,dc743794-4163-4219-b4b3-ce52d6e77084
0.0472011845303164,0.1724425141493512,0.115081328291444,-0.112112975481828,-0.0752586951003518,0.04052569256423,-0.1678811517198819,-0.1929901066194832,-10.850221100975542,22.35189440556403,14.68122185357213,0.4947482842366063,0.6149182939866622,0.2084911955148403,7546.746853298611,11.654111111111112,7.622222222222224,178.91983639465568,0.6690258574594106,66.3208522496084,1553.0,1435.0,1350.0,1528.0,1471.0,993.0,107.0,294.2,1649339274.001013,1649339274.9960432,dc743794-4163-4219-b4b3-ce52d6e77084
0.2661603480463737,0.5719069573965195,0.1433120842076836,-0.2564871906247327,-0.1368734892660387,-0.2142667221137892,-0.2453107974517983,-0.2669009598404128,-10.758698642674654,21.819218864986723,15.018872352742871,0.2458429916676641,2.12906866881971,0.4120026643875043,7558.5771484375,11.625,7.613333333333334,178.67465233510984,0.7065883701492063,58.15977795252143,1658.0,1435.0,1350.0,1528.0,1551.0,993.0,107.0,294.2,1649339277.261862,1649339278.399255,3f57a629-9cf2-42b3-9fd7-6ab3c9dca103
0.258284279439875,0.5607568640421781,0.1408138319734226,-0.2580650344173187,-0.1372942475996662,-0.2029719909058666,-0.2425364222195399,-0.2656123871146092,-10.672795257935483,21.75695587842949,14.866310205876704,0.2742647669558433,2.0880280254932977,0.4105384816596332,7558.5771484375,11.628222222222222,7.618888888888888,178.65439854749104,0.7426707061406661,55.96023429971939,1658.0,1435.0,1350.0,1528.0,1551.0,993.0,107.0,294.2,1649339278.5066795,1649339279.6271622,3f57a629-9cf2-42b3-9fd7-6ab3c9dca103
0.266223900070857,0.5701368143342312,0.1449819685682538,-0.2607785969563443,-0.1351537492817719,-0.2119777530227214,-0.2423978130401917,-0.2751736827247931,-10.77448101309898,21.791250105331937,14.554284436657946,0.2604827104890193,2.1272926422197416,0.4023299777047082,7562.283203125,11.631,7.62,178.6444204000235,0.7787091972980007,54.17302309583176,1658.0,1435.0,1350.0,1528.0,1551.0,993.0,107.0,294.2,1649339279.7352192,1649339280.8523147,3f57a629-9cf2-42b3-9fd7-6ab3c9dca103
0.4836266189766637,0.9773338207503692,0.1685838776224249,-0.4213061256764455,-0.2080868342731689,-0.461041494573596,-0.3219940045628605,-0.3460824203782712,-10.190025877479892,21.34319049027992,14.639172476867794,0.0614267106683534,3.670893010747948,0.6313991949682607,7563.0244140625,11.595333333333334,7.610000000000001,178.29770785519517,0.8694587310067541,52.01581902678472,1767.0,1435.0,1350.0,1528.0,1630.0,993.0,107.0,294.2,1649339281.7665718,1649339282.9042797,479768d5-1a3f-4869-a256-24e2bd9ca055
0.4909767395184971,0.9820147562852528,0.1744876420364604,-0.4218583710311878,-0.2031560726937163,-0.4629743533617387,-0.3176680828253529,-0.3407440486124976,-10.254652227162232,21.36985761964864,14.983319063562654,0.0588221244841676,3.6862993245529454,0.6114674483802538,7559.318359375,11.588,7.59,178.27644168175937,0.9262378149148384,50.838226870892726,1767.0,1435.0,1350.0,1528.0,1630.0,993.0,107.0,294.2,1649339283.0121229,1649339284.133046,479768d5-1a3f-4869-a256-24e2bd9ca055
0.4865324805875716,0.976978805976288,0.181982398622375,-0.4175455977258162,-0.1965159804564609,-0.4598844090068441,-0.3103968527009518,-0.341191104267087,-10.199705718830876,21.581156581509006,15.339483856323024,0.0578954306729253,3.663813588001976,0.5817370498159075,7565.248046875,11.58788888888889,7.602222222222222,178.27874269659978,0.9732101879178124,50.04682537377683,1767.0,1435.0,1350.0,1528.0,1630.0,993.0,107.0,294.2,1649339284.240913,1649339285.3623383,479768d5-1a3f-4869-a256-24e2bd9ca055
0.6273155580271786,1.2194801998373117,0.2306851673973832,-0.5539765049559683,-0.2163047703617373,-0.59411948634969,-0.3216915846665323,-0.3378513354780622,-9.826695254771272,21.832991203968515,12.316283573302174,0.0678063527065593,4.617385057691652,0.5824241487638038,7565.248046875,11.525555555555554,7.582222222222222,178.1854817758526,1.048006510443597,48.89952510685384,1886.0,1435.0,1350.0,1528.0,1710.0,993.0,107.0,294.2,1649339286.2748203,1649339287.4100764,acb44c19-85f9-47a7-8df2-9596b823b73f
0.6220166339535588,1.2187701702820093,0.233301757825028,-0.5574214640350379,-0.2143061683264188,-0.5910689877751987,-0.3171815810689182,-0.3316582983697252,-9.722921821112916,21.80023061597708,12.22740645899588,0.0823833981911107,4.615364718414611,0.5695585397026882,7558.5771484375,11.534111111111113,7.57888888888889,178.183256652003,1.067373049374443,48.365655512938325,1886.0,1435.0,1350.0,1528.0,1710.0,993.0,107.0,294.2,1649339287.5182846,1649339288.6438344,acb44c19-85f9-47a7-8df2-9596b823b73f
0.6227135147859147,1.1947475027722871,0.2265038822006006,-0.5398548006272356,-0.2132674212228341,-0.5866773219184632,-0.3230196031329342,-0.33900842142757,-10.078212325890226,21.89670642966571,11.757530272108362,0.0526732847957805,4.5293521240740455,0.5820185841639154,7558.5771484375,11.539888888888887,7.601111111111111,178.1907895917476,1.1138173396612756,47.963896196859096,1886.0,1435.0,1350.0,1528.0,1710.0,993.0,107.0,294.2,1649339288.7522497,1649339289.8641987,acb44c19-85f9-47a7-8df2-9596b823b73f
-0.2092965144612548,-0.3016924144479203,0.090230798463418,0.0534933413834734,0.0021608308012151,0.348326545607527,-0.0708144355519159,-0.0996363792756354,-11.096237681880204,23.450849788648902,14.340305956585867,0.818720157278803,-1.1805596217536414,-0.0583075439006488,7558.5771484375,11.643666666666666,7.63,179.2390354196874,1.2356014268316011,47.09827520803716,1449.0,1435.0,1350.0,1528.0,1386.0,993.0,107.0,294.2,1649339291.804616,1649339292.9544468,28cd4e15-71b5-40dc-829d-e0a959461361
-0.1939889018980059,-0.2991784844963012,0.1005039758725408,0.0524733059972622,0.0088044625657004,0.3519095650836334,-0.0618571387063376,-0.0923646445153515,-11.002931808110809,23.714217772035774,15.13618964946603,0.8315039004693306,-1.178063829700775,-0.0927382386079492,7565.990614149306,11.644666666666666,7.632222222222222,179.2449427744096,1.271117153571133,46.79249029508036,1449.0,1435.0,1350.0,1528.0,1386.0,993.0,107.0,294.2,1649339293.062557,1649339294.1759002,28cd4e15-71b5-40dc-829d-e0a959461361
-0.2026301247918268,-0.2949471322895701,0.0903096906543513,0.0477210637279687,0.0011483811916156,0.346998527387641,-0.0713929782016561,-0.100136029680275,-11.14268875047254,23.377981347417176,14.334653738370314,0.8282533585160801,-1.1541673913785613,-0.0554573499868067,7571.93115234375,11.64611111111111,7.641111111111112,179.23988539878417,1.308582092976926,46.56674912791686,1449.0,1435.0,1350.0,1528.0,1386.0,993.0,107.0,294.2,1649339294.2884102,1649339295.3981616,28cd4e15-71b5-40dc-829d-e0a959461361
-0.4341918508239906,-0.7151795759281296,0.0870093679279072,0.2241765631142362,0.0843401826312507,0.6034901227429301,0.0239745181882201,0.0018058158644067,-11.09466620657749,25.0299516100632,15.695181875056797,1.0176116716220889,-2.7645994278689816,-0.3480783841674676,7558.5771484375,11.592555555555556,7.642222222222222,179.3744962847666,1.3503072561558087,46.25677465281417,1342.0,1435.0,1350.0,1528.0,1293.0,993.0,107.0,294.2,1649339296.1031015,1649339297.1559048,63e633ee-69da-4085-9643-2f5edd551f79
-0.4415419735750523,-0.7202418260193244,0.0820128634067232,0.2237558048445007,0.0807111425038631,0.6073689877600063,0.0206216006226976,-0.001231533047768,-11.117294409474509,25.00391381034833,15.454826333540131,1.0268060219884916,-2.781560910554143,-0.3325112348422627,7554.414855957031,11.596,7.63625,179.3772181151508,1.3627498849897692,46.11472184884418,1342.0,1435.0,1350.0,1528.0,1293.0,993.0,107.0,294.2,1649339297.264778,1649339298.4708884,63e633ee-69da-4085-9643-2f5edd551f79
-0.4302735384382953,-0.7128391070563366,0.0847346435123546,0.2200347239809067,0.0823284321320762,0.6019780228207041,0.0221599981023091,-0.0006792877890421,-11.119164376688046,24.909932561374152,15.250141903274944,1.0225645949628657,-2.7513397683330147,-0.3400028003241,7551.91748046875,11.597,7.639999999999999,179.378771983187,1.3650501246155429,45.99815485226099,1342.0,1435.0,1350.0,1528.0,1293.0,993.0,107.0,294.2,1649339298.5794947,1649339299.7000458,63e633ee-69da-4085-9643-2f5edd551f79
-0.6524076762519396,-1.1306654651318508,0.0581348311211316,0.3762675230275971,0.1411425493695846,0.8719470286694141,0.0946224629799935,0.0803561276602443,-11.405427436207535,26.61483037921513,16.038086841205892,1.2867570665519252,-4.34429305783554,-0.5359981462183367,7545.26953125,11.504333333333332,7.598888888888889,179.51840837057873,1.3882772738211635,45.73440633855105,1227.0,1435.0,1350.0,1528.0,1189.0,993.0,107.0,294.2,1649339301.632825,1649339302.7656271,cf928a59-a264-4f03-be88-c742d7627b58
-0.650540560729797,-1.1245907629007146,0.0661818332402373,0.3811325402835892,0.145599957305658,0.8645048672299381,0.0971996074312819,0.0775554552875772,-11.391489249284495,26.92763440585384,16.499910206884348,1.261614185220848,-4.325784556758165,-0.5553971268292797,7545.26953125,11.505222222222224,7.597777777777777,179.52466482385844,1.4038753388832264,45.7289778559807,1227.0,1435.0,1350.0,1528.0,1189.0,993.0,107.0,294.2,1649339302.8753164,1649339303.9990833,cf928a59-a264-4f03-be88-c742d7627b58
-0.6536305055115461,-1.1217769398094664,0.0752281362004168,0.3795021020906707,0.1535154722139571,0.8609547195453525,0.1073766981649451,0.0826045540642222,-11.20199863669773,26.83048268706865,16.24805538173847,1.2571760510966568,-4.313567412808877,-0.592856113518542,7551.91748046875,11.507666666666664,7.588888888888889,179.511781569264,1.408561915870913,45.700877319370406,1227.0,1435.0,1350.0,1528.0,1189.0,993.0,107.0,294.2,1649339304.107422,1649339305.2070782,cf928a59-a264-4f03-be88-c742d7627b58
0.0531251778967375,0.1815747890864915,0.120170379340073,-0.1172687818918566,-0.0704331233774542,0.0347827465951315,-0.1640386977887505,-0.1877063531928857,-10.974467880276611,22.17269953526633,14.499248381957536,0.4924472999477811,0.6526164616216975,0.1903006181586667,7551.91748046875,11.655444444444443,7.668888888888889,178.9504295708581,1.350018799243049,45.702779527054254,1553.0,1435.0,1350.0,1528.0,1471.0,993.0,107.0,294.2,1649339306.1388876,1649339307.2341146,a58d1e70-19a3-457f-9058-148dbf472f99
0.0452885549015593,0.1739222481450075,0.1103614521474838,-0.1136660388875137,-0.0783354901491405,0.0396477642248096,-0.1736372468419649,-0.1958585457059573,-11.092962957895802,22.270337238348763,14.521266654560607,0.4953554340875717,0.6234945594357697,0.2271146105335765,7551.91748046875,11.651333333333334,7.663333333333333,178.9583829466916,1.3400666444399094,45.671692300501896,1553.0,1435.0,1350.0,1528.0,1471.0,993.0,107.0,294.2,1649339307.3433049,1649339308.5042243,a58d1e70-19a3-457f-9058-148dbf472f99
0.0502850595154552,0.1826398334461733,0.1165018931801521,-0.1132321318618444,-0.0743514350019187,0.0323502377723627,-0.1699687602725492,-0.2001581703283851,-11.022192418872852,22.275821274532777,14.792096317738665,0.4783990330332263,0.6536254925951077,0.2095827985367304,7558.5771484375,11.652888888888889,7.662222222222223,178.96577776483298,1.3361828636970128,45.72700431076552,1553.0,1435.0,1350.0,1528.0,1471.0,993.0,107.0,294.2,1649339308.6126947,1649339309.733689,a58d1e70-19a3-457f-9058-148dbf472f99
0.0491937177225955,0.1692939072245615,0.1024590858285316,-0.4141006385964739,-0.1172950792571689,0.3372421954645264,-0.0972827623868955,-0.115993358762974,-10.91865532856741,21.69920098207295,17.121586441614,1.8381193382907863,0.6183344674889139,0.1830678135637259,7571.93115234375,11.64911111111111,7.638888888888889,178.94881461057432,1.407982286570879,45.7649084455645,1553.0,1522.0,1350.0,1528.0,1471.0,993.0,107.0,294.2,1649339310.6443374,1649339311.7913153,c323c714-ba91-405a-937a-8c4bff9bb56a
0.0605936373602593,0.1799049047226162,0.107008534635409,-0.4236860401872602,-0.1144681094150609,0.3321273529769628,-0.0915367818547275,-0.1092612257258117,-10.770801740242126,21.42936164959289,16.660076720702445,1.8466865148811848,0.6626400397984427,0.1655980389274742,7578.6259765625,11.649,7.653333333333332,178.93449398061455,1.4058118872404022,45.80750416141338,1553.0,1522.0,1350.0,1528.0,1471.0,993.0,107.0,294.2,1649339311.9064274,1649339313.0155494,c323c714-ba91-405a-937a-8c4bff9bb56a
0.0596206337994871,0.1697672602729112,0.100092320538339,-0.4126411330057335,-0.1202929821952909,0.3358484337570594,-0.1004910444583753,-0.1258022870375311,-10.871579835304235,21.759520412546603,17.157977899849378,1.832006595899472,0.6191253901731638,0.1950747020337135,7578.6259765625,11.64722222222222,7.616666666666666,178.9228431957103,1.4054912596623323,45.83180104156588,1553.0,1522.0,1350.0,1528.0,1471.0,993.0,107.0,294.2,1649339313.1237233,1649339314.2774746,c323c714-ba91-405a-937a-8c4bff9bb56a
0.0776474962855244,0.1666115732800379,0.09313666031695,-0.7986080898401012,-0.1690877975762738,0.710836068452535,-0.0018889676991568,-0.0300008811662454,-10.600752115767964,21.138666988366698,19.85820901600153,3.541405474835059,0.6285100256015538,0.1311145984685525,7578.6259765625,11.642666666666663,7.616666666666666,178.91892722058617,1.5173276269092923,45.82086704706956,1553.0,1613.0,1350.0,1528.0,1471.0,993.0,107.0,294.2,1649339315.1498976,1649339316.287963,274b99e0-2814-4aed-b298-cb28ce318ed7
0.0881796018917596,0.1713056576870514,0.0913352889489645,-0.7944005051202911,-0.1721119979711221,0.7033413123187238,-0.0058204279483669,-0.0303164500767524,-10.468664579876515,21.16227114095216,19.97427038673343,3.515224245689059,0.6435203232324999,0.1441379538360734,7578.6259765625,11.643666666666668,7.642222222222222,178.91850678449725,1.5196409147458436,45.865867748416186,1553.0,1613.0,1350.0,1528.0,1471.0,993.0,107.0,294.2,1649339316.3968327,1649339317.5166922,274b99e0-2814-4aed-b298-cb28ce318ed7
0.0752938796818441,0.1708980481150366,0.0908750845619335,-0.7981215879021879,-0.1711784405028833,0.7058132669732499,-0.0038349747890059,-0.018508920356235,-10.48827681372546,20.97470129916634,19.7901405064677,3.527867347027997,0.644188077936557,0.1403884820739732,7582.352105034723,11.64411111111111,7.633333333333332,178.91699503596095,1.5212303566839485,45.89899416589074,1553.0,1613.0,1350.0,1528.0,1471.0,993.0,107.0,294.2,1649339317.6252048,1649339318.9464047,274b99e0-2814-4aed-b298-cb28ce318ed7
0.09363631077271,0.1561846574917202,0.0781997415388214,-1.1519926667842884,-0.2242071375826677,1.0640100209453984,0.0782523363386003,0.0516919697985155,-10.423899772551904,21.01125604758507,22.602564307673987,5.131121636233615,0.6063880062056074,0.1121321288923194,7578.6259765625,11.605,7.61888888888889,178.89608555018182,1.6390110162212297,45.938416120505295,1553.0,1710.0,1350.0,1528.0,1471.0,993.0,107.0,294.2,1649339319.6123512,1649339320.7903204,ebb7d5aa-3c38-4f3c-ac92-7700fc91d252
0.0917297498311244,0.1556718583556551,0.0850896583114663,-1.1517691387299125,-0.2188950637132244,1.0641678052827936,0.0852737400735445,0.0602254737776961,-10.294630138698064,21.10560193954668,22.634542851793267,5.132010644960651,0.6036771968868486,0.0855448885584562,7585.3330078125,11.607333333333337,7.615555555555556,178.89469978069025,1.6446630570492518,45.96864198431232,1553.0,1710.0,1350.0,1528.0,1471.0,993.0,107.0,294.2,1649339320.8990352,1649339322.028273,ebb7d5aa-3c38-4f3c-ac92-7700fc91d252
0.0931103629188325,0.1605237271183279,0.0864439739981008,-1.1540044188517724,-0.2170279486686845,1.0608017392364395,0.0871803009991204,0.0547556161767475,-10.291759216456672,20.90781670071545,22.554205954053103,5.128233822036138,0.6229240717858741,0.0789785442907888,7578.6259765625,11.607888888888889,7.606666666666666,178.9060045026765,1.635986594227187,46.02328425658233,1553.0,1710.0,1350.0,1528.0,1471.0,993.0,107.0,294.2,1649339322.1407778,1649339323.2564545,ebb7d5aa-3c38-4f3c-ac92-7700fc91d252
0.0970681204354214,0.1532919443914256,0.0736108465765377,-1.33462821576061,-0.2567238672155975,1.2410572102124622,0.1132936113291802,0.0976335140800366,-10.43020049883992,21.736934230073253,23.568393726131625,5.945684261956374,0.6092307873063756,0.1118935449525544,7571.93115234375,11.571888888888887,7.615555555555555,178.90950004171174,1.7154894625576067,46.0845464999779,1553.0,1814.0,1350.0,1528.0,1471.0,993.0,107.0,294.2,1649339325.185354,1649339326.3187702,c963303d-9dc6-43b8-9381-82d921423b8b
0.1015781231823423,0.1575258244672421,0.072703586467477,-1.343674527133078,-0.2595771347648313,1.2459879712660495,0.1154236999899988,0.0846557511740864,-10.215892903999473,21.619240189234507,23.67978492626068,5.976470852380785,0.6236606209886092,0.1147719642726702,7571.93115234375,11.571,7.611111111111111,178.91831402138067,1.6807812989657234,46.14409702207647,1553.0,1814.0,1350.0,1528.0,1471.0,993.0,107.0,294.2,1649339326.4278612,1649339327.5595253,c963303d-9dc6-43b8-9381-82d921423b8b
0.1077185642201838,0.155869088791607,0.0784758641139139,-1.352668244281504,-0.2545806294927153,1.2555207760432523,0.124838166388316,0.1109399946235906,-10.165019118589658,21.57145902644113,23.6856319456866,6.018177174374777,0.6185074011534577,0.0864782107572074,7571.93115234375,11.572333333333331,7.62,178.9201885288529,1.6919068352079951,46.173677053551984,1553.0,1814.0,1350.0,1528.0,1471.0,993.0,107.0,294.2,1649339327.673314,1649339328.7809632,c963303d-9dc6-43b8-9381-82d921423b8b
0.0397797568925697,0.188676096231521,0.1374088254623306,0.2733081812100993,-0.0158240574218577,-0.3488148207306792,-0.2606047559502168,-0.2878883043968526,-11.392389510900395,23.328685662044084,11.769895776567548,-1.2427175039415508,0.6594228570988049,0.2295803499268219,7571.93115234375,11.643444444444444,7.654444444444445,178.90032937438613,1.19549388012115,46.22361104875412,1553.0,1400.6666666666667,1350.0,1528.0,1471.0,993.0,107.0,294.2,1649339330.5875769,1649339331.5366356,da9eb19a-6d2a-46a1-b75c-aa65be9fe843
0.0477999559123083,0.1881885830470378,0.1347391344783313,0.2706309045233996,-0.0199026819417069,-0.3440443717729535,-0.2637452718638839,-0.2882018502307378,-11.41339149660516,23.483544046827745,12.005415176739664,-1.2250377744592322,0.6558186428303284,0.2434175637959199,7565.248046875,11.655444444444443,7.66,178.8993245776682,1.1088010281766263,46.31269948282832,1553.0,1349.0,1350.0,1528.0,1471.0,993.0,107.0,294.2,1649339331.6457837,1649339332.8736336,da9eb19a-6d2a-46a1-b75c-aa65be9fe843
0.0539778202947087,0.1863118595876076,0.1320987751907412,0.2700336503092764,-0.0237132753563579,-0.3399900211808642,-0.267002103208094,-0.279935870910139,-11.418900249767862,23.660078828056555,12.217253143738224,-1.2135100547943702,0.646850407855074,0.2568340167344851,7565.248046875,11.656666666666666,7.643333333333333,178.90920103120806,1.1096098719847438,46.368496057068064,1553.0,1349.0,1350.0,1528.0,1471.0,993.0,107.0,294.2,1649339332.9824555,1649339334.112354,da9eb19a-6d2a-46a1-b75c-aa65be9fe843
0.0262360939461714,0.2053870770427979,0.1617071097050671,0.6339687976821233,0.0354927761726779,-0.7114453447173902,-0.349632568651045,-0.3766531444866473,-11.718053971815364,24.96163764186716,9.493210799353914,-2.8596506186128114,0.7017454038396653,0.2543957013478359,7558.5771484375,11.647,7.646666666666666,178.88831431272618,0.9819496165462878,46.55118388570831,1553.0,1264.0,1350.0,1528.0,1471.0,993.0,107.0,294.2,1649339336.2447536,1649339337.3950813,7a380172-95bd-4c31-837a-71f5ca6e87cd
0.0267225957244704,0.2078064370494046,0.1623382470949715,0.6236470721330326,0.0346512595905878,-0.7004793277277911,-0.3469765315820136,-0.3721168434628027,-11.772636842910574,24.97142823559365,10.050439691800664,-2.8115675508912825,0.707578095479544,0.251845910585232,7565.248046875,11.623666666666669,7.649999999999999,178.8932396380277,0.966753999036727,46.61858874589743,1553.0,1264.0,1350.0,1528.0,1471.0,993.0,107.0,294.2,1649339337.5038748,1649339338.5519912,7a380172-95bd-4c31-837a-71f5ca6e87cd
0.0281689523220368,0.2065836083492753,0.163455886261626,0.6288671040339853,0.0357031553174328,-0.7068301504994037,-0.3460561226406193,-0.3681985313690902,-11.585843421364086,24.95791755897624,9.667862019592429,-2.837614681669505,0.7044883682934571,0.2470736485660342,7567.475748697917,11.637,7.639999999999999,178.89570002394865,0.9718139004092043,46.64878501221807,1553.0,1264.0,1350.0,1528.0,1471.0,993.0,107.0,294.2,1649339338.6607602,1649339339.835881,7a380172-95bd-4c31-837a-71f5ca6e87cd
0.011654189624587,0.2121586553113572,0.1838626621236709,0.9434890791386944,0.0793699754951165,-1.0147727756652647,-0.424672192579899,-0.4387675987772115,-11.980582501317055,26.675109803278406,7.612018111167226,-4.227439789555164,0.7089990468014729,0.271266523166822,7571.93115234375,11.614777777777778,7.632222222222222,178.88031388447837,0.8443390561475925,46.7294677601537,1553.0,1187.5555555555557,1350.0,1528.0,1471.0,993.0,107.0,294.2,1649339341.59386,1649339342.707346,9aedc319-e678-4b24-a195-1aa23f924bf9
0.0089324094513291,0.2128160900907445,0.1851643829579024,0.9399520801097058,0.08182878163329,-1.0124586036535286,-0.4220424528514977,-0.4511273769636406,-12.083613303057186,26.539779088317264,7.586890611737981,-4.215149108015123,0.7129324653469511,0.2623955496208915,7571.93115234375,11.607444444444443,7.61888888888889,178.8954677975169,0.8167833575612473,46.80129516783042,1553.0,1178.0,1350.0,1528.0,1471.0,993.0,107.0,294.2,1649339342.8162415,1649339343.9394965,9aedc319-e678-4b24-a195-1aa23f924bf9
0.0170583038791571,0.2189433822652656,0.1882280291020396,0.9435942686826176,0.0830647591053395,-1.0198218782909978,-0.4223054267709656,-0.4406084162604397,-12.04236363696343,26.63413353496497,7.879643459627631,-4.239065787686055,0.7327743079110363,0.2580867977024641,7571.93115234375,11.600666666666664,7.62,178.88629561237147,0.8152072202624631,46.83435290395832,1553.0,1178.0,1350.0,1528.0,1471.0,993.0,107.0,294.2,1649339344.064886,1649339345.1644938,9aedc319-e678-4b24-a195-1aa23f924bf9
0.008985004257117,0.2174444309633692,0.1953020273264135,1.099537796877006,0.0967919977151231,-1.167560736699447,-0.4680629002705454,-0.4902710537843564,-12.167535205629154,28.09013946822833,6.91714978149741,-4.913037280278292,0.7178419804962153,0.2940393911298873,7571.93115234375,11.597888888888887,7.612222222222223,178.90156032625657,0.718204203694789,46.94767333138791,1553.0,1088.0,1350.0,1528.0,1471.0,993.0,107.0,294.2,1649339346.2800915,1649339347.4171245,3cd22717-4338-4083-b423-fc66756cdae1
0.014454861974518,0.2310796283290062,0.1983656734506711,1.0761725645121982,0.097252202137092,-1.1614465873018565,-0.4596740300232503,-0.477635153824612,-11.9975609028898,27.66071979729892,6.675449849206823,-4.849238823896326,0.7729851011837215,0.2786917295982615,7571.93115234375,11.567333333333332,7.608888888888889,178.91028930801582,0.7432586123018816,46.99677252569151,1553.0,1088.0,1350.0,1528.0,1471.0,993.0,107.0,294.2,1649339347.5255992,1649339348.6462817,3cd22717-4338-4083-b423-fc66756cdae1
0.0075254989624134,0.2256755144293852,0.1876626351609401,1.0880852826499308,0.0894024305946987,-1.1665877312414965,-0.4732566363806518,-0.4884828306631588,-12.16501422638574,27.748988212750056,6.657628560971537,-4.887698764686231,0.7519158023103798,0.3225836459274285,7569.703450520833,11.586333333333334,7.633333333333332,178.90166505582383,0.761514207920461,47.04934714791777,1553.0,1088.0,1350.0,1528.0,1471.0,993.0,107.0,294.2,1649339348.7546303,1649339349.8714416,3cd22717-4338-4083-b423-fc66756cdae1
0.0581626457184643,0.1811661680836088,0.1135768140207911,-0.1096096658377413,-0.0741840419975256,0.0291596560353197,-0.1711936120268259,-0.1968209290984204,-11.029021092238413,22.02055795864004,14.594711182547984,0.4611852515277631,0.6492603360265682,0.2147609794819791,7558.5771484375,11.655222222222225,7.67111111111111,178.91168570224613,1.1342501588705187,47.110332389197,1553.0,1435.0,1350.0,1528.0,1471.0,993.0,107.0,294.2,1649339351.8096788,1649339352.944018,1f7db2bd-1fd3-44d0-a44a-3863f9436b55
0.0531251779027137,0.1884515569673983,0.1164624470781437,-0.1124563587594456,-0.0746407063506119,0.0250527112998541,-0.1706787899418169,-0.1855499668900273,-10.928775379059928,22.134367325176004,14.664157526721878,0.4593375127165381,0.6757953108194313,0.2116944558310679,7558.5771484375,11.655375,7.66875,178.906157043568,1.1278020897325485,47.03277099028019,1553.0,1435.0,1350.0,1528.0,1471.0,993.0,107.0,294.2,1649339353.0526714,1649339354.1769073,1f7db2bd-1fd3-44d0-a44a-3863f9436b55
0.0546109805634125,0.183494498665222,0.1161337296899674,-0.1042515718162868,-0.0747590446052466,0.0240008155909041,-0.1731507450354858,-0.1947409063503959,-10.9675604791905,22.35471368135757,14.884838738753,0.4399257625632629,0.6544946608224695,0.2154890817207848,7558.5771484375,11.654999999999998,7.683333333333334,178.89510352076115,1.1322183910358516,46.92615444095284,1553.0,1435.0,1350.0,1528.0,1471.0,993.0,107.0,294.2,1649339354.2852094,1649339355.4057229,1f7db2bd-1fd3-44d0-a44a-3863f9436b55
