raw_voltage_G-,raw_voltage_G0,raw_voltage_G1,raw_voltage_G2,raw_voltage_G3,raw_voltage_G4,raw_voltage_G5,raw_voltage_G6,load_x,load_y,load_z,load_l,load_m,load_n,rpm,voltage,current,roll,pitch,yaw,aileron1_pwm,elevator_pwm,throttle_pwm,rudder_pwm,aileron2_pwm,pbaro,pdiff,Tt,sample_start_time,sample_end_time,uid
0.3136797333665822,0.3695748371895043,0.7598281059659452,-0.2565134880592797,0.431899652419638,-0.0353918465742324,0.4985635365681595,0.475895186235342,-0.684476031352774,23.72192630895348,17.42059167389222,0.6966236557563651,1.3167302870428583,-2.2770154552379696,4243.2802734375,11.955999999999998,0.18,178.73195306878677,0.9291658079187236,88.82246423118961,1553.0,1435.0,1200.0,1528.0,1471.0,993.0,107.0,294.2,1649341923.5291865,1649341924.6643646,1e3addb4-4f4a-47f3-8e75-3dda19943049
0.2971649719546186,0.3578462010041097,0.7423666390178117,-0.2528712988260226,0.4187378085595955,-0.0284493348055918,0.4817858016604804,0.457105700950541,-0.9789450190256602,23.761233961895982,17.12007918165847,0.7032034991972236,1.27593365542523,-2.2134318662474755,4254.514322916667,11.955333333333336,0.17,178.7439150067532,0.9434124441625084,87.63251778090888,1553.0,1435.0,1200.0,1528.0,1471.0,993.0,107.0,294.2,1649341924.7729826,1649341925.8838794,1e3addb4-4f4a-47f3-8e75-3dda19943049
0.2928127537667205,0.3546379193594732,0.730375029195,-0.2413924855401588,0.409546870623329,-0.0358783483385266,0.4660862597135225,0.4409328059282995,-1.1816135561205647,23.82629119098039,17.013485656531667,0.6603312837205684,1.2641074340476368,-2.162821117292012,4248.1884765625,11.957222222222224,0.1711111111111111,178.74574701527055,0.991180202180704,86.81392492125224,1553.0,1435.0,1200.0,1528.0,1471.0,993.0,107.0,294.2,1649341925.992782,1649341927.0462732,1e3addb4-4f4a-47f3-8e75-3dda19943049
0.4819552175457362,0.70347279926807,0.7856268570071486,-0.2972441088022671,0.3913935797661081,-0.3299514957443502,0.411900487082431,0.3844652288113734,-0.8201320940566827,23.48650848110091,16.493190025409177,0.1260949685105682,2.5848766527006224,-2.094883248526656,4172.589952256944,11.950666666666669,0.17,178.4192776333223,0.986986027285526,85.10317730566793,1658.0,1435.0,1200.0,1528.0,1551.0,993.0,107.0,294.2,1649341929.0522544,1649341930.1935291,88ba3f20-ed9c-49cf-9455-d5e714dc548c
0.4932646124584333,0.7105204997732553,0.7890839523601094,-0.2983394965770838,0.3937158416260884,-0.3344721195097733,0.4123212453201267,0.3842619296673124,-0.9574478612427508,23.52205289188261,16.70393851604763,0.118779691484548,2.6107684731511425,-2.1023279308350995,4171.461534288194,11.934666666666669,0.17,178.4271778854623,1.035196312785728,84.60351481693566,1658.0,1435.0,1200.0,1528.0,1551.0,993.0,107.0,294.2,1649341930.3022816,1649341931.4161663,88ba3f20-ed9c-49cf-9455-d5e714dc548c
0.4999835956338165,0.7087848720380329,0.7890313575936944,-0.2943685897391602,0.3940051129013364,-0.3382589447049271,0.4124658809345184,0.3789367080383876,-0.8334482295006534,23.498741362160303,16.443796240273645,0.1011765929552721,2.60519417620651,-2.1033019847985823,4190.496202256944,11.938555555555556,0.17,178.42767269472216,1.0556256576105498,84.2683733714712,1658.0,1435.0,1200.0,1528.0,1551.0,993.0,107.0,294.2,1649341931.528517,1649341932.6474164,88ba3f20-ed9c-49cf-9455-d5e714dc548c
0.7057738208905943,1.0811427712467117,0.868133907087242,-0.3280818521308154,0.3933739755449874,-0.6809798040519229,0.3694696476050964,0.354756257592131,0.0581885256815124,23.27891409527789,15.31338349905634,-0.5901639284225046,4.014632499695863,-2.105171200393991,4199.62109375,11.928666666666668,0.1666666666666666,178.31114056056288,1.0543986425852785,83.74693016838565,1767.0,1435.0,1200.0,1528.0,1630.0,993.0,107.0,294.2,1649341933.558766,1649341934.69583,ae155c94-7232-4efd-bb7d-1285bbe5f220
0.6953074596942289,1.096855462485663,0.875247351178589,-0.3232036852983481,0.3967663388767016,-0.6995194732509737,0.3696668779741422,0.3521396671880638,0.1338499645562623,23.365186025897803,15.531591249732346,-0.64183001109159,4.070946973015091,-2.1174996666931527,4210.625108506944,11.913111111111112,0.16,178.30261344883905,1.0798065668427723,83.48393069875468,1767.0,1435.0,1200.0,1528.0,1630.0,993.0,107.0,294.2,1649341934.804349,1649341935.9245265,ae155c94-7232-4efd-bb7d-1285bbe5f220
0.7212103887891146,1.0959219051035034,0.8737746973028402,-0.3321579487605849,0.3944258711563727,-0.6889873632321206,0.3686544284835665,0.3447763977570266,-0.0729464248470844,23.48850697105355,15.716563543488382,-0.5972947583133835,4.068281008996945,-2.110988779498904,4219.607747395833,11.907222222222222,0.1655555555555555,178.284854956997,1.1081676348528136,83.26188200774747,1767.0,1435.0,1200.0,1528.0,1630.0,993.0,107.0,294.2,1649341936.0334587,1649341937.1610878,ae155c94-7232-4efd-bb7d-1285bbe5f220
0.8622958864926873,1.3599345744049325,0.9465395764893832,-0.3447938489712843,0.4062991428701844,-0.952526810182824,0.3448684386751161,0.3133904617476339,0.538427946831201,23.92018839034857,13.553979101077088,-1.1545516936168854,5.079504787220019,-2.1634459520001514,4234.896484375,11.896,0.1566666666666666,178.0932393122017,1.131485971827041,82.91781805849723,1886.0,1435.0,1200.0,1528.0,1710.0,993.0,107.0,294.2,1649341938.0630095,1649341939.2009747,b568346f-ec58-4052-9527-8a81b63edf30
0.8914070975076516,1.3862056703147254,0.9583339561452576,-0.3455433237893106,0.4145039286749867,-0.9759709495625216,0.3515611245870311,0.3287481381085169,0.7067989871368598,23.62297426360463,13.856072225133673,-1.206793251455203,5.175003173618174,-2.196389125668295,4228.626953125,11.866222222222223,0.1444444444444445,178.09667110280463,1.1572738846469528,82.76184234079102,1886.0,1435.0,1200.0,1528.0,1710.0,993.0,107.0,294.2,1649341939.3087204,1649341940.4288893,b568346f-ec58-4052-9527-8a81b63edf30
0.8658328854684592,1.3774091922614824,0.9443700418140945,-0.3527093646511244,0.4006715013231675,-0.9602450989748982,0.3407923430725768,0.3145738445230034,0.6742991042867016,23.75788831953697,13.83163710450665,-1.155111535783415,5.142456970101298,-2.1444218269144457,4225.848958333333,11.86911111111111,0.1477777777777777,178.06947480734945,1.1729963516440547,82.5768542562203,1886.0,1435.0,1200.0,1528.0,1710.0,993.0,107.0,294.2,1649341940.5374725,1649341941.6651275,b568346f-ec58-4052-9527-8a81b63edf30
0.0785684107710922,-0.0660166783491447,0.6894138100358785,-0.1442767115462499,0.4532935908325615,0.2936254442710986,0.550012357340801,0.5318317578860584,-1.0621818103741425,24.67133859459013,18.128952880153182,1.1855011660608,-0.3388741514755938,-2.3348017247763617,4228.626953125,11.885666666666667,0.1466666666666667,178.9655425027616,1.344758984399708,82.26248493384166,1449.0,1435.0,1200.0,1528.0,1386.0,993.0,107.0,294.2,1649341943.593927,1649341944.7291696,dc5642d7-f5cc-46c8-a3f9-23db20ee5697
0.0474287581131286,-0.0719462348948332,0.6842049039523148,-0.1473489551876938,0.4488685492051605,0.3004652945118718,0.5466113968049998,0.5197703587880034,-1.1096739064042562,24.70758243737644,17.8400353919007,1.20771238641062,-0.358168131120045,-2.318032097414963,4227.932291666667,11.949,0.17,178.96319595332676,1.3443980871646577,82.0581977703161,1449.0,1435.0,1200.0,1528.0,1386.0,993.0,107.0,294.2,1649341944.837847,1649341945.9553254,dc5642d7-f5cc-46c8-a3f9-23db20ee5697
0.0629998487602535,-0.0726946991730346,0.6879310418168305,-0.140318447957718,0.452543103784701,0.2961919684868667,0.5490413767928258,0.519614597328016,-1.0407895615982117,24.776392066704293,18.070988160062345,1.182963724388674,-0.364138023924725,-2.331259133266087,4241.1806640625,11.951,0.17,178.94291484495125,1.3554562701526136,81.86585964328856,1449.0,1435.0,1200.0,1528.0,1386.0,993.0,107.0,294.2,1649341946.063588,1649341947.190623,dc5642d7-f5cc-46c8-a3f9-23db20ee5697
-0.1535065912694062,-0.4747950341174182,0.6277363162641975,-0.0160106678196677,0.4758951862519316,0.5819788577524008,0.592510962424489,0.5799539587056184,-1.4187512821551074,26.07492402179451,18.883305412502065,1.5503071885667787,-1.8958821328755144,-2.3901207018204134,4252.172526041667,11.93511111111111,0.17,179.2602909683845,1.4143613156586845,81.49074489516154,1342.0,1435.0,1200.0,1528.0,1293.0,993.0,107.0,294.2,1649341949.1245575,1649341950.226884,3b49b6cd-d883-4397-99da-69d4be7b10b9
-0.1684040653290519,-0.4802517443928284,0.631062936092303,-0.0088972230152559,0.4801290660742633,0.5806771369425112,0.5958375822601895,0.5754439563282346,-1.3653046002449356,26.14510923543663,18.89385374386912,1.5319953543059015,-1.9174836231885724,-2.4057327884711324,4251.69921875,11.912777777777778,0.16,179.23073598093595,1.4049684300257093,81.25656123472896,1342.0,1435.0,1200.0,1528.0,1293.0,993.0,107.0,294.2,1649341950.334913,1649341951.6933415,3b49b6cd-d883-4397-99da-69d4be7b10b9
-0.1710206561151687,-0.487233703819318,0.6224373921917065,-0.0070695541714296,0.4758425914764955,0.5854106671396547,0.5893552756301552,0.5672128732745105,-1.5810972753508037,25.9839344397389,18.778490983196,1.5368844998384708,-1.9418950033521247,-2.379983727384135,4250.528428819444,11.909444444444444,0.1555555555555555,179.24485777649994,1.398544743833018,81.08735316387069,1342.0,1435.0,1200.0,1528.0,1293.0,993.0,107.0,294.2,1649341951.80246,1649341952.9288242,3b49b6cd-d883-4397-99da-69d4be7b10b9
-0.418636939920224,-0.9407455704659476,0.5645305394719575,0.1056936650014968,0.5050984379666589,0.9339168290440476,0.6517195358826119,0.6207017644490438,-2.0180184119173616,27.84448183670909,19.90941469364848,2.0750689432566656,-3.6672941619766335,-2.48305160060879,4263.685655381944,11.890555555555556,0.1455555555555555,179.41180429583298,1.4484927077206555,80.819816930811,1227.0,1435.0,1200.0,1528.0,1189.0,993.0,107.0,294.2,1649341954.516628,1649341955.584304,8b7d4fb2-2094-4fb1-97c7-0a8a8e2f0744
-0.4144950996054338,-0.937984342608838,0.5609277970565278,0.1193683088907731,0.5025475911457932,0.9185985990876722,0.6427915720008472,0.6292352674850482,-2.07811932401139,27.90015658941993,19.8579319108992,2.0099514111349333,-3.657967300419122,-2.461638284752365,4265.334689670139,11.817666666666668,0.1355555555555555,179.40419850073724,1.4199253822272409,80.5893185368906,1227.0,1435.0,1200.0,1528.0,1189.0,993.0,107.0,294.2,1649341955.6928809,1649341956.8132565,8b7d4fb2-2094-4fb1-97c7-0a8a8e2f0744
-0.4055408355886472,-0.93080515035192,0.5714073069619023,0.1089282441676164,0.5114492576799531,0.9198214277720632,0.6543492748770202,0.627802059722081,-2.105318862948011,27.765231726695383,19.7517806726011,2.03584626238509,-3.627960184909961,-2.503839327235004,4255.921875,11.814,0.13,179.40519570835602,1.3985098102613256,80.42047246605836,1227.0,1435.0,1200.0,1528.0,1189.0,993.0,107.0,294.2,1649341956.9214966,1649341958.043126,8b7d4fb2-2094-4fb1-97c7-0a8a8e2f0744
0.2957843589347383,0.3485500734355456,0.7465216266291145,-0.1938599435769878,0.4288754525445085,-0.0735756619345086,0.4718716855822735,0.4415770919992251,-1.0027864253463676,24.095782530911187,17.10896020038823,0.471094337135628,1.2343383327840247,-2.2195648959302328,4247.48583984375,11.855,0.1433333333333333,178.5970613861385,1.305301657468681,80.21393513465621,1553.0,1435.0,1200.0,1528.0,1471.0,993.0,107.0,294.2,1649341959.1577008,1649341960.2963784,76089f54-623f-4c6a-b0a6-70863ff3a9cb
0.296849403245179,0.3541694970898326,0.7461786648414416,-0.19795247571069,0.427158452087566,-0.0736014114881137,0.4714257256591642,0.4409645818719649,-0.9592217650183836,24.052703428815505,17.349400302744318,0.4800258273713689,1.2534566393114766,-2.2150924996791903,4263.919867621527,11.951999999999998,0.1722222222222222,178.55040360500823,1.309574581124759,80.47820881402237,1553.0,1435.0,1200.0,1528.0,1471.0,993.0,107.0,294.2,1649341960.4060185,1649341961.7308204,76089f54-623f-4c6a-b0a6-70863ff3a9cb
0.3001760232056916,0.3588849479339994,0.7511368185750061,-0.2001055748596701,0.4310186898441428,-0.0769548770156944,0.4749879263044835,0.4451798343376997,-0.9953766506280765,24.05171322297744,17.280693416128475,0.4775581737730014,1.2725866860471544,-2.231750698205356,4254.044270833333,11.95788888888889,0.1711111111111111,178.5647803943012,1.3233744328762735,80.68143805713646,1553.0,1435.0,1200.0,1528.0,1471.0,993.0,107.0,294.2,1649341961.839032,1649341962.9594948,76089f54-623f-4c6a-b0a6-70863ff3a9cb
0.3159150115995879,0.3619354452392484,0.7492828525808437,-0.5170023600198485,0.3930584068634751,0.2261883135176724,0.5597575632149093,0.5390352198828835,-0.5556493185399597,23.480731096352965,19.638832852127507,1.8703227303806809,1.2989050554016155,-2.296755830405252,4262.272623697917,11.957333333333333,0.17,178.579298340837,1.420487070422736,80.9635552262543,1553.0,1522.0,1200.0,1528.0,1471.0,993.0,107.0,294.2,1649341964.072827,1649341965.2096226,d9f9a037-9eee-4351-acc1-a90d92f7ca10
0.3350332146476292,0.3557818558492584,0.7465742214132984,-0.5143200251693021,0.3918750242934613,0.2276083726666316,0.556983188569691,0.5439133857265651,-0.6612412967147933,23.5435747807374,19.313596274224324,1.8676398323749168,1.27895437166871,-2.288781158504068,4258.977105034723,11.958111111111112,0.17,178.56869636942534,1.4317036758539414,81.0711709279071,1553.0,1522.0,1200.0,1528.0,1471.0,993.0,107.0,294.2,1649341965.3182,1649341966.3559945,d9f9a037-9eee-4351-acc1-a90d92f7ca10
0.3156651863712019,0.3543486480628045,0.7488883917355221,-0.5084557051974473,0.3962272423946744,0.2253336482556093,0.5594551432288177,0.5391404094134671,-0.7090300237204576,23.45035688298268,19.577906999614942,1.848815108362465,1.270997730493475,-2.3011274163700914,4268.402615017361,11.958888888888888,0.17,178.55933142116334,1.412993890442507,81.15128145777228,1553.0,1522.0,1200.0,1528.0,1471.0,993.0,107.0,294.2,1649341966.465274,1649341967.417457,d9f9a037-9eee-4351-acc1-a90d92f7ca10
0.3389515258408481,0.3600551818092482,0.7548316018737438,-0.81789723655138,0.3639734929739432,0.5188651216995415,0.6463943144228657,0.6174277393748924,-0.3246575136653703,23.16835601301097,21.950734123200736,3.20544204332866,1.3071207615839058,-2.3873722669775885,4270.292588975694,11.952444444444446,0.1622222222222222,178.5760760093686,1.5238237059924051,81.2580395912293,1553.0,1613.0,1200.0,1528.0,1471.0,993.0,107.0,294.2,1649341969.0190337,1649341970.1277883,cc891366-f5f5-4041-8e49-36cc687dbca2
0.3363743815511801,0.3562289114819966,0.7521098220151451,-0.8152280500777368,0.3617908095403699,0.5213896711384887,0.643843467599522,0.6189529880160723,-0.3354351250019565,23.242111405808647,22.104843718445004,3.205466560001057,1.290980403860472,-2.3773174503791363,4261.093478732639,11.949333333333335,0.16,178.5643022810593,1.516712020536443,81.29258896478096,1553.0,1613.0,1200.0,1528.0,1471.0,993.0,107.0,294.2,1649341970.2361004,1649341971.357526,cc891366-f5f5-4041-8e49-36cc687dbca2
0.3403452875453815,0.363105679117964,0.7502690047053677,-0.8127429450907064,0.3600157357072926,0.5114887038009903,0.6399251565006061,0.6245543320790647,-0.3165562104679372,23.11508547327157,21.95986179840941,3.176664637940419,1.3174989924252498,-2.366096927614949,4261.331108940973,11.948777777777776,0.1688888888888889,178.5752685292267,1.498805671700033,81.35133238619261,1553.0,1613.0,1200.0,1528.0,1471.0,993.0,107.0,294.2,1649341971.4676564,1649341972.5897355,cc891366-f5f5-4041-8e49-36cc687dbca2
0.345026223063786,0.3549403393420035,0.7374227297160617,-1.0773474633163644,0.3146001420019548,0.7760667443017977,0.6936112780510085,0.67253392001858,-0.3595887490865135,23.41274755099004,23.94906354916017,4.369718794551418,1.3013174751779528,-2.363820708440201,4235.8408203125,11.931777777777777,0.1555555555555555,178.580392688924,1.5704308891761627,81.43308519709821,1553.0,1710.0,1200.0,1528.0,1471.0,993.0,107.0,294.2,1649341974.5327709,1649341975.8606586,86c76238-59a7-4418-b0e6-cdd07159f480
0.3398608086878456,0.3544760892610249,0.7287966800873976,-1.0781631890576204,0.3076085760594234,0.7768652746723081,0.686695570214429,0.671915931396129,-0.3435726705486527,23.24329108883149,23.833319374218952,4.371790021085885,1.3000394488268074,-2.332839018409025,4238.850640190973,11.922222222222222,0.15,178.55095305578143,1.5816225810180515,81.41550429017461,1553.0,1710.0,1200.0,1528.0,1471.0,993.0,107.0,294.2,1649341975.969723,1649341977.0964344,86c76238-59a7-4418-b0e6-cdd07159f480
0.3518898420227677,0.3628952999923208,0.7503084507999688,-1.087064356606987,0.3254083696102923,0.7770923425069293,0.7072990695132294,0.6798314457219737,-0.3610556229553444,23.307196471350743,24.03445656310029,4.393897167045094,1.3324184137091355,-2.4145549739211667,4230.482855902777,11.921888888888889,0.15,178.56209688886727,1.5727927828207138,81.41153063789747,1553.0,1710.0,1200.0,1528.0,1471.0,993.0,107.0,294.2,1649341977.210366,1649341978.316766,86c76238-59a7-4418-b0e6-cdd07159f480
0.3675630867951771,0.3647624147144494,0.7373306888674718,-1.3075287268993951,0.2803609389943003,0.99144237094035,0.7463375449337374,0.7330968091213683,-0.1261867454762091,23.77452046525385,25.99851331250529,5.375766957052247,1.3466805869162588,-2.3900556490298595,4239.08349609375,11.922,0.16,178.5463358479025,1.6474074768612257,81.38977724430089,1553.0,1814.0,1200.0,1528.0,1471.0,993.0,107.0,294.2,1649341980.0482426,1649341981.185181,582d92a6-8606-4740-b928-7c2b5faf8d99
0.3803436185913056,0.3607783600518717,0.7410517695261285,-1.3079889314958848,0.2836481129904278,0.9952686412425942,0.7507949525145867,0.7364234288958549,-0.1054073355012246,23.877660671867044,25.95742676169796,5.386276130389124,1.332249344052252,-2.406523394244944,4248.196723090277,11.888555555555556,0.14,178.54217398596825,1.643933875065516,81.3006030534071,1553.0,1814.0,1200.0,1528.0,1471.0,993.0,107.0,294.2,1649341981.2939117,1649341982.4144728,582d92a6-8606-4740-b928-7c2b5faf8d99
0.366037838143219,0.3588455018481539,0.7497562056226472,-1.307305198918963,0.2918397502042697,0.996925376870861,0.7606696224659615,0.7405784165076941,-0.0097624493976593,23.904758915185862,26.08383952398581,5.3891380598371335,1.3236706987931297,-2.443599052616869,4266.752712673611,11.879555555555555,0.14,178.5479250052494,1.6500731360543326,81.2314656018985,1553.0,1814.0,1200.0,1528.0,1471.0,993.0,107.0,294.2,1649341982.5229042,1649341983.5697138,582d92a6-8606-4740-b928-7c2b5faf8d99
0.2658316306788894,0.3632371660700777,0.7563699991924725,0.0847214947878434,0.459143748703893,-0.3515128326404576,0.3946493989547409,0.3768723630320075,-1.1594977933012744,25.3464348923052,15.838552179909966,-0.7733793544156634,1.2681388253552803,-2.162462656903735,4264.862901475694,11.904777777777776,0.1466666666666667,178.53803185569163,1.1858936579297756,81.16533419253463,1553.0,1349.0,1200.0,1528.0,1471.0,993.0,107.0,294.2,1649341984.551726,1649341985.690409,5b21d9e8-f328-4c36-af90-163614e69488
0.2927996050702013,0.3656170799121941,0.7478233474418626,0.0835907068635332,0.4500580003891269,-0.3535903270058919,0.3846695392799769,0.3711132344136212,-1.1798016819298638,25.37597686467881,15.655226754413594,-0.7757661536204629,1.278431376854142,-2.124235151330981,4262.979546440973,11.961111111111112,0.17,178.54930622128157,1.1951942530031845,81.40507762695162,1553.0,1349.0,1200.0,1528.0,1471.0,993.0,107.0,294.2,1649341985.799612,1649341986.9198165,5b21d9e8-f328-4c36-af90-163614e69488
0.2874217886327214,0.3666032320544903,0.7533720967231201,0.0838142347187342,0.4562247384075613,-0.3551813196381729,0.3910335077965653,0.3634606938684507,-1.165934772323708,25.26398582777345,15.642823124894283,-0.7803066589809217,1.2824641741999767,-2.149099511821613,4246.785264756944,11.95911111111111,0.17,178.53577485762585,1.179643845111737,81.63712571490373,1553.0,1349.0,1200.0,1528.0,1471.0,993.0,107.0,294.2,1649341987.0282562,1649341988.1490695,5b21d9e8-f328-4c36-af90-163614e69488
0.2695001166965082,0.3662745146803475,0.7570800287152681,0.3661693250753859,0.4856515180114182,-0.6277933083747944,0.310405708195391,0.2790066231800148,-1.5547448295775694,26.436076092458663,13.497828926721905,-2.022409187200028,1.2684852015138233,-2.0807796979248683,4222.379720052083,11.955666666666666,0.17,178.52773951952227,1.0829856523044266,82.05100102766066,1553.0,1264.0,1200.0,1528.0,1471.0,993.0,107.0,294.2,1649341990.0833385,1649341991.2203915,572e52ba-4aab-482c-aa22-c0b7943df33b
0.2588496733499447,0.3655381877342252,0.7580661808355823,0.3603707504347923,0.48696638752651,-0.6208244971356077,0.3143240194301519,0.2935622293186605,-1.5486782102395935,26.331094840867102,13.64690039273474,-1.9942891870978183,1.265134038123624,-2.089376029077645,4221.22265625,11.951222222222222,0.1555555555555555,178.52084406410023,1.0902447797259096,82.1966001701978,1553.0,1264.0,1200.0,1528.0,1471.0,993.0,107.0,294.2,1649341991.3293831,1649341992.4453728,572e52ba-4aab-482c-aa22-c0b7943df33b
0.2619659141874269,0.358464189681592,0.757343002613829,0.3592005165934767,0.4876764170549318,-0.6123435851031833,0.3159413089495588,0.299255614391171,-1.62644046388179,26.353805924873644,13.717544769106636,-1.972505021877344,1.238625127616602,-2.0924902987308025,4218.9140625,11.947,0.16,178.5318057588082,1.0969626383716036,82.32707272045312,1553.0,1264.0,1200.0,1528.0,1471.0,993.0,107.0,294.2,1649341992.5535395,1649341993.6774464,572e52ba-4aab-482c-aa22-c0b7943df33b
0.249116899325739,0.3598809616009229,0.761272270970534,0.6388113524653233,0.5153916747749693,-0.8839037250492331,0.2335986992247276,0.2206828446839979,-2.075429344334774,27.702918513975245,11.59839752291318,-3.2048951885309385,1.2317445612561098,-2.0195906521404017,4223.765462239583,11.940333333333331,0.1566666666666666,178.534046060856,0.9968243811764006,82.51276279668853,1553.0,1178.0,1200.0,1528.0,1471.0,993.0,107.0,294.2,1649341994.5873864,1649341995.7260578,30306653-2b74-4cbf-a6a5-afc31536c4bc
0.2443072160689347,0.3554925845513439,0.7571194748074458,0.6355466410762994,0.5103579160083521,-0.8765273025419282,0.2304616395523675,0.2059261733360893,-2.0542135706153304,27.849928498865605,11.57845383343292,-3.180179727437717,1.2154532635052724,-2.003240514988033,4231.41015625,11.923666666666666,0.1433333333333333,178.53933262727352,0.9460598539439268,82.63480006331888,1553.0,1178.0,1200.0,1528.0,1471.0,993.0,107.0,294.2,1649341995.835183,1649341996.788834,30306653-2b74-4cbf-a6a5-afc31536c4bc
0.2388899534945051,0.3553479489015106,0.7436420624370829,0.6169938324752424,0.498037588751094,-0.8580928208691472,0.2221385152018231,0.1921068943264429,-2.276005260806617,27.642177723025657,11.669958568064466,-3.099049743021528,1.2170959032337103,-1.9563591854324685,4219.377821180556,11.927555555555555,0.151111111111111,178.53249029554502,0.9519067093168694,82.73813854873144,1553.0,1178.0,1200.0,1528.0,1471.0,993.0,107.0,294.2,1649341996.8974326,1649341997.9855435,30306653-2b74-4cbf-a6a5-afc31536c4bc
0.2169842265887257,0.3445791674513995,0.7241819938628133,0.7644301492399636,0.4894909369550469,-0.9869106711617982,0.1567237539235371,0.1436013551329756,-2.50876839531118,28.84587283360037,10.818109360356493,-3.7143433590882378,1.1665379667001732,-1.8269239813404312,4190.951063368056,11.923666666666668,0.15,178.52519565351142,0.9094520795630358,82.88874346102031,1553.0,1088.0,1200.0,1528.0,1471.0,993.0,107.0,294.2,1649342000.1184597,1649342001.255783,bc9d0d57-0203-47bb-85b1-34ac659f5ebb
0.2084638718233409,0.3482082073565513,0.7190540028225404,0.7562779583367982,0.4845075815273557,-0.9815197022691629,0.1529895242317772,0.1312415812883974,-2.6134526997567984,28.72037427719704,10.9906510578715,-3.684952262872472,1.1800372633710643,-1.8072404188476137,4183.2236328125,11.88822222222222,0.1411111111111111,178.51356763590445,0.878506395637461,82.94640998927281,1553.0,1088.0,1200.0,1528.0,1471.0,993.0,107.0,294.2,1649342001.3644269,1649342002.4812632,bc9d0d57-0203-47bb-85b1-34ac659f5ebb
0.2240582248273825,0.352994332442548,0.7374884731905792,0.7727006783909229,0.5000230416940233,-1.0032413619568488,0.166072476624416,0.1333979669929378,-2.255504093480728,28.90195039460809,10.83655890243267,-3.768532142764613,1.1959701232127526,-1.871447001365196,4188.907552083333,11.90488888888889,0.1488888888888888,178.52836030782686,0.9126082317159144,83.01888892110537,1553.0,1088.0,1200.0,1528.0,1471.0,993.0,107.0,294.2,1649342002.5890477,1649342003.715563,bc9d0d57-0203-47bb-85b1-34ac659f5ebb
0.2785069731247996,0.3554794358475818,0.7464821805546586,-0.2383945825116673,0.4191717154953884,-0.0362465119674052,0.4789062374377588,0.4561589949346852,-0.8804713147738826,24.356776559087,17.573845038370738,0.6573010282073527,1.2608267688595451,-2.215227919023507,4226.311414930556,11.92388888888889,0.1488888888888889,178.50269701038542,1.1855396620316985,83.0194482377074,1553.0,1435.0,1200.0,1528.0,1471.0,993.0,107.0,294.2,1649342005.6479328,1649342006.680806,e6062a1c-bb9f-4386-b47e-8a8a3e15d3dd
0.2838190460934597,0.3557029636792418,0.7495458264784967,-0.238736448598402,0.4219460901923726,-0.034339950857334,0.4837581059296261,0.4660336649497625,-0.7456982563907829,24.29478082480099,17.861589549679984,0.6622117730883162,1.2583962296526767,-2.229541249338659,4239.549533420139,11.96022222222222,0.1577777777777777,178.5018986371624,1.1971465013090774,82.97140316926571,1553.0,1435.0,1200.0,1528.0,1471.0,993.0,107.0,294.2,1649342006.7886837,1649342008.0242174,e6062a1c-bb9f-4386-b47e-8a8a3e15d3dd
0.3039891448764031,0.3512455559753549,0.7506634655562224,-0.234660352388401,0.4240893274969892,-0.0351814674825614,0.4840605259109028,0.4635880076176464,-0.8302313603668966,24.37426379575147,17.659753613552144,0.6516339260248158,1.2436357576697004,-2.235294479042756,4238.62890625,11.95977777777778,0.16,178.52464013145894,1.2086902324844375,82.9495101362461,1553.0,1435.0,1200.0,1528.0,1471.0,993.0,107.0,294.2,1649342008.13904,1649342009.24185,e6062a1c-bb9f-4386-b47e-8a8a3e15d3dd
0.3640523851629633,0.382960208947135,0.9698785105522754,-0.2189213612285274,0.6242782094902903,-0.0932724099257474,0.6990942838501262,0.6667616429038695,0.6716202048443992,24.505746683219737,17.54188525314192,0.4981167805235493,1.3649614048830214,-3.1081299114075978,4258.976453993056,11.946444444444444,0.15,178.50341493915818,1.1850996484387617,82.89603279068453,1553.0,1435.0,1200.0,1424.0,1471.0,993.0,107.0,294.2,1649342011.1781476,1649342012.316246,8ba04890-3301-4c0b-bd88-1a63dd9ac9c7
0.3668530572560495,0.3850771488833432,0.9714300565804724,-0.2210383017064695,0.6247384138152624,-0.0927070160563429,0.7000146924962901,0.6845123811460754,0.6604443674096216,24.557361485764968,17.64890254732614,0.5045934460450906,1.3723917007659716,-3.1118225924865497,4255.921875,11.939,0.15,178.50853758103568,1.1885229250212117,82.84829583966541,1553.0,1435.0,1200.0,1424.0,1471.0,993.0,107.0,294.2,1649342012.4234197,1649342013.548404,8ba04890-3301-4c0b-bd88-1a63dd9ac9c7
0.3709948962565815,0.3897449356820198,0.9669857975876543,-0.2231683904852335,0.620031181013983,-0.095468242268452,0.6945448353880797,0.671245347906019,0.6184971208374176,24.495775474905848,17.590539341903256,0.5025335863301452,1.390692375908955,-3.091105494944361,4248.655815972223,11.940222222222223,0.1555555555555555,178.51249301947502,1.176724223832772,82.8298179012308,1553.0,1435.0,1200.0,1424.0,1471.0,993.0,107.0,294.2,1649342013.6569588,1649342014.7392073,8ba04890-3301-4c0b-bd88-1a63dd9ac9c7
0.4170284782058948,0.4178962920902475,1.18012615277425,-0.1778185327068781,0.8146450155118289,-0.1742157896059122,0.8930638330618408,0.8707242001066562,2.0527145215712896,25.11350874493776,17.82336910752271,0.2387462226604265,1.492001375965571,-3.924477304414024,4247.48583984375,11.937666666666663,0.1533333333333333,178.47547491199336,1.1711343661853186,82.76199412277258,1553.0,1435.0,1200.0,1304.0,1471.0,993.0,107.0,294.2,1649342016.7101395,1649342017.844342,3bbd687b-d5d1-4d97-be57-d2ea49a88cbe
0.4265218360949244,0.4222222128007696,1.1926174138918957,-0.1908751894263801,0.8247169159157854,-0.1702711805213768,0.9080664942477904,0.8848853447821484,2.135977756553993,25.022558009060976,17.384274754444824,0.2770538810312308,1.51392646502065,-3.976697946794151,4245.616048177083,11.93422222222222,0.15,178.4777045893024,1.1854307584599324,82.72936479128761,1553.0,1435.0,1200.0,1304.0,1471.0,993.0,107.0,294.2,1649342017.9523685,1649342019.0733497,3bbd687b-d5d1-4d97-be57-d2ea49a88cbe
0.4323730054551259,0.4101254132421594,1.1801393014961408,-0.1849188292895598,0.815302450271754,-0.1623425159093959,0.8965219399112163,0.8762072059217597,1.982715986401122,25.14695614662568,17.512904062085425,0.281581239692016,1.4669785312080592,-3.931817380675694,4232.107421875,11.932666666666664,0.15,178.47336666026953,1.176721140761272,82.69712781622496,1553.0,1435.0,1200.0,1304.0,1471.0,993.0,107.0,294.2,1649342019.18147,1649342020.5031817,3bbd687b-d5d1-4d97-be57-d2ea49a88cbe
0.4766446618957273,0.4312685150658343,1.3213825958644465,-0.1365710693634728,0.9424240348325462,-0.2362907909056284,1.0187785085789471,0.9990554657001924,2.9670351474175978,25.934910873310628,17.274455574477003,0.0190627822100629,1.5444394026476704,-4.46854814504684,4248.189236111111,11.917,0.1377777777777778,178.42118097937106,1.1884053058434727,82.62924408388402,1553.0,1435.0,1200.0,1166.0,1471.0,993.0,107.0,294.2,1649342021.621774,1649342022.7607248,e40af217-3e74-474a-ad05-360ef88d67d3
0.4600773060758925,0.425469940504232,1.317858745176158,-0.1461038748245198,0.937874586266796,-0.2219324130093604,1.022039385038943,1.0004755246042365,3.291415141046272,25.862103020126185,17.25818102879775,0.072334222151204,1.521488645848185,-4.462742466563501,4258.0361328125,11.879666666666669,0.13,178.44193412970915,1.1564711951238686,82.59260770808598,1553.0,1435.0,1200.0,1166.0,1471.0,993.0,107.0,294.2,1649342022.8697443,1649342023.82452,e40af217-3e74-474a-ad05-360ef88d67d3
0.4714114812462475,0.4327543176178237,1.3202518080403296,-0.1483128559571037,0.9406884070861604,-0.2265607545363351,1.0218290059817938,1.0016063124971673,3.0299325374802497,25.77788722314365,17.336466272953498,0.0663583782841615,1.5503886103709303,-4.468713306476746,4254.749674479167,11.87977777777778,0.1311111111111111,178.4427598236888,1.1781754611618902,82.53910380067765,1553.0,1435.0,1200.0,1166.0,1471.0,993.0,107.0,294.2,1649342023.9442034,1649342025.0212514,e40af217-3e74-474a-ad05-360ef88d67d3
0.2361155787333219,0.3179530593824626,0.4924625420586357,-0.2204334613806777,0.1872287282259815,-0.0001664884790656,0.2169316318066948,0.1956175961230622,-2.594398373420715,24.697816864301007,17.84530161398664,0.6866546095075045,1.1114957776872323,-1.1853993424753428,4269.584418402777,11.91,0.1344444444444444,178.5159323991771,1.2006289847223013,82.53278284005575,1553.0,1435.0,1200.0,1623.0,1471.0,993.0,107.0,294.2,1649342027.152629,1649342028.2912178,a6354d34-2894-45f5-a5a2-fe5ad962355f
0.2045718579077561,0.3236069983865787,0.4921206759718128,-0.2260874014556785,0.1857166281813606,-0.0010474512643095,0.217904635266513,0.1894377090406497,-2.456007053247068,24.55010383907589,17.77098848223131,0.6964904586703347,1.1330525656239474,-1.183572010696761,4283.815755208333,11.965333333333334,0.15,178.51712085209263,1.2229954115128274,82.56996259534776,1553.0,1435.0,1200.0,1623.0,1471.0,993.0,107.0,294.2,1649342028.399911,1649342029.515239,a6354d34-2894-45f5-a5a2-fe5ad962355f
0.2222684850960371,0.3167494480404423,0.491083446227585,-0.2240665478211855,0.1867543637255999,0.0040380599909922,0.2190318830614833,0.1902564681245415,-2.494663793076652,24.517334471075262,17.804212981886057,0.70307668894502,1.1069965965509772,-1.18595531585044,4281.672200520833,11.964222222222222,0.15,178.51595971993376,1.243222862586245,82.57748111580412,1553.0,1435.0,1200.0,1623.0,1471.0,993.0,107.0,294.2,1649342029.624451,1649342030.743186,a6354d34-2894-45f5-a5a2-fe5ad962355f
0.1596690618585284,0.2879871825537842,0.3130880420951713,-0.1814870192593318,0.0277481940484769,0.0010957863663848,0.0244741686404294,0.0077884728640788,-4.004195484503928,24.99987364125396,17.521565852163125,0.5939469351429855,0.995791574993137,-0.4545063446696407,4277.15869140625,11.966,0.1544444444444444,178.5478946488531,1.2243141004833649,82.61143170943853,1553.0,1435.0,1200.0,1712.0,1471.0,993.0,107.0,294.2,1649342032.680865,1649342033.8200436,3108e500-3af2-410a-be02-dd6e8bd39961
0.1574074861798484,0.2862384060591013,0.3137849229373733,-0.1807243948680831,0.0286028592990967,0.0035282951782428,0.0266042574533981,0.0107863756585839,-3.918137303257566,24.97963377367698,17.734150340831718,0.5976705476336859,0.9866893101687924,-0.4594897418658755,4281.431640625,11.965,0.15,178.55498286739174,1.231801031314822,82.57504046154071,1553.0,1435.0,1200.0,1712.0,1471.0,993.0,107.0,294.2,1649342033.9285612,1649342035.049096,3108e500-3af2-410a-be02-dd6e8bd39961
0.1577625009647539,0.2883158999397447,0.3164935541853255,-0.1788178337130037,0.0293654836865536,-0.0008896668236891,0.0273537331389957,0.0046196368976417,-3.815594591715262,25.109987378534743,17.6562987655821,0.5844802712102393,0.9943845847732762,-0.4651112179402568,4265.098795572917,11.969,0.16,178.53233851356345,1.2205523856559477,82.54645156640476,1553.0,1435.0,1200.0,1712.0,1471.0,993.0,107.0,294.2,1649342035.1575325,1649342036.4779751,3108e500-3af2-410a-be02-dd6e8bd39961
0.1048915945942973,0.2595334055225665,0.1500047704075182,-0.1216210006841438,-0.1185047594006285,-0.0156293556230243,-0.1602650216807473,-0.1929000891740343,-5.299402257613683,25.78825005822639,17.675555558846927,0.4177985943910238,0.8791789319130872,0.2260950164492463,4266.752712673611,11.967333333333334,0.1577777777777777,178.57197637804677,1.2057617414459254,82.57391651596728,1553.0,1435.0,1200.0,1801.0,1471.0,993.0,107.0,294.2,1649342037.5969822,1649342038.7344358,a4df4e9a-520c-478c-ad31-d227c4150f39
0.1016307179853712,0.2696579010684293,0.1557507505002906,-0.1321925531206972,-0.113876418033328,-0.0179961209965989,-0.152954345981509,-0.1836039595763231,-5.246948694124667,25.50272407247189,17.419055623920073,0.4347058302380713,0.920715051418474,0.2024742696385509,4258.271213107639,11.96688888888889,0.16,178.57830265103797,1.2079489435160795,82.5594501753052,1553.0,1435.0,1200.0,1801.0,1471.0,993.0,107.0,294.2,1649342038.843169,1649342039.9422083,a4df4e9a-520c-478c-ad31-d227c4150f39
0.0922031028990256,0.2569825585972049,0.144837332920482,-0.1234486695576935,-0.1219497180444452,-0.0149587720779112,-0.163736277762646,-0.1855631155457852,-5.32539295294975,25.648774865956696,17.145203775970835,0.4221487323682438,0.8743912270319855,0.2417396647479793,4240.492838541667,11.969666666666669,0.1666666666666666,178.56599768579326,1.2070939603571622,82.5684925868564,1553.0,1435.0,1200.0,1801.0,1471.0,993.0,107.0,294.2,1649342040.0499516,1649342041.194422,a4df4e9a-520c-478c-ad31-d227c4150f39
0.3073557166258199,0.3310992261423408,0.6807027996267515,-0.3044885361142678,0.3819745624202399,0.0441795128509745,0.4763164501972602,0.454342957836373,-0.0908639734384358,20.49249886773852,16.738673630940575,0.958493010214686,1.1751015986310498,-2.0737815084280182,7410.456217447917,11.643,7.7266666666666675,178.37331349584775,0.8836594769170529,71.1928762726324,1553.0,1435.0,1350.0,1528.0,1471.0,993.0,107.0,294.2,1649342046.1534588,1649342047.132405,59da2527-d4de-4d4b-a6e5-4e79a5dd6ffa
0.2688295332402124,0.3325086651408223,0.6739539790762467,-0.314578139156144,0.3762149281958385,0.0462221121992655,0.4751325619260378,0.4451666857511689,0.1341871696643619,20.09094132861756,15.8781971124024,0.9828207766094584,1.187228973517803,-2.0558610486938123,7421.14794921875,11.637666666666666,7.753333333333334,178.35480823665645,0.811057696543187,66.61479627072906,1553.0,1435.0,1350.0,1528.0,1471.0,993.0,107.0,294.2,1649342047.2415369,1649342048.3605378,59da2527-d4de-4d4b-a6e5-4e79a5dd6ffa
0.2996106292999169,0.3390698641096892,0.6967406674503603,-0.3053477527072027,0.3877068878957708,0.0559652962563908,0.4850861241265879,0.4669146275149463,-0.0664711070968448,21.437404139965626,19.494217290787937,0.9944294196135952,1.1815399046972854,-2.111464051728172,7427.57958984375,11.636444444444445,7.746666666666666,178.35659471057937,0.7781021879514506,62.94430573445776,1553.0,1435.0,1350.0,1528.0,1471.0,993.0,107.0,294.2,1649342048.4685495,1649342049.5855207,59da2527-d4de-4d4b-a6e5-4e79a5dd6ffa
0.4963151097093873,0.7193301254053579,0.7478364961598517,-0.3279109194987897,0.3710343422642606,-0.3149200052141984,0.4102306027393411,0.3956355510546991,0.1401639912366744,20.328348953397125,16.705196278418278,0.206749201153589,2.637001994299452,-2.0093466596881124,7430.442437065973,11.62922222222222,7.754444444444443,178.1626294807095,0.7765384422285043,56.98384363532298,1658.0,1435.0,1350.0,1528.0,1551.0,993.0,107.0,294.2,1649342050.703965,1649342051.9451177,a7d549e4-5285-4990-af49-ef2c1341fe41
0.5078202178850961,0.7206318462084182,0.740170806968666,-0.3361551530880978,0.3615935791015194,-0.3048743995108713,0.4037745934335982,0.3797124810841636,0.1407441057011996,20.415342631073795,17.17965917241171,0.2481909052090605,2.6382055333354217,-1.9761277270462605,7434.02099609375,11.622555555555556,7.736666666666666,178.18118482795475,0.8201805406866334,54.4877544182364,1658.0,1435.0,1350.0,1528.0,1551.0,993.0,107.0,294.2,1649342052.053323,1649342053.071626,a7d549e4-5285-4990-af49-ef2c1341fe41
0.4986292800446957,0.7215917009406634,0.7350822620267526,-0.3410990638135915,0.3593057060596872,-0.3089373473814287,0.4017102482546075,0.3775560951239767,0.1490954092266099,20.01028848583477,16.066558001700095,0.2471014108191532,2.651891096448611,-1.9644611818932385,7434.02099609375,11.61077777777778,7.774444444444445,178.21856265873268,0.8815206375665686,52.54593239611168,1658.0,1435.0,1350.0,1528.0,1551.0,993.0,107.0,294.2,1649342053.1801198,1649342054.2994585,a7d549e4-5285-4990-af49-ef2c1341fe41
0.7168187246678928,1.1089391137907492,0.8157889520283327,-0.3536297735426403,0.3586088252442744,-0.6773902085616897,0.3451840073663064,0.318294925378821,0.6227766847444985,20.203738656237533,16.089569810660763,-0.5470519875716134,4.107785300338741,-1.945999260842829,7440.47412109375,11.595888888888888,7.7666666666666675,178.08523584831423,0.9394043444903436,50.09597275885957,1767.0,1435.0,1350.0,1528.0,1630.0,993.0,107.0,294.2,1649342055.149125,1649342056.346995,e3290d36-5b78-4d57-b3ee-29be7ceab78b
0.7109149606227395,1.1171176024902894,0.8107135557206314,-0.3629653494396227,0.3500227272409665,-0.6759307027051185,0.3389383770980333,0.3144555061775735,0.677449434063081,20.279577583877508,16.169319920838042,-0.5224232529799195,4.138194764275224,-1.917466582849451,7434.02099609375,11.582,7.73,178.1329454785767,0.9941580460791568,48.86729534143532,1767.0,1435.0,1350.0,1528.0,1630.0,993.0,107.0,294.2,1649342056.4552896,1649342057.5784273,e3290d36-5b78-4d57-b3ee-29be7ceab78b
0.7227882321879464,1.1070851477010706,0.8015226178985109,-0.3664234572831072,0.3451577099438375,-0.6730642858168798,0.3350858093698977,0.3130485957700162,0.6950107362624129,19.95978359173358,14.68113458465831,-0.5109873732380439,4.113470100789723,-1.8960264307399377,7429.011013454861,11.570666666666666,7.772222222222222,178.11898457191316,1.096591780444013,47.76088817598311,1767.0,1435.0,1350.0,1528.0,1630.0,993.0,107.0,294.2,1649342057.6892674,1649342059.0097542,e3290d36-5b78-4d57-b3ee-29be7ceab78b
0.8823213491326674,1.4079667636075393,0.8577069919737583,-0.3870143194885574,0.3359799205563578,-0.9771806299746936,0.2824384329305882,0.2533666668860812,1.2065540837320154,20.085395040829766,10.674727278019835,-1.1446803108903016,5.279946299619895,-1.8542711289545408,7434.02099609375,11.549333333333331,7.766666666666666,177.92906888531127,1.1602308229490397,46.30317402512084,1886.0,1435.0,1350.0,1528.0,1710.0,993.0,107.0,294.2,1649342060.125589,1649342061.4683084,dc120c8a-80f7-4c69-b586-2171dbe53e38
0.873708953837967,1.3910706882943191,0.8612965856664441,-0.384713298139072,0.3389515257672463,-0.9529212714307208,0.2870404764108166,0.2564434620103886,0.992754700022439,20.677954280412024,12.095839562096613,-1.091131036546214,5.205447987164477,-1.8701765134224253,7434.02099609375,11.535666666666666,7.75,177.95808808236492,1.1960008082236118,45.73956844374376,1886.0,1435.0,1350.0,1528.0,1710.0,993.0,107.0,294.2,1649342061.5767157,1649342062.6983955,dc120c8a-80f7-4c69-b586-2171dbe53e38
0.8728805860389499,1.3794340915492802,0.8730515191277489,-0.3778102306706675,0.3521396671289259,-0.9457420784123411,0.3036341300085559,0.2818861877122812,1.2495360085991225,20.677738411265096,12.5067309119355,-1.0897914183875184,5.156239800815097,-1.9283766487454883,7434.02099609375,11.536555555555555,7.746666666666666,177.97266067041406,1.228993752418143,45.32565594440135,1886.0,1435.0,1350.0,1528.0,1710.0,993.0,107.0,294.2,1649342062.8123949,1649342063.9238822,dc120c8a-80f7-4c69-b586-2171dbe53e38
0.025276239120549,-0.1062633224320376,0.6347840167650796,-0.2200784467784368,0.4283363559909981,0.4030645638937635,0.5678703080237989,0.5355639643113962,-0.2418734012167891,20.847784621056025,18.057930729178555,1.5747502243406526,-0.4891952767680277,-2.255260300086995,7427.57958984375,11.559,7.783333333333333,178.9301014100683,1.550490898946251,44.40262949233518,1449.0,1435.0,1350.0,1528.0,1386.0,993.0,107.0,294.2,1649342066.1978753,1649342067.306749,7f545243-fa8c-4d67-bfb4-d57a49a741f3
0.0271039079426038,-0.1102342289244875,0.6226346226122087,-0.2173303689662334,0.4179883328998953,0.3983704796969809,0.5553658990795283,0.5316982480625496,-0.2475679024343108,20.79573155409052,17.10357132018371,1.556897978462964,-0.4966992595510704,-2.2085863862137605,7427.57958984375,11.625,7.800000000000001,178.91162802509314,1.5689013892628043,44.05654039199605,1449.0,1435.0,1350.0,1528.0,1386.0,993.0,107.0,294.2,1649342067.415158,1649342068.6349442,7f545243-fa8c-4d67-bfb4-d57a49a741f3
0.0500483829645001,-0.1014771967220192,0.630313460476294,-0.2209462608972563,0.4219592388249826,0.3990016170851281,0.560283511008025,0.5355771130732655,-0.2695132653025368,20.97645885012339,17.985629328521476,1.568182771093895,-0.4705823424690017,-2.229281194866465,7427.57958984375,11.627,7.816666666666666,178.9440987444074,1.5687413422780343,43.74972146428991,1449.0,1435.0,1350.0,1528.0,1386.0,993.0,107.0,294.2,1649342068.7459438,1649342069.8647645,7f545243-fa8c-4d67-bfb4-d57a49a741f3
-0.1886662080653578,-0.5279157807568299,0.5680938358141652,-0.1096030916561008,0.4438386675607427,0.7383036922664808,0.6143246473938706,0.5824653593198165,-0.6570922042886775,22.59670391800866,21.345898277616744,2.0874601551334537,-2.1146507370027594,-2.298032138119716,7434.02099609375,11.616,7.803333333333334,179.26663393739372,1.64919768604384,43.28243179549376,1342.0,1435.0,1350.0,1528.0,1293.0,993.0,107.0,294.2,1649342071.5207818,1649342072.7363925,320bf8b5-1c9f-498a-ae63-3e7a2bfc881a
-0.1955824229543173,-0.5328991379971025,0.5654115020407191,-0.1083671141477156,0.4453770648958028,0.7388559374566814,0.6144035395651634,0.5938126832233369,-0.7802573652621398,22.32167202450992,20.886289540584485,2.0838210169092584,-2.128723008442383,-2.297797141690619,7434.02099609375,11.583333333333334,7.796666666666667,179.2843787688574,1.667547356846066,43.14423999311148,1342.0,1435.0,1350.0,1528.0,1293.0,993.0,107.0,294.2,1649342072.844593,1649342073.9608805,320bf8b5-1c9f-498a-ae63-3e7a2bfc881a
-0.1916931478043899,-0.5318061523164016,0.5756702234430692,-0.1027750831933338,0.4536065044423288,0.736358233290798,0.6217728352341361,0.5995159296696403,-0.7588120541729818,22.56614886894456,21.479941519634096,2.0678309993289976,-2.130070959063733,-2.332548773216779,7436.172037760417,11.583333333333334,7.776666666666666,179.2843696619385,1.6321065368860257,43.044680879039646,1342.0,1435.0,1350.0,1528.0,1293.0,993.0,107.0,294.2,1649342074.0692568,1649342075.195608,320bf8b5-1c9f-498a-ae63-3e7a2bfc881a
-0.4260133599538765,-0.9904213747780248,0.5139080636322367,0.0051192873186045,0.4820224781178007,1.0965398938598667,0.6887988556980217,0.6693782332204344,-0.9734855425613108,24.015505366172565,22.929102871836857,2.6404795769065976,-3.878656271174621,-2.4357420220726222,7444.065700954861,11.541111111111112,7.756666666666667,179.47547987273526,1.7125431608521962,42.88477628474085,1227.0,1435.0,1350.0,1528.0,1189.0,993.0,107.0,294.2,1649342077.1269684,1649342078.2685795,fde29531-2403-4c8f-8c92-3ae72a2c39dd
-0.454506591033718,-0.999809549771688,0.5068209169790273,0.0049352055868329,0.4800633225320921,1.0902022225701122,0.6842231098464319,0.6639215248053344,-1.086588808952255,23.697885204782352,20.65727084362126,2.62377571510686,-3.893363937835197,-2.4211886747792826,7434.02099609375,11.475111111111111,7.731111111111113,179.499075899588,1.7303561400540144,42.87721222969001,1227.0,1435.0,1350.0,1528.0,1189.0,993.0,107.0,294.2,1649342078.3832085,1649342079.4910476,fde29531-2403-4c8f-8c92-3ae72a2c39dd
-0.4485765277484887,-0.99149956853759,0.5084250577886054,0.0053559638916876,0.4773415426709029,1.0918984043087825,0.6815276273768458,0.6626066553159782,-1.0992288178657383,24.032021113578768,22.101945409724458,2.629156963935864,-3.874855550789311,-2.412929531118441,7440.47412109375,11.482444444444448,7.734444444444446,179.52753957458916,1.7000073802737938,42.89944904889786,1227.0,1435.0,1350.0,1528.0,1189.0,993.0,107.0,294.2,1649342079.598995,1649342080.922973,fde29531-2403-4c8f-8c92-3ae72a2c39dd
0.2762585461831015,0.3273017817822179,0.6733228417146809,-0.2445876193914476,0.3852480818530612,-0.0070301081548317,0.4551202479929088,0.4317550167331589,-0.369052760440698,20.382686283848784,16.664021792097063,0.7070489952707316,1.1556446653715269,-2.03819062878722,7441.192437065973,11.495333333333331,7.747777777777778,178.6368571038826,1.5528423457216023,42.92068069193285,1553.0,1435.0,1350.0,1528.0,1471.0,993.0,107.0,294.2,1649342082.0395486,1649342083.1758566,54d23547-6833-45e6-82a5-67df5facc96f
0.2754827731435816,0.3279066217769045,0.6798708918099724,-0.2430229242731223,0.3948203319483028,-0.0090287099513774,0.4615762572768574,0.4381978772867249,-0.6435931843268216,20.195436417225377,16.722730266503955,0.6979842103440119,1.1595552693585611,-2.069291507828626,7446.93896484375,11.637333333333332,7.809999999999999,178.6596274367556,1.5311913456727335,42.93566271187726,1553.0,1435.0,1350.0,1528.0,1471.0,993.0,107.0,294.2,1649342083.2841308,1649342084.3037956,54d23547-6833-45e6-82a5-67df5facc96f
0.2658614680952983,0.3349174049721189,0.6790844987099507,-0.2478353478137715,0.3877397595531772,-0.0045591646624599,0.4572129133824145,0.4300810865311933,-0.5281838304964499,20.6318262443782,17.678401977405795,0.7219476813378383,1.1771130956626372,-2.050307493451508,7440.47412109375,11.638222222222222,7.818888888888889,178.66913202444064,1.5350649404217114,42.962806263093846,1553.0,1435.0,1350.0,1528.0,1471.0,993.0,107.0,294.2,1649342084.412557,1649342085.531865,54d23547-6833-45e6-82a5-67df5facc96f
0.2809263330906247,0.3209904080145785,0.6734937747482662,-0.5777362057911879,0.3465646203462521,0.3307335912145255,0.5451756604285998,0.5153807175108189,-0.2488174372722878,20.29752570748577,20.535380509550222,2.2176723276916057,1.137837539419552,-2.1120605849750205,7441.910753038194,11.632777777777775,7.815555555555556,178.6357172212011,1.5983163222594703,42.99221781656983,1553.0,1522.0,1350.0,1528.0,1471.0,993.0,107.0,294.2,1649342086.6452024,1649342087.7870562,24ced586-00bb-4216-8de2-d40e23a2bb44
0.2965469832669339,0.3226339949336947,0.6835919724842705,-0.562865025881389,0.360107776511711,0.3248824217953852,0.5518289001171881,0.5299757689837508,-0.5807168928648971,20.26262474620393,21.945070954488788,2.1713073335451223,1.13266566101028,-2.1516448751584574,7446.93896484375,11.633888888888889,7.783333333333333,178.64881145274992,1.6072045683776746,43.032263215673616,1553.0,1522.0,1350.0,1528.0,1471.0,993.0,107.0,294.2,1649342087.89497,1649342089.0217829,24ced586-00bb-4216-8de2-d40e23a2bb44
0.2949296937268248,0.3200042558605447,0.6956624744696859,-0.5479543997256792,0.3696011344922219,0.3282616365141415,0.5596260762468888,0.5331446044281514,-0.5660620463011858,20.79244167747934,24.079779230398323,2.1497270733179388,1.1027173252091935,-2.1895139535950223,7446.93896484375,11.632888888888887,7.809999999999999,178.65471425401267,1.606288860568168,43.08014360066531,1553.0,1522.0,1350.0,1528.0,1471.0,993.0,107.0,294.2,1649342089.134475,1649342090.2493222,24ced586-00bb-4216-8de2-d40e23a2bb44
0.322278980143163,0.3277751348173424,0.6794369848754829,-0.9190239123615704,0.3156388888801519,0.6517589819687669,0.6439486571566861,0.6219245930802314,0.0326176678116678,19.469133992628382,22.850772339987007,3.704235872321188,1.1831537425802117,-2.217040603968203,7446.93896484375,11.627,7.806666666666666,178.60735220448794,1.6820729992026653,43.11532780235481,1553.0,1613.0,1350.0,1528.0,1471.0,993.0,107.0,294.2,1649342091.153038,1649342092.2905054,350e66aa-29ad-4251-ac51-8f90c6a973db
0.3152970228962424,0.321503207132765,0.6813961404282145,-0.9177747857579422,0.3196492409595378,0.6582018425011681,0.6488136742953517,0.6320622369110477,0.0094523002117605,19.400453917870383,23.08365965797791,3.715563843704564,1.1576993258413102,-2.2325076378876085,7441.910753038194,11.617222222222225,7.825555555555557,178.5961385516906,1.6605559704684536,43.12015560773315,1553.0,1613.0,1350.0,1528.0,1471.0,993.0,107.0,294.2,1649342092.3980672,1649342093.5209706,350e66aa-29ad-4251-ac51-8f90c6a973db
0.3146527368251267,0.3189655089295398,0.6753082946520731,-0.9156841415738044,0.3141004915290666,0.6591222511498803,0.6423313676727269,0.6106430127143008,-0.0195301469606377,19.457808987028667,23.08576913984184,3.712978970609808,1.1477254817210467,-2.207751776470156,7440.47412109375,11.620444444444445,7.793333333333333,178.61303188623776,1.69160566655428,43.182363452873815,1553.0,1613.0,1350.0,1528.0,1471.0,993.0,107.0,294.2,1649342093.6312568,1649342094.7454655,350e66aa-29ad-4251-ac51-8f90c6a973db
0.3390304180090999,0.3122333768960295,0.6758342424602266,-1.2289257513994116,0.2795983146614901,0.9616605760248323,0.7278636284680016,0.7048665609200124,0.2464512920963483,19.107275232539827,24.48473251171556,5.097478658531572,1.1467885094274557,-2.284513336905353,7440.47412109375,11.618333333333332,7.800000000000001,178.586383523736,1.765681558276203,43.27168563119962,1553.0,1710.0,1350.0,1528.0,1471.0,993.0,107.0,294.2,1649342096.5148065,1649342097.6125386,e24f5aa4-6a86-4eaf-a3d5-80b58be1cb4d
0.3361114076480683,0.3141136403272748,0.6849068419845445,-1.231121585461568,0.282004525918661,0.9720085992341804,0.7331625525533031,0.7106256893889328,0.2817931348862953,19.754508874946406,25.97669610631671,5.130683274742963,1.141223749175835,-2.30563055370022,7440.47412109375,11.597,7.795555555555556,178.59069413201223,1.7509085587215365,43.28989871007641,1553.0,1710.0,1350.0,1528.0,1471.0,993.0,107.0,294.2,1649342097.7220738,1649342098.8439915,e24f5aa4-6a86-4eaf-a3d5-80b58be1cb4d
0.3271308487289041,0.3174665576522175,0.6741117634077244,-1.2273216090841084,0.2746807024509199,0.9534952362390396,0.7224858122232121,0.7095737937528999,0.3935471660168474,19.291136409697945,24.23270109342416,5.076678436784084,1.167305176601035,-2.2674913580496048,7445.502332899306,11.6,7.79,178.5904861906975,1.7418139128243513,43.32518119059896,1553.0,1710.0,1350.0,1528.0,1471.0,993.0,107.0,294.2,1649342098.951596,1649342100.276964,e24f5aa4-6a86-4eaf-a3d5-80b58be1cb4d
0.3473798395321684,0.3001234284354088,0.6747297520792328,-1.4859041226672358,0.2414276514963766,1.2241611356550726,0.7913981227445626,0.7688744081701188,0.5824594018985769,19.84099327875141,26.703172828476795,6.27236439065946,1.1109106389899133,-2.3221333080234263,7441.910753038194,11.566666666666666,7.782222222222223,178.59705076139977,1.809741602650107,43.41275408158733,1553.0,1814.0,1350.0,1528.0,1471.0,993.0,107.0,294.2,1649342102.2162943,1649342103.4378805,200afdc1-e28b-4920-a52d-7819253bc72e
0.3443161935360913,0.3125226481965428,0.6849462880654624,-1.470559577362328,0.2509999019442064,1.202386895084222,0.7942250921545014,0.7712937680386537,0.5511507087908533,19.85557570032953,27.39334762644177,6.189520871753253,1.1502785244191522,-2.350541924262938,7446.220648871527,11.560222222222222,7.771111111111111,178.58342073945607,1.8058473038902072,43.48103700053977,1553.0,1814.0,1350.0,1528.0,1471.0,993.0,107.0,294.2,1649342103.5466263,1649342104.49656,200afdc1-e28b-4920-a52d-7819253bc72e
0.3543749454431361,0.3080520917543905,0.6786349144800355,-1.48050000278712,0.2428608594636056,1.2199535529653045,0.7897150897558989,0.7588551025563995,0.4526471364062138,20.102996920380992,27.92219985801056,6.25277930069812,1.1303491675754318,-2.3244845038826627,7440.47412109375,11.555714285714284,7.775714285714286,178.58177672376445,1.7975795530153746,43.51194257658491,1553.0,1814.0,1350.0,1528.0,1471.0,993.0,107.0,294.2,1649342104.6056993,1649342105.804734,200afdc1-e28b-4920-a52d-7819253bc72e
0.2766267096656916,0.3389646745439128,0.6879967852982024,0.0312851931726934,0.4169758833808926,-0.2674663535308656,0.381632190694004,0.3640523851185602,-0.6670327700691445,22.12796856906808,17.132404599770823,-0.4882624790904,1.1643393690806614,-1.9932098849024225,7446.93896484375,11.574444444444444,7.7844444444444445,178.52311624036412,1.2495357479324003,43.58383628046286,1553.0,1349.0,1350.0,1528.0,1471.0,993.0,107.0,294.2,1649342107.5374086,1649342108.6715703,78ed838c-e4e9-4617-bf21-0efee2ebbdd8
0.2881131066004359,0.3357644843911304,0.6699689130570048,0.0207141470059074,0.413101569765132,-0.2874331571697919,0.3784851010476094,0.3667903479325267,-0.4386908114898776,20.327362717110628,12.40618740404576,-0.5227574088923135,1.192737019803232,-1.965125307114742,7446.93896484375,11.637,7.814444444444444,178.51756860893823,1.264241382374784,43.63766348349191,1553.0,1349.0,1350.0,1528.0,1471.0,993.0,107.0,294.2,1649342108.779173,1649342109.910052,78ed838c-e4e9-4617-bf21-0efee2ebbdd8
0.2899336952009093,0.3409481046712074,0.7003626272000213,0.0369603727828286,0.4334314753525726,-0.2672928917853112,0.3957174775804443,0.3753622859432326,-0.8753485161469471,21.80532939932423,18.282385079012087,-0.5021191271316012,1.1631403182474824,-2.050635008370886,7440.47412109375,11.638333333333332,7.779999999999999,178.49551013355875,1.2378344243715032,43.67762274632116,1553.0,1349.0,1350.0,1528.0,1471.0,993.0,107.0,294.2,1649342110.023667,1649342111.136036,78ed838c-e4e9-4617-bf21-0efee2ebbdd8
0.2603354759245383,0.3526130202812592,0.6990679864724711,0.3563866957412716,0.4598143320983545,-0.5926468316396822,0.2961919683948842,0.2793879355779903,-1.1336869638521274,22.934019735299373,15.07154915050502,-1.947004503322801,1.1977857090326065,-1.9440618392169973,7434.02099609375,11.630777777777777,7.79,178.48002837144,1.119592288320456,43.746212644331294,1553.0,1264.0,1350.0,1528.0,1471.0,993.0,107.0,294.2,1649342112.048124,1649342113.40213,3082439b-1e96-49fb-b3c0-fa9206eb0f48
0.2532088829407192,0.3503251472954543,0.6855511280410035,0.3457231038203495,0.4469154622025584,-0.5878870023551211,0.2854626329099858,0.2539320608879033,-1.139554326706854,22.79768472149103,13.942606314196093,-1.91401382468259,1.1997058214559058,-1.894702613915797,7434.02099609375,11.625666666666667,7.808888888888889,178.52083799282093,1.1318543751553984,43.850212140273534,1553.0,1264.0,1350.0,1528.0,1471.0,993.0,107.0,294.2,1649342113.5099475,1649342114.613693,3082439b-1e96-49fb-b3c0-fa9206eb0f48
0.2527092325198374,0.3483528430029647,0.6894036956630362,0.3437245021516595,0.4512282342183221,-0.5889520468401002,0.2908535980782541,0.2620316575021472,-1.0811555437188805,22.706832958124973,13.291616127518887,-1.912383576452468,1.198153620679408,-1.914600035077464,7434.02099609375,11.615222222222222,7.79,178.5473588584582,1.1054318832149426,43.92641238683888,1553.0,1264.0,1350.0,1528.0,1471.0,993.0,107.0,294.2,1649342114.7227676,1649342115.8393471,3082439b-1e96-49fb-b3c0-fa9206eb0f48
0.2506711847336511,0.3490497238529716,0.6690889619367943,0.6206097235921,0.4602613877716323,-0.8775003065894539,0.1892536273121086,0.1666641680105883,-1.2456139553874446,23.278341058908342,8.142585683265292,-3.183501777276005,1.2121984201059692,-1.7596553309278686,7436.889051649306,11.614333333333333,7.788888888888888,178.54603835521868,1.0314974926169185,43.99446649445411,1553.0,1178.0,1350.0,1528.0,1471.0,993.0,107.0,294.2,1649342117.5726178,1649342118.9180844,0aa28c09-d5c8-4927-aa5e-9843a98e6695
0.2338540030815857,0.3480372743031056,0.6882334618097882,0.6364539010268679,0.474185855873435,-0.8671654260915624,0.1996410969379199,0.1707402634157383,-1.5232667882810325,24.250558792048164,11.646194666174358,-3.1882015540449924,1.1785932692179977,-1.8151418012300369,7432.589572482639,11.600555555555555,7.802222222222222,178.54537051449984,1.0063630486594732,44.04581206208473,1553.0,1178.0,1350.0,1528.0,1471.0,993.0,107.0,294.2,1649342119.0267513,1649342120.1492398,0aa28c09-d5c8-4927-aa5e-9843a98e6695
0.246108587376824,0.3460781187195315,0.6908894981908749,0.6380843391995746,0.4813124486089261,-0.868861608652146,0.2063337830509087,0.1901082925043217,-1.5425827029655432,23.81403604702582,11.387117089044423,-3.1985035025360764,1.173638389515196,-1.838420426441306,7427.57958984375,11.602888888888888,7.793333333333333,178.53706348664926,0.999907666120165,44.05911119930866,1553.0,1178.0,1350.0,1528.0,1471.0,993.0,107.0,294.2,1649342120.2571,1649342121.3784344,0aa28c09-d5c8-4927-aa5e-9843a98e6695
0.2279072526469931,0.3384068664308698,0.6609671141992016,0.7830476900071718,0.458957644001421,-0.996653861662374,0.1244371309196723,0.1009211939427163,-2.007918025144958,25.46287172366961,10.68085473460325,-3.803577985643833,1.1347025961072463,-1.6522369124389136,7422.577202690973,11.583777777777778,7.803333333333332,178.573891866654,0.9654281122800328,44.21396980163063,1553.0,1088.0,1350.0,1528.0,1471.0,993.0,107.0,294.2,1649342123.7149494,1649342125.0652795,abd3746a-9dae-40ac-9933-b3918cdc9efb
0.2052292926801355,0.3424096327156875,0.6540863009712966,0.7711754298297935,0.4539237166816942,-0.9962725489896934,0.1220637914302557,0.0984487334390611,-1.968859725854235,24.994395062129684,9.708857435059532,-3.779523702903134,1.159071323254797,-1.6333931783821405,7427.57958984375,11.576666666666666,7.773333333333331,178.54335788542437,0.9566007212500588,44.28363279825036,1553.0,1088.0,1350.0,1528.0,1471.0,993.0,107.0,294.2,1649342125.1798944,1649342126.2882926,abd3746a-9dae-40ac-9933-b3918cdc9efb
0.2024286204852139,0.3354145268050938,0.6516011976322622,0.7675200926134138,0.4519119663509494,-0.9883175830613226,0.1217087766786781,0.0971338637472419,-1.999939031524684,25.061758546748173,9.375491244507034,-3.7531482530063793,1.1363036613130524,-1.6281581911632172,7427.57958984375,11.568777777777775,7.794444444444445,178.5616734171387,0.9612087510622902,44.26688555386043,1553.0,1088.0,1350.0,1528.0,1471.0,993.0,107.0,294.2,1649342126.396871,1649342127.518761,abd3746a-9dae-40ac-9933-b3918cdc9efb
0.2785727165741383,0.3255530053023441,0.6869580384000785,-0.2909499284313172,0.3921774442071837,0.0544268987866933,0.4808390955799593,0.4512150855328929,-0.5823947037713171,20.65488644377895,19.235816052509183,0.952519063592448,1.134379132188026,-2.100084837077868,7434.02099609375,11.598777777777777,7.806666666666666,178.55501018814843,1.2660619005218403,44.25795090751616,1553.0,1435.0,1350.0,1528.0,1471.0,993.0,107.0,294.2,1649342129.655611,1649342130.7937305,8630d969-fe20-4546-94d4-01e2283a6bdd
0.2736682531789534,0.3315093642897564,0.6928486537411382,-0.2954993779932101,0.4001455535258237,0.0492857583827028,0.4904507916914287,0.4654419736450357,-0.4815743821145296,20.151228217153843,18.80454770987916,0.9481651840334984,1.160752865320033,-2.1323024735872584,7434.02099609375,11.638666666666667,7.800000000000001,178.55418449416877,1.2511902308211955,44.26206989104063,1553.0,1435.0,1350.0,1528.0,1471.0,993.0,107.0,294.2,1649342130.902044,1649342132.02798,8630d969-fe20-4546-94d4-01e2283a6bdd
0.2862778521075834,0.3268810235389865,0.6745456703501115,-0.3187594250410148,0.3831968853813596,0.047970888903451,0.4826667641967628,0.4572634850923409,0.0445870270599905,19.47593243099245,14.835370299514796,0.9919236268331364,1.1765404971607871,-2.0789030366855674,7436.172037760417,11.637333333333334,7.819999999999999,178.5558070435516,1.2606919133042316,44.24256628586566,1553.0,1435.0,1350.0,1528.0,1471.0,993.0,107.0,294.2,1649342132.146452,1649342133.2511072,8630d969-fe20-4546-94d4-01e2283a6bdd
