raw_voltage_G-,raw_voltage_G0,raw_voltage_G1,raw_voltage_G2,raw_voltage_G3,raw_voltage_G4,raw_voltage_G5,raw_voltage_G6,load_x,load_y,load_z,load_l,load_m,load_n,rpm,voltage,current,roll,pitch,yaw,aileron1_pwm,elevator_pwm,throttle_pwm,rudder_pwm,aileron2_pwm,pbaro,pdiff,Tt,sample_start_time,sample_end_time,uid
-0.0244652796431475,0.1260741438737369,0.0662344280433731,0.0002411211452974,-0.1222652867284368,-0.025083268390987,-0.2841651998514863,-0.3178653141273673,-13.657612981191894,26.44283895169105,12.934465347239176,0.1168683771253476,0.4594997547697225,0.4939319135412202,4226.683919270833,11.954888888888888,0.12,179.08628506908929,1.0860705973636142,87.53139000005768,1553.0,1435.0,1200.0,1528.0,1471.0,993.0,107.0,294.2,1649337245.667673,1649337246.6456244,3934b076-0c34-4d69-b316-2f890989e0d0
-0.0176411061121318,0.1286381395818209,0.0696004942601262,0.0028577117289903,-0.1208715248441863,-0.0271344650569988,-0.2832842370830314,-0.3149988977720268,-13.631537669289068,26.62476142635312,13.35630290776237,0.1078106397317198,0.4650873248966452,0.4870626590916859,4633.567545572917,11.95522222222222,0.1144444444444444,179.08634578188187,1.0967904369703418,87.47600475498797,1553.0,1435.0,1200.0,1528.0,1471.0,993.0,107.0,294.2,1649337246.75504,1649337247.8750584,3934b076-0c34-4d69-b316-2f890989e0d0
-0.0138542815289964,0.1263634151841766,0.0651825323483749,0.0057635736526432,-0.1242112939042879,-0.0295669739385128,-0.288109809285763,-0.3248735704317829,-13.651590105404244,26.613083972629056,13.038897912720213,0.0954314685848674,0.4588727569921713,0.5037976350210269,4675.040744357639,11.955666666666666,0.1177777777777777,179.09067460399584,1.09169618306657,87.40947415901259,1553.0,1435.0,1200.0,1528.0,1471.0,993.0,107.0,294.2,1649337247.9966538,1649337248.945425,3934b076-0c34-4d69-b316-2f890989e0d0
0.2015608065814162,0.5046119363033115,0.0919927237823102,-0.1741368973333267,-0.1858523867397633,-0.2269289179579812,-0.3423218922710742,-0.3758642228186968,-13.044332435551562,25.598656636745844,14.021598430601989,0.0528167482168701,1.8883590316752603,0.6748139928677332,4676.17333984375,11.936333333333334,0.11,178.85699106519246,1.0716361190596868,87.31200204718715,1658.0,1435.0,1200.0,1528.0,1551.0,993.0,107.0,294.2,1649337250.8326604,1649337251.971557,7ba7596a-ee4a-4e8e-b956-eb6085e3851f
0.2025601074286676,0.4960784332127522,0.0882584940885306,-0.168351470536218,-0.1872592973657036,-0.2240230557981789,-0.3462796504973953,-0.3686455875330783,-13.201552499548097,25.701515233199657,13.97341410072962,0.0467052039887224,1.8569457325171368,0.6862534763610086,4674.19091796875,11.929333333333334,0.11,178.86225334649302,1.076950136671597,87.29469283001053,1658.0,1435.0,1200.0,1528.0,1551.0,993.0,107.0,294.2,1649337252.0803003,1649337253.2010422,7ba7596a-ee4a-4e8e-b956-eb6085e3851f
0.2014819144027905,0.5024424016180029,0.0960293734771089,-0.1773057334094903,-0.1811583017510379,-0.2209725579265303,-0.3358264352349828,-0.3608615574104836,-13.062435205869372,25.528630077772547,14.192717993774636,0.0731045509917363,1.87947832213417,0.6536370657101079,4673.341851128473,11.933222222222222,0.1088888888888888,178.85758756837998,1.0670561451981089,87.2978992243709,1658.0,1435.0,1200.0,1528.0,1551.0,993.0,107.0,294.2,1649337253.309373,1649337254.428572,7ba7596a-ee4a-4e8e-b956-eb6085e3851f
0.4081925550383096,0.8977973632939971,0.1081656199330805,-0.3755749509627664,-0.264284368476734,-0.4230023077779624,-0.4137061775974686,-0.4400956171332296,-12.81222343245338,24.906461389243592,14.340121756742631,0.0629928260809743,3.3843924351323187,0.9079366697341152,4621.965881347656,11.905625,0.10375,178.45581022819044,1.073624122101508,87.28319657813628,1767.0,1435.0,1200.0,1528.0,1630.0,993.0,107.0,294.2,1649337255.3397448,1649337256.4730368,a55349a2-77ef-421f-8b14-3afe894b96a0
0.408166257634049,0.8877912062852438,0.1067324120598835,-0.3636490812913016,-0.2655992382701709,-0.4239095680203777,-0.4173352185171285,-0.4503778995027528,-12.768689999781996,25.247466025999817,14.354708094754852,0.0362656865740471,3.344872461037688,0.9156530542375988,4610.497450086806,11.904222222222224,0.1,178.4603073385765,1.066135302888757,87.31362839111952,1767.0,1435.0,1200.0,1528.0,1630.0,993.0,107.0,294.2,1649337256.5814917,1649337257.708421,a55349a2-77ef-421f-8b14-3afe894b96a0
0.4143724417758334,0.9036748300351128,0.1259163595083576,-0.3712095830407659,-0.2499128416810262,-0.4317330440079361,-0.3997422593686522,-0.4128646609664512,-12.705514899167602,25.10708095165829,14.60805726566464,0.0358367199822378,3.4038977808441846,0.8454039097820234,4606.6435546875,11.902,0.1066666666666666,178.46094026943956,1.0584928073841722,87.3502488298095,1767.0,1435.0,1200.0,1528.0,1630.0,993.0,107.0,294.2,1649337257.8160183,1649337258.935496,a55349a2-77ef-421f-8b14-3afe894b96a0
0.5367079008620359,1.080958689519517,0.1539756765513334,-0.4842620978234072,-0.2762759810834088,-0.5273635353918726,-0.4190576981485556,-0.4519951896232057,-12.57534066873556,25.68511072506026,10.936401760451693,0.0806702515144938,4.116148288925823,0.8856999538613387,4616.846462673611,11.847333333333331,0.1,178.33644717034767,1.0718155182471056,87.42634852081206,1872.7777777777776,1435.0,1200.0,1528.0,1701.111111111111,993.0,107.0,294.2,1649337260.630254,1649337261.5966425,6af5fd18-1e3c-43cb-8c52-8f316a66e3e4
0.5334996192744278,1.0871648738388362,0.1625354775543528,-0.4873520422739299,-0.269320319808058,-0.5303482903289127,-0.4111421813152028,-0.4370056726338931,-12.53920286201645,25.64509039055832,11.0357265231361,0.0811282113825937,4.139211571393754,0.8541937733262016,4624.871256510417,11.844333333333331,0.1,178.3416214180989,1.0779405259592163,87.38367577560754,1886.0,1435.0,1200.0,1528.0,1710.0,993.0,107.0,294.2,1649337261.7048447,1649337262.8318455,6af5fd18-1e3c-43cb-8c52-8f316a66e3e4
0.5232304884668519,1.0771981625931184,0.1553299922372228,-0.4753867256722811,-0.2736593901447527,-0.532991178942214,-0.4189393598364711,-0.4431066690487422,-12.554551520239706,25.72658628744273,10.77956701317058,0.0483313667028773,4.102280720007661,0.8795206028839593,4635.152126736111,11.845777777777778,0.1,178.33874211390878,1.0650626667398824,87.36390010123064,1886.0,1435.0,1200.0,1528.0,1710.0,993.0,107.0,294.2,1649337262.951247,1649337264.0613258,6af5fd18-1e3c-43cb-8c52-8f316a66e3e4
-0.2405904149499716,-0.3259386140496653,0.0420539756485867,0.2193772892204088,-0.0449378003267301,0.2122112500883076,-0.209848759734106,-0.2362776421878394,-13.817353376212663,27.83449910995706,12.570244915075062,0.163666327859906,-1.2599538919205997,0.2617901657947447,4631.81494140625,11.948333333333332,0.1188888888888888,179.26975761057415,1.0189774475611348,87.33846599458133,1449.0,1435.0,1200.0,1528.0,1386.0,993.0,107.0,294.2,1649337265.150308,1649337266.103366,9d42ba65-3ac3-4110-b25e-5d5ec00dc1df
-0.2477170092249022,-0.311238369356386,0.0481812681192473,0.2147883944383074,-0.0410852321916604,0.2028493787605114,-0.2049048494362209,-0.2324776694267721,-13.682932422046049,27.618698816942995,12.730677064367253,0.1519481452511133,-1.2062425722009875,0.2432989226774409,4649.119791666667,11.946666666666667,0.11,179.3185342681669,1.0286038995761966,87.27836108879512,1449.0,1435.0,1200.0,1528.0,1386.0,993.0,107.0,294.2,1649337266.2131956,1649337267.330826,9d42ba65-3ac3-4110-b25e-5d5ec00dc1df
-0.2575653839474433,-0.3179836515654359,0.0442892540075554,0.2200741700910752,-0.0450561386048524,0.2043088839909206,-0.2101117336979713,-0.2363039396779851,-13.692719717740829,27.85945367848361,12.652710453640688,0.1446892752723161,-1.231674635421153,0.260440724708975,4659.230143229167,11.944555555555556,0.1122222222222222,179.325759090489,1.0178244143939046,87.23997618456957,1449.0,1435.0,1200.0,1528.0,1386.0,993.0,107.0,294.2,1649337267.4437835,1649337268.5740726,9d42ba65-3ac3-4110-b25e-5d5ec00dc1df
-0.498344355043711,-0.7659993083507248,0.0174922108641604,0.4464815553324503,0.0292734428209363,0.4381584313187216,-0.1446706667007667,-0.1653930137692047,-14.183473546340371,29.52296110601319,13.2610169518038,0.1690040537076419,-2.9434698825784853,0.0501615843875597,4658.3837890625,11.903,0.11,179.46174512122428,1.009700568422344,87.21821671969371,1342.0,1435.0,1200.0,1528.0,1293.0,993.0,107.0,294.2,1649337269.15265,1649337270.1995003,aa3deda5-a63b-4588-aa5a-690eace1bd38
-0.4912309085679316,-0.7568872578667399,0.0242243434235503,0.4400649921138103,0.0328893343286255,0.4346082836307914,-0.1389904295022665,-0.1713756715507842,-14.083277404412817,29.511254469946856,13.2330055270463,0.1758041739377766,-2.9085384532523686,0.0290541888101491,4658.3837890625,11.904333333333334,0.11,179.4554021522151,0.9899947967627204,87.09552527272288,1342.0,1435.0,1200.0,1528.0,1293.0,993.0,107.0,294.2,1649337270.3085546,1649337271.4292495,aa3deda5-a63b-4588-aa5a-690eace1bd38
-0.484722302312653,-0.7478672483522314,0.023369678131868,0.4305058907493583,0.030351635898223,0.4333591575932615,-0.1407786523620957,-0.1532962126246235,-14.16600917470658,29.426603452449008,13.051891512838417,0.1938859774953096,-2.871395856249789,0.0369507246870081,4637.944715711806,11.90322222222222,0.1022222222222222,179.47391196486583,0.986292964670214,87.00094005418663,1342.0,1435.0,1200.0,1528.0,1293.0,993.0,107.0,294.2,1649337271.537893,1649337272.8577626,aa3deda5-a63b-4588-aa5a-690eace1bd38
-0.6926032556515632,-1.1307180600309077,0.0040805404973345,0.623712815608469,0.0918217907134796,0.6376372835778047,-0.0827403036170062,-0.1035941375406648,-14.2735903575356,31.29126762837145,14.182718828566422,0.2286254363446965,-4.341559345022267,-0.1469913987241215,4609.946451822917,11.798666666666668,0.09,179.6089265909192,0.9657613923092208,86.8773925568398,1227.0,1435.0,1200.0,1528.0,1189.0,993.0,107.0,294.2,1649337273.7800696,1649337274.910321,e907ca26-cf8e-4c45-bb15-3a2caad466ea
-0.6825050530442115,-1.1197388903801389,0.0099843051933999,0.6192159619291729,0.0947933960311485,0.6312733152152501,-0.0787299510580813,-0.104580289429114,-14.18288059782514,31.25478685773203,14.256739331147816,0.2245781427777736,-4.300751539330376,-0.1633243421666712,4605.8173828125,11.807,0.0888888888888888,179.59717411208734,0.963164533042441,86.66880465086687,1227.0,1435.0,1200.0,1528.0,1189.0,993.0,107.0,294.2,1649337275.019379,1649337276.1425683,e907ca26-cf8e-4c45-bb15-3a2caad466ea
-0.6873174777088722,-1.1281277648509296,0.0033310648149415,0.6228187043504985,0.0912826941846912,0.6356912767237606,-0.0835029280238137,-0.1010432903820318,-14.27791548779349,31.20476707587092,14.14510231121749,0.2256504800984759,-4.331419052279276,-0.1438646889311445,4604.443142361111,11.811777777777776,0.09,179.61540009243254,0.951146222299438,86.5342377816591,1227.0,1435.0,1200.0,1528.0,1189.0,993.0,107.0,294.2,1649337276.2519171,1649337277.3673022,e907ca26-cf8e-4c45-bb15-3a2caad466ea
-0.0072404871767811,0.1266395378045875,0.0720461517464696,0.0015296934089956,-0.1165324548151059,-0.0237683987226995,-0.2759998583793137,-0.2912917943808593,-13.46745484444527,26.33392605100586,13.422632574067936,0.116657287213358,0.4561557537815804,0.4675217735516471,4621.549967447917,11.965333333333334,0.12,179.15822972834673,0.9321888425305908,86.38209683571687,1553.0,1435.0,1200.0,1528.0,1471.0,993.0,107.0,294.2,1649337278.2776814,1649337279.4188335,e338c36e-5980-4d43-b126-645d88cc1616
-0.0046501939777327,0.1248776125483219,0.0686669368338605,0.0022923178017975,-0.1183206776099137,-0.0243863874579851,-0.2787347875587797,-0.3113435592782381,-13.517796426426353,26.240179296803536,13.167204295339047,0.1126925119067352,0.451857913084994,0.4778941008422419,4643.802300347223,11.960666666666668,0.1188888888888888,179.13723524465794,0.9371602241771062,86.60464033598396,1553.0,1435.0,1200.0,1528.0,1471.0,993.0,107.0,294.2,1649337279.5284188,1649337280.6450517,e338c36e-5980-4d43-b126-645d88cc1616
-0.0088051820652552,0.119289416752676,0.0683119220380286,0.0068680641556919,-0.118136595845218,-0.0218092429436009,-0.2792738841800116,-0.3105546372728362,-13.53731695716684,26.37584090163773,13.349092632041014,0.1090627447433603,0.4288412934071296,0.4784460143402866,4649.962456597223,11.967999999999998,0.1177777777777777,179.15089562299795,0.9535496425455056,86.7148537862511,1553.0,1435.0,1200.0,1528.0,1471.0,993.0,107.0,294.2,1649337280.753299,1649337281.8712738,e338c36e-5980-4d43-b126-645d88cc1616
-0.0185352174713735,0.1132410165982797,0.0431058713533156,-0.3158141163540532,-0.1749652652733991,0.2972964589196932,-0.2133331645869502,-0.2370402665529254,-13.35796319763126,25.641237923107543,15.7926147586959,1.5483827348981942,0.421348514158035,0.4966339327492444,4669.380696614583,11.968333333333334,0.12,179.15920872212777,1.0492845028703297,87.05756611695557,1553.0,1522.0,1200.0,1528.0,1471.0,993.0,107.0,294.2,1649337283.8053162,1649337284.9458225,7264141e-0312-4bb4-b0eb-d33d4ddd570e
-0.007467049313,0.1190385800926307,0.0466322505530477,-0.3217462021700364,-0.1717751890007301,0.2955218907536975,-0.2086294708785453,-0.2264560706119697,-13.32373132405788,25.44170989360937,15.605368120180652,1.5566166534996009,0.4454607161046869,0.4812762599111462,4673.907280815973,11.96511111111111,0.12,179.15069223514266,1.0603609708438766,87.10718136999645,1553.0,1522.0,1200.0,1528.0,1471.0,993.0,107.0,294.2,1649337285.0546367,1649337286.1707914,7264141e-0312-4bb4-b0eb-d33d4ddd570e
0.013573899309846,0.1175669375820705,0.0482207141921056,-0.3186673839004433,-0.1701922881383293,0.2933781476781439,-0.2077186707249882,-0.2329510222406596,-13.298816582030716,25.49500869047988,15.507572030376032,1.54528368810269,0.4403541214054816,0.4753647979396116,4676.17333984375,11.968,0.12,179.15778956060024,1.0589245441159276,87.15139773795339,1553.0,1522.0,1200.0,1528.0,1471.0,993.0,107.0,294.2,1649337286.2795002,1649337287.4125566,7264141e-0312-4bb4-b0eb-d33d4ddd570e
0.0120157787850514,0.1102474968040588,0.025479496062647,-0.6077261995621903,-0.2240855121004163,0.5822582675260528,-0.1518087656991056,-0.1821329490416033,-13.184832183300074,25.22349117770889,17.84441463500084,2.843979357461059,0.4255266881909259,0.5002312195219827,4678.72607421875,11.958000000000002,0.12,179.1453798657882,1.1562183358289704,87.28711283785164,1553.0,1613.0,1200.0,1528.0,1471.0,993.0,107.0,294.2,1649337289.261646,1649337290.21683,b2b10ccf-c2ca-4461-8772-528c3c770b1a
0.0136264941174987,0.1141877227089784,0.0264727705023236,-0.6079913650349197,-0.2256140482012047,0.5791518883355082,-0.1517709631933245,-0.1829333764142672,-12.99063831113418,25.302104865763784,17.91888245015959,2.838277277911513,0.4383674172010774,0.5015883887983353,4677.307888454861,11.955999999999998,0.12,179.1575634054477,1.163925137090272,87.27629837166579,1553.0,1613.0,1200.0,1528.0,1471.0,993.0,107.0,294.2,1649337290.3258488,1649337291.4987595,b2b10ccf-c2ca-4461-8772-528c3c770b1a
0.0142050367588755,0.1069164938138938,0.0294838219601344,-0.6018509218909993,-0.2188424689122283,0.57986191786427,-0.1483128558301256,-0.1786863468110419,-13.220120217985103,25.24451716995032,17.837697429838656,2.8256611915096137,0.4128735332604447,0.4822599194309188,4673.6240234375,11.957555555555556,0.1122222222222222,179.17228018637934,1.1668606124715293,87.27334014084525,1553.0,1613.0,1200.0,1528.0,1471.0,993.0,107.0,294.2,1649337291.607782,1649337292.7274926,b2b10ccf-c2ca-4461-8772-528c3c770b1a
0.0264727704720778,0.102524829337027,0.0089981529935756,-0.8867175474485534,-0.2710822453155293,0.8594294709161953,-0.0930357332604894,-0.1128113737847797,-13.091920497184256,25.015850063375805,19.813146792834395,4.09431964532862,0.4117570160489726,0.5025743312207412,4644.928059895833,11.931333333333331,0.1066666666666666,179.151076243556,1.2373582795521754,87.24000046968662,1553.0,1710.0,1200.0,1528.0,1471.0,993.0,107.0,294.2,1649337293.840505,1649337294.9808338,1a9e6359-add2-4ce6-a233-4bc7c174b145
0.0364789284118531,0.1109268461019903,0.0170451551862189,-0.8893998829042146,-0.2662040783899544,0.8535651529006562,-0.0866586152652528,-0.1049616016650539,-12.941546788829694,25.04345211639019,19.85304889700224,4.0878581505939255,0.4426925858665628,0.4770247203891209,4625.148003472223,11.93622222222222,0.1088888888888888,179.15576630678606,1.2329671082460922,87.18315887650384,1553.0,1710.0,1200.0,1528.0,1471.0,993.0,107.0,294.2,1649337295.0905564,1649337296.4143105,1a9e6359-add2-4ce6-a233-4bc7c174b145
0.0054874510275026,0.1018805432321897,0.0089455582063189,-0.8840746581120519,-0.2733175239712003,0.8586405492086538,-0.0959415952882418,-0.122804384076725,-13.076991762951671,25.303020406125643,19.94221544806496,4.088514279144928,0.407767097033522,0.5098477167677037,4622.099934895833,11.926666666666668,0.11,179.16489447515684,1.2323887358905932,87.12391381564316,1553.0,1710.0,1200.0,1528.0,1471.0,993.0,107.0,294.2,1649337296.523221,1649337297.6499336,1a9e6359-add2-4ce6-a233-4bc7c174b145
0.0240771791644749,0.1047520161539861,0.0078056673360235,-1.0300439856944588,-0.2984199058147739,0.99858514687769,-0.0660419643424976,-0.0772183571962675,-12.97513860788042,25.892559371035823,21.23064412524665,4.736367535490635,0.4243063476174625,0.5037352228833665,4695.530544704861,11.897444444444444,0.1,179.16670219855718,1.3056550841843275,86.95644971975298,1553.0,1814.0,1200.0,1528.0,1471.0,993.0,107.0,294.2,1649337299.7799995,1649337301.131223,ed0f6394-5078-4693-a3b7-b01ce62a3e4a
0.0230935555101754,0.0952273030069224,0.0121538401048053,-1.0212550879967726,-0.2910419689851345,0.999134357809038,-0.061544604362669,-0.0846337160307691,-13.114162584163898,25.943791094906064,21.166751273390936,4.718252051114153,0.3893275590010333,0.480072091848194,4719.660915798611,11.892222222222223,0.0955555555555555,179.1876207912552,1.284698712002455,86.86507013666719,1553.0,1814.0,1200.0,1528.0,1471.0,993.0,107.0,294.2,1649337301.244931,1649337302.3587563,ed0f6394-5078-4693-a3b7-b01ce62a3e4a
0.0269855696533637,0.1043656467798173,0.0063026701889723,-1.0242792896140944,-0.299417689700112,0.9928492813041156,-0.0708144355808671,-0.0845811217140405,-13.10959587893456,26.004846708848348,21.091343699013528,4.711054177128982,0.4242403640681371,0.5136051830024876,4729.787814670139,11.88888888888889,0.0977777777777778,179.19198907668437,1.308283035041392,86.8018931635743,1553.0,1814.0,1200.0,1528.0,1471.0,993.0,107.0,294.2,1649337302.4674578,1649337303.5893342,ed0f6394-5078-4693-a3b7-b01ce62a3e4a
-0.0219275812242573,0.1216035872428671,0.0887581445358925,0.2891837138213909,-0.0742988402085432,-0.2961962586612628,-0.3431634089719704,-0.3576006800366306,-13.76592988177162,27.610505303313094,11.441865721967185,-1.1355727303024026,0.422600631248532,0.4812308303977129,4720.238498263889,11.966666666666663,0.1155555555555555,179.16045788783595,0.8802188284124957,86.72777726307066,1553.0,1349.0,1200.0,1528.0,1471.0,993.0,107.0,294.2,1649337304.6978772,1649337306.0399275,bf55b499-84cc-4242-96a9-e2df82187230
0.0016864663330134,0.1278128060524942,0.0883414320080698,0.2788331619174036,-0.0770287119631979,-0.2924397767100148,-0.3420255408313514,-0.3649093335009059,-13.65984183875442,27.535639436611326,11.488907158589392,-1.10423924827,0.4459678722571126,0.4847287832472365,4709.000325520833,11.963333333333331,0.11,179.16289702427957,0.8755306802441406,86.91309091999183,1553.0,1349.0,1200.0,1528.0,1471.0,993.0,107.0,294.2,1649337306.1486847,1649337307.2737026,bf55b499-84cc-4242-96a9-e2df82187230
-0.038012482911419,0.1303666873758476,0.0913757464902592,0.2717278091605982,-0.0760804886287242,-0.2889503145309512,-0.3385234355726796,-0.3617106596755119,-13.624310431034315,27.58735206832321,11.434953633613956,-1.079866842846258,0.4568412435055111,0.4744891594163206,4706.98828125,11.970666666666668,0.12,179.17444004397692,0.8981113923619086,87.07361933823482,1553.0,1349.0,1200.0,1528.0,1471.0,993.0,107.0,294.2,1649337307.3829308,1649337308.5025504,bf55b499-84cc-4242-96a9-e2df82187230
-0.0298693939788232,0.1304658083180561,0.1122680130817855,0.5838459724440428,-0.0269766806932413,-0.5901880246007061,-0.4094459991183013,-0.4413973384216754,-13.998385983366855,28.81736394302374,9.27906742301978,-2.4521880743867825,0.441885079225256,0.4790497252561729,4704.979275173611,11.958777777777776,0.1122222222222222,179.17205858468623,0.806266988815576,87.37584837881872,1553.0,1264.0,1200.0,1528.0,1471.0,993.0,107.0,294.2,1649337310.1488323,1649337311.3665843,73f2f233-ef4c-445e-b9eb-959499ce1249
-0.0321572672018579,0.1297294813464833,0.1056936650674721,0.5786390892307617,-0.0333143524777768,-0.584034432803071,-0.4150604935893525,-0.439780048101734,-14.096811765910935,28.813578470269743,9.323296355676252,-2.427009626820712,0.4396522749423872,0.504497620240622,4699.819769965277,11.945444444444444,0.11,179.1756133186943,0.8078194753985625,87.50032705862239,1553.0,1264.0,1200.0,1528.0,1471.0,993.0,107.0,294.2,1649337311.475124,1649337312.5925686,73f2f233-ef4c-445e-b9eb-959499ce1249
-0.030333981240868,0.1319976313974707,0.112055442498966,0.5776973139522995,-0.0282110145917003,-0.5859486644376518,-0.4080577156635532,-0.4316158016466707,-13.939270329275889,28.781313955755305,9.29484012104566,-2.429009091667364,0.4478150922620893,0.4792538912384032,4690.960666232639,11.947111111111113,0.11,179.1583253509951,0.810161987195547,87.58463891373701,1553.0,1264.0,1200.0,1528.0,1471.0,993.0,107.0,294.2,1649337312.7006817,1649337313.8188488,73f2f233-ef4c-445e-b9eb-959499ce1249
-0.0391392251451608,0.13527823103175,0.1325038561769391,0.8481610392226941,0.0117462305398126,-0.850098409338426,-0.471902320238223,-0.4977526647102228,-14.179519267090908,30.275788083866374,7.423157822922435,-3.622182786670067,0.4464302235029898,0.4872055429610866,4696.671875,11.931,0.1,179.17054228269052,0.7309481686762529,87.77950117511786,1553.0,1178.0,1200.0,1528.0,1471.0,993.0,107.0,294.2,1649337315.756591,1649337316.892093,bd583930-11ae-44a3-8a5d-72fad837055a
-0.0371011771317269,0.1353965692990945,0.1338844692487146,0.8355777380285858,0.0121801375200143,-0.8380016026983534,-0.4663930152011508,-0.4954910874338503,-14.155511279485676,30.190720327311134,7.539436117199487,-3.567079361070584,0.447308924254526,0.4770082323017688,4691.816243489583,11.93,0.1,179.16977123022426,0.7218567303592245,87.80331349129425,1553.0,1178.0,1200.0,1528.0,1471.0,993.0,107.0,294.2,1649337317.0007365,1649337318.129721,bd583930-11ae-44a3-8a5d-72fad837055a
-0.0272791007350971,0.1362906806201067,0.1333453727189034,0.8276622236100539,0.0124694088388934,-0.8322030248622028,-0.4641182902079013,-0.4964114966162951,-14.221233336704344,30.010264887952705,7.461364150811403,-3.5374623534685337,0.452756832753222,0.4740671297256723,4674.476399739583,11.927888888888887,0.1044444444444444,179.1735156917092,0.7217207076162224,87.86998600342235,1553.0,1178.0,1200.0,1528.0,1471.0,993.0,107.0,294.2,1649337318.2446997,1649337319.5612843,bd583930-11ae-44a3-8a5d-72fad837055a
-0.0451876255975165,0.1416553485455841,0.1428255824489517,0.9521803669114612,0.0268014878779848,-0.9559849194321364,-0.4982654629587423,-0.5195663567765577,-14.338580937001352,31.08520116544696,6.805167506023087,-4.089064960089475,0.4648123872779679,0.4905342154788822,4657.540364583333,11.917333333333334,0.1066666666666666,179.16120769082485,0.6562363934573818,87.936522670677,1553.0,1088.0,1200.0,1528.0,1471.0,993.0,107.0,294.2,1649337320.1318023,1649337321.4051957,7a476e86-f4a2-4529-bdf9-77bb32c974b1
-0.0481592310587045,0.1369086693242635,0.1475065181919644,0.9615816839625576,0.0313114907319181,-0.9604160323909527,-0.4957540612751632,-0.5258119891233459,-14.291251205704828,31.29126808504104,6.769742216039329,-4.118612031050364,0.446131177260825,0.4738417408185928,4653.326171875,11.896,0.1,179.17170645048907,0.6565404613841042,87.97399081173396,1553.0,1088.0,1200.0,1528.0,1471.0,993.0,107.0,294.2,1649337321.5144532,1649337322.6281412,7a476e86-f4a2-4529-bdf9-77bb32c974b1
-0.0324859845917263,0.1364747623576276,0.1496103095280288,0.9561381240516948,0.0334678769342299,-0.9549593198158566,-0.4904682839719849,-0.5236687508921997,-14.210216710691368,31.166682966854875,6.801928157869968,-4.094745945534384,0.4444464319065745,0.4605641094809443,4647.439453125,11.903333333333334,0.1,179.15432741360095,0.6704599066649142,87.99751398323548,1553.0,1088.0,1200.0,1528.0,1471.0,993.0,107.0,294.2,1649337322.736328,1649337323.8543787,7a476e86-f4a2-4529-bdf9-77bb32c974b1
0.014696090011246,0.1270795133936848,0.0720572775673846,-0.0509083200625692,-0.1233020109260256,0.0242541808488717,-0.2623242010464211,-0.2884825245581338,-13.342909670031514,26.29575024261753,13.498764065030624,0.342680057210127,0.4627059778527153,0.4570593637955255,4650.522352430556,11.964222222222222,0.12,179.17192349872272,0.949839675887425,88.02488938142889,1553.0,1435.0,1200.0,1528.0,1471.0,993.0,107.0,294.2,1649337324.774253,1649337325.9016914,99cd107b-4af5-40f9-8056-71808297f602
0.0050272466443596,0.1250616942841368,0.0714676091200245,-0.0462921160872863,-0.124566308730655,0.0230935555439047,-0.2652705208266178,-0.2891485570861878,-13.381670328074952,26.503552006031185,13.640999479170729,0.3310102954525884,0.4535494277225047,0.4636646352377345,4665.427408854167,11.962888888888893,0.12,179.17357488668202,0.9478574269242406,88.01584621096782,1553.0,1435.0,1200.0,1528.0,1471.0,993.0,107.0,294.2,1649337326.009936,1649337327.1339529,99cd107b-4af5-40f9-8056-71808297f602
-0.0028751199270877,0.1232734716371604,0.0709285125725048,-0.0476201344541874,-0.1241981452122374,0.0246976964936698,-0.2636532309808969,-0.2914232815852095,-13.319860228312718,26.38467423090083,13.451481563961392,0.3367967032597738,0.4482120369258565,0.4611920523229761,4670.795518663194,11.966333333333331,0.1144444444444444,179.1876890931469,0.9559161370813728,87.9819540533963,1553.0,1435.0,1200.0,1528.0,1471.0,993.0,107.0,294.2,1649337327.2437143,1649337328.3650277,99cd107b-4af5-40f9-8056-71808297f602
0.0305225689531815,0.1407743859259527,0.2049137239885005,-0.0578366718049045,-0.0042162869573401,0.0114043644463595,-0.1265517619899248,-0.1408969906297514,-12.393325834367449,26.499127789379035,13.699277701970349,0.3379070058213,0.5148508758125238,-0.0770889457373979,4683.83935546875,11.969111111111111,0.1155555555555555,179.1324116132841,0.9658899801067204,87.88180071286666,1553.0,1435.0,1200.0,1424.0,1471.0,993.0,107.0,294.2,1649337330.29758,1649337331.4364183,6facb2a9-9d9e-4983-bd11-fa4cdfba8df5
0.0375571214774245,0.1449030764305052,0.203256988322771,-0.0620048086737007,-0.0056231974877016,0.0111019444206533,-0.1268410333301452,-0.1603702120229249,-12.36095677146306,26.31214419652132,13.680339008837514,0.3453209668413672,0.5306797158538518,-0.0719668168936943,4675.890082465277,11.971777777777778,0.12,179.1474425829175,0.9732302634564663,87.8823008344959,1553.0,1435.0,1200.0,1424.0,1471.0,993.0,107.0,294.2,1649337331.545535,1649337332.6645248,6facb2a9-9d9e-4983-bd11-fa4cdfba8df5
0.0378474885221117,0.1425028915735951,0.205424879532359,-0.0601376937306747,-0.0032421876925246,0.0132758622388685,-0.1252648332506838,-0.1428375196691766,-12.446457169590852,26.411558549635423,13.91300615045872,0.3467553226113144,0.5201298280655485,-0.0804555747987224,4675.040310329861,11.967777777777776,0.1144444444444444,179.1477385577816,0.9689876961967,87.87629785712537,1553.0,1435.0,1200.0,1424.0,1471.0,993.0,107.0,294.2,1649337332.772657,1649337333.8886833,6facb2a9-9d9e-4983-bd11-fa4cdfba8df5
0.0849976174579009,0.1696620707089888,0.4120056766486316,-0.0699860676542809,0.1815353429901096,-0.0159449242740659,0.085063360936594,0.0705997950675038,-10.838097206632575,26.577209173173287,13.847446983212553,0.3154914518381206,0.6255022112016632,-0.9090199256863308,4673.6240234375,11.963666666666668,0.12,179.0883614465969,0.9517363103266384,87.80370508880665,1553.0,1435.0,1200.0,1304.0,1471.0,993.0,107.0,294.2,1649337334.8063476,1649337335.9377675,ca4d8079-039c-4226-a1a2-bad662e9653c
0.0904674750340279,0.1688468515691384,0.4097441010800343,-0.0743645836853392,0.1815484916914492,-0.0104882151926713,0.085760241831653,0.055150077026398,-10.948577130266676,26.352919095123315,13.933653909260943,0.3359889368715514,0.6228544571044266,-0.9069479221799436,4671.07666015625,11.96,0.12,179.09223188712662,0.9529373208296008,87.801241667246,1553.0,1435.0,1200.0,1304.0,1471.0,993.0,107.0,294.2,1649337336.0476017,1649337337.1701374,ca4d8079-039c-4226-a1a2-bad662e9653c
0.1142797635712649,0.1796945255913219,0.4173966416634287,-0.0802157537965009,0.1857166282359728,-0.018679853151902,0.090612110677585,0.0758198274614832,-10.88983806567046,26.370697990460823,13.562013709304091,0.3312492688659513,0.667623763138847,-0.9291934762660458,4671.07666015625,11.963,0.1166666666666666,179.10221307023372,0.9693815704388372,87.78453502453615,1553.0,1435.0,1200.0,1304.0,1471.0,993.0,107.0,294.2,1649337337.2791212,1649337338.3985803,ca4d8079-039c-4226-a1a2-bad662e9653c
0.1580386235806643,0.19540721700547,0.5995192168580672,-0.0566664377981302,0.3510877716132515,-0.0667514882270098,0.2670413106335529,0.2525251505579253,-9.54996327728012,26.8992346129655,13.366656230260528,0.1833199381519222,0.7274591921274811,-1.651333386985548,4672.208821614583,11.942777777777776,0.1055555555555555,179.08149331193155,0.9507624747613826,87.73321525984241,1553.0,1435.0,1200.0,1166.0,1471.0,993.0,107.0,294.2,1649337340.3341713,1649337341.4744644,4473935f-b7ba-4ca2-a520-f340a7ce0591
0.1540282713320044,0.2040327613844161,0.5954694188015337,-0.0550228507014083,0.3467749995414012,-0.0730497140026791,0.2593624724407757,0.2481334864053199,-9.706752041925345,26.87814380287308,13.843565463030366,0.1651150862568175,0.7562336516317005,-1.6273761343228696,4673.6240234375,11.943333333333335,0.11,179.09137280111102,0.9465678848373484,87.74804587726021,1553.0,1435.0,1200.0,1166.0,1471.0,993.0,107.0,294.2,1649337341.583687,1649337342.6987717,4473935f-b7ba-4ca2-a520-f340a7ce0591
0.1622462062455917,0.2039538692037973,0.5947725379681051,-0.0623992695884567,0.3443556396107516,-0.0667120421555909,0.2613216280703418,0.239665726462032,-9.537336543468715,26.873426970741303,13.771973492993247,0.1960039737032648,0.756237131088135,-1.6259751585686664,4676.17333984375,11.94522222222222,0.11,179.09060781992395,0.9452138709821972,87.74422173023491,1553.0,1435.0,1200.0,1166.0,1471.0,993.0,107.0,294.2,1649337342.808004,1649337343.9259455,4473935f-b7ba-4ca2-a520-f340a7ce0591
-0.0865488742278977,0.0843336083022633,-0.1326198857477651,-0.0208812483932642,-0.3080159268707602,0.0498182807924747,-0.4754974781357608,-0.5070922865115679,-14.76342402374628,26.825756023660706,13.501947339632949,0.3249996589344034,0.2957452551627002,1.2850418107500308,4683.83935546875,11.971,0.11,179.27399005112983,0.9526521604317528,87.90140297632965,1553.0,1435.0,1200.0,1623.0,1471.0,993.0,107.0,294.2,1649337346.2723396,1649337347.4107132,775a00a7-1ba4-4b03-b29f-9bcabf78ed7d
-0.0804787277646675,0.0796329494400439,-0.1307593450822809,-0.0175753626304727,-0.3042038158179749,0.0503245056137551,-0.4729410675055832,-0.4878385441421394,-14.84096997571041,26.790725185881087,13.36983404115226,0.3184802699324919,0.2795450234294956,1.272907691425565,4678.72607421875,11.968777777777778,0.1177777777777777,179.28168160304517,0.9556631829227362,87.85756416605183,1553.0,1435.0,1200.0,1623.0,1471.0,993.0,107.0,294.2,1649337347.519168,1649337348.6466172,775a00a7-1ba4-4b03-b29f-9bcabf78ed7d
-0.0685397110222604,0.0838931269865425,-0.1268278846467029,-0.0204812245763317,-0.3021789162967592,0.0482207142120819,-0.4689044167938841,-0.4935582292144482,-14.691527454194953,26.773578445657368,13.313892436997987,0.3204560831733481,0.2955680876241446,1.2595660096689318,4668.251410590277,11.969,0.1144444444444444,179.28140232419912,0.956501470063682,87.79895734842358,1553.0,1435.0,1200.0,1623.0,1471.0,993.0,107.0,294.2,1649337348.7582932,1649337350.0732503,775a00a7-1ba4-4b03-b29f-9bcabf78ed7d
-0.134125411571051,0.0548213597309989,-0.2962751508300971,0.0193067309681797,-0.4541121300278978,0.0497196655817847,-0.6538014385019538,-0.6846088459422569,-16.12948687100543,27.325748649369167,13.322769845236255,0.2285731908150996,0.1809986903176355,1.9563452556721388,4658.946994357639,11.960222222222225,0.1111111111111111,179.28855429117004,0.9380898769561684,87.77926743086626,1553.0,1435.0,1200.0,1712.0,1471.0,993.0,107.0,294.2,1649337351.1884987,1649337352.3250637,f7efb6ac-04a2-417c-bbba-7ee327d96ba2
-0.1347302516482077,0.055886404121101,-0.2935270729450535,0.0208582771342342,-0.4517322154746357,0.0466428706480957,-0.6518685794876334,-0.6815451987648832,-16.103746800954344,27.34131687379756,13.254572372058444,0.2184014391556569,0.1853989538869167,1.9466637131824025,4658.946723090277,11.959333333333332,0.1177777777777777,179.2910678007846,0.9466248030804318,87.7526198272744,1553.0,1435.0,1200.0,1712.0,1471.0,993.0,107.0,294.2,1649337352.4332063,1649337353.5541031,f7efb6ac-04a2-417c-bbba-7ee327d96ba2
-0.1286292561723664,0.0560310397803922,-0.2900952627370216,0.0193987718474714,-0.4483792971818382,0.0491805690287304,-0.6460568536897161,-0.669632474856084,-15.968606361542111,27.24010073681032,13.480365318569502,0.2270001987943737,0.1833792757983132,1.9296035357985768,4658.3837890625,11.960888888888888,0.1122222222222222,179.28724137702957,0.9376276178165596,87.71284915355724,1553.0,1435.0,1200.0,1712.0,1471.0,993.0,107.0,294.2,1649337353.6631024,1649337354.7141812,f7efb6ac-04a2-417c-bbba-7ee327d96ba2
-0.1750178600931756,0.0340858656964136,-0.4380838658382264,0.0776606450090526,-0.5814835851192849,0.0232118938046791,-0.8188044971016312,-0.8467849366374943,-17.320363803162824,28.068131193077743,13.121325694876589,0.0346032028118052,0.0972801673495584,2.5546409082712582,4657.540364583333,11.943333333333335,0.11,179.29920027935634,0.9321885223654732,87.66366572025387,1553.0,1435.0,1200.0,1801.0,1471.0,993.0,107.0,294.2,1649337355.6989915,1649337356.83448,667e39e5-123a-4ce4-b29f-28959ac86e5f
-0.1790019154047849,0.0342305013531964,-0.4349544753776498,0.0774502658734972,-0.5791562650908854,0.0222125928702874,-0.8144128302850993,-0.8388562696401779,-17.132395394523595,28.030443272463764,13.000353584635088,0.0328135237986735,0.0977880672533304,2.540944467244626,4654.168619791667,11.942333333333332,0.11,179.29778415346843,0.9375986013705544,87.60514693617493,1553.0,1435.0,1200.0,1801.0,1471.0,993.0,107.0,294.2,1649337356.955973,1649337358.0657952,667e39e5-123a-4ce4-b29f-28959ac86e5f
-0.1813423835910339,0.0370048762670762,-0.4353357876635641,0.0746232961952921,-0.5798005514262182,0.0215683067631118,-0.8158854849908737,-0.8396320430235673,-17.248293224622685,28.03074688357796,12.91866847820492,0.0376543426464539,0.1100618218330524,2.5445530537919274,4650.80078125,11.9415,0.11,179.28204967435045,0.9305009498189024,87.55238372483659,1553.0,1435.0,1200.0,1801.0,1471.0,993.0,107.0,294.2,1649337358.1779778,1649337359.4893713,667e39e5-123a-4ce4-b29f-28959ac86e5f
-0.026882448400424,0.1035087900931409,-0.0022012492567102,-0.0615210462609864,-0.1643137247112961,0.0599263410304497,-0.297266233929605,-0.3227007474758132,-13.354845445990067,23.157188083614404,13.514814702382944,0.4222729381127657,0.3707894878527361,0.6622486582693387,7551.91748046875,11.661,7.4766666666666675,179.1820989627662,0.6792095035003572,76.35819089534647,1553.0,1435.0,1350.0,1528.0,1471.0,993.0,107.0,294.2,1649337363.6529603,1649337364.6182556,764c93e6-08de-4c67-bfa4-d675a5f8f455
-0.0239919266149842,0.1023801936784527,-0.0058993201488237,-0.0582837275400032,-0.1652615266526978,0.059147280781075,-0.3010612769391581,-0.32951506102051,-13.535719077077893,23.036541182443347,13.644133951302363,0.4121653327550176,0.366055523679494,0.6739810537768639,7557.097222222223,11.657,7.477777777777778,179.15812196313982,0.6250394629204631,71.92162254721701,1553.0,1435.0,1350.0,1528.0,1471.0,993.0,107.0,294.2,1649337364.726967,1649337365.842578,764c93e6-08de-4c67-bfa4-d675a5f8f455
-0.0227690978299201,0.1000397257885179,-0.0047685322657715,-0.0561536386554632,-0.1658400693459226,0.0602123251769294,-0.3009560873673183,-0.3199033617389635,-13.44564454529338,23.25166338014843,13.749998330910524,0.4112982644169502,0.355514622100754,0.672937387423992,7557.097222222223,11.660777777777778,7.497777777777778,179.16506750661583,0.6104607620891392,67.48764891206224,1553.0,1435.0,1350.0,1528.0,1471.0,993.0,107.0,294.2,1649337365.9499977,1649337367.070692,764c93e6-08de-4c67-bfa4-d675a5f8f455
0.2006666952590514,0.5108838638381278,0.013915765418241,-0.2490187302513956,-0.2416686081870999,-0.1593446128372874,-0.3763375755111985,-0.3948509437487131,-13.296118322689567,22.33500292808561,14.309348956264223,0.3479990352185877,1.915328870338408,0.9073678419538734,7577.882107204861,11.628777777777778,7.537777777777778,178.82080320514993,0.6507670068288047,60.57954929200696,1658.0,1435.0,1350.0,1528.0,1551.0,993.0,107.0,294.2,1649337368.6499135,1649337369.7365124,d2d24136-0370-4b75-8cde-e9e321a2e3e5
0.1899110621647937,0.4965649349291185,0.0052113283738678,-0.2425495709649757,-0.2458630428047482,-0.1502720117282813,-0.3828856274881687,-0.3983747950219729,-13.505725167522025,22.373034904976485,14.393338883370944,0.3535201163577834,1.861015664339148,0.9325493487557484,7575.650499131944,11.629111111111108,7.523333333333334,178.81293027376665,0.6869368842639236,58.311042357520165,1658.0,1435.0,1350.0,1528.0,1551.0,993.0,107.0,294.2,1649337369.871107,1649337370.8264778,d2d24136-0370-4b75-8cde-e9e321a2e3e5
0.194066049993311,0.5008908556026747,0.0111676878520072,-0.2483481466687515,-0.2413924855485029,-0.1525993311264893,-0.3755486535996057,-0.4028059071742425,-13.341321708995109,22.24833730129924,13.958054406637304,0.3608538061560673,1.881024220495085,0.9079196405458682,7571.93115234375,11.627,7.523333333333334,178.8065751621989,0.726669482048063,56.45575959108942,1658.0,1435.0,1350.0,1528.0,1551.0,993.0,107.0,294.2,1649337370.9584324,1649337371.9032571,d2d24136-0370-4b75-8cde-e9e321a2e3e5
0.4022098987280387,0.9098547167658948,0.0294838219522444,-0.4504699403802683,-0.3232562796158916,-0.3582449661668842,-0.4494837878750158,-0.4820925629045135,-12.879250530168177,21.70314070910104,15.019065474513264,0.3523774257401055,3.428250625333612,1.1494778636737306,7571.93115234375,11.593333333333334,7.563333333333333,178.45372303621656,0.8418551262324803,53.03738537691657,1767.0,1435.0,1350.0,1528.0,1630.0,993.0,107.0,294.2,1649337373.7172935,1649337374.8543622,0a93ff8c-bf95-4372-80ee-5bb642c761f2
0.4177385077294974,0.905305268234572,0.0250658599285289,-0.4466699662815205,-0.3240846476832662,-0.3598622561156261,-0.4544671449520748,-0.4804884213923268,-13.150813043083986,21.617909562137232,14.619418039978047,0.3391859523646269,3.415902166292523,1.1624877757067984,7571.93115234375,11.59988888888889,7.544444444444445,178.44926064595884,0.8896353232583832,51.95386883155774,1767.0,1435.0,1350.0,1528.0,1630.0,993.0,107.0,294.2,1649337374.961701,1649337376.082824,0a93ff8c-bf95-4372-80ee-5bb642c761f2
0.4238920970503526,0.9092235793972522,0.0315350185657914,-0.4477744570216,-0.3200085511635617,-0.3623605088465303,-0.4491682191192035,-0.4732566370890047,-13.043745513313208,21.706298090533643,14.709088806926056,0.3370397536645297,3.4295932636892825,1.1412027713299535,7571.93115234375,11.598,7.553333333333334,178.4445022808371,0.9408207786854096,50.98778904096831,1767.0,1435.0,1350.0,1528.0,1630.0,993.0,107.0,294.2,1649337376.191089,1649337377.3107345,0a93ff8c-bf95-4372-80ee-5bb642c761f2
0.525163346625253,1.1222587425536985,0.0607119755891231,-0.5736732571104431,-0.3543266540717895,-0.4720864021333674,-0.4759521197208514,-0.4906523658307207,-12.8651103550434,22.349007227972265,12.305564169665418,0.3798880670839141,4.266004092746966,1.207453000334984,7578.6259765625,11.53722222222222,7.528888888888888,178.2980250795366,1.0442771085770963,49.39738366673534,1886.0,1435.0,1350.0,1528.0,1710.0,993.0,107.0,294.2,1649337379.2446103,1649337380.390498,dfa4dd5c-e419-4804-9c78-dd4e49001a9e
0.5291999959991476,1.1095833999217883,0.0682198811322508,-0.5648767768453161,-0.344714955456707,-0.4696407440825776,-0.466248379560697,-0.4964640912459331,-12.77382860654971,22.424201883072463,12.104183056561828,0.3664272485636294,4.218996818710664,1.168603713793103,7578.6259765625,11.524666666666668,7.491111111111111,178.30163749069763,1.0907597119563048,48.91093190222272,1886.0,1435.0,1350.0,1528.0,1710.0,993.0,107.0,294.2,1649337380.5033853,1649337381.6120615,dfa4dd5c-e419-4804-9c78-dd4e49001a9e
0.5354982209038323,1.1197078955898765,0.0647354766395287,-0.5715826141396247,-0.3491592155501479,-0.4742033428912393,-0.4722441864736022,-0.4854849280193578,-12.948684164378124,22.33652473932867,11.953567872089968,0.3704344566033641,4.260145568832125,1.188810876886197,7580.116427951389,11.53611111111111,7.52,178.3238750688154,1.1348698918159916,48.517410553192434,1886.0,1435.0,1350.0,1528.0,1710.0,993.0,107.0,294.2,1649337381.72064,1649337382.8418243,dfa4dd5c-e419-4804-9c78-dd4e49001a9e
-0.2793396276750156,-0.3460692713226772,-0.023650060472341,0.1551064644010567,-0.0820302739726885,0.29707293109671,-0.2210251527172168,-0.2544754406148399,-13.864106753642384,24.41165555793241,13.161736677412398,0.4734497773057995,-1.33667778421853,0.4169930972998832,7578.6259765625,11.646333333333333,7.617777777777778,179.31626057408323,1.1802140710436946,47.69747783809358,1449.0,1435.0,1350.0,1528.0,1386.0,993.0,107.0,294.2,1649337384.775958,1649337385.9167817,75e6ef60-ea29-4e1c-bbaa-a9d6849f6378
-0.2533972466054507,-0.3446886579914824,-0.0230978152283207,0.1526082121959328,-0.0816226643686191,0.2981905702013558,-0.2175275991375767,-0.2343184863440686,-13.65233010443299,24.238503948146025,13.202411029582038,0.4805894483861542,-1.333019382455135,0.4111270583337941,7585.3330078125,11.642111111111111,7.567777777777778,179.35143604830878,1.1935226590675625,47.46113090496885,1449.0,1435.0,1350.0,1528.0,1386.0,993.0,107.0,294.2,1649337386.0259523,1649337386.9664738,75e6ef60-ea29-4e1c-bbaa-a9d6849f6378
-0.2879641621679077,-0.3509767701903966,-0.0252557186438958,0.157953662773305,-0.0826042651861877,0.2984929902020712,-0.2196162192142104,-0.2478606337455065,-13.647232736039369,24.314947762645968,13.052070421961824,0.4695889064698239,-1.356100881762092,0.4174253997501141,7585.3330078125,11.649333333333333,7.532222222222221,179.3681092989827,1.215644965885097,47.23402635615602,1449.0,1435.0,1350.0,1528.0,1386.0,993.0,107.0,294.2,1649337387.0766706,1649337388.1649785,75e6ef60-ea29-4e1c-bbaa-a9d6849f6378
-0.5190272597197488,-0.7940060439809966,-0.0402568643293127,0.375675831774482,-0.0004557597812743,0.5328290358420452,-0.1433820943608172,-0.1767797862980745,-14.081720990819584,26.127421943291765,13.372203937824564,0.5161458932813663,-3.045218665627346,0.1651494475738123,7598.7822265625,11.599666666666668,7.566666666666666,179.5227387105125,1.2552006902288548,46.795252727144685,1342.0,1435.0,1350.0,1528.0,1293.0,993.0,107.0,294.2,1649337390.3052833,1649337391.450322,b85adaa2-70f8-4157-a824-e44aa7140332
-0.5140044564014677,-0.7909029502330062,-0.0373904484584288,0.3727042266495433,0.0019504516742618,0.5326975488924383,-0.1385696711869253,-0.1662871259346061,-13.932398836157857,25.97661114118237,13.427293360451648,0.5217805695510151,-3.0345802730488822,0.1517064332744145,7598.7822265625,11.604,7.58888888888889,179.55235744639333,1.2683460059008445,46.67441036416413,1342.0,1435.0,1350.0,1528.0,1293.0,993.0,107.0,294.2,1649337391.563755,1649337392.672197,b85adaa2-70f8-4157-a824-e44aa7140332
-0.5189878135993066,-0.7911396269184603,-0.0449509490464522,0.3775560951979273,-0.0044792609064942,0.5298574307668925,-0.1490097367768393,-0.1676019948670535,-14.125057859894284,26.05887471872737,13.556370783435495,0.5045462869567144,-3.03632364040527,0.185661620163231,7598.7822265625,11.600666666666667,7.573333333333333,179.55369768129043,1.2879145215888657,46.58758424052503,1342.0,1435.0,1350.0,1528.0,1293.0,993.0,107.0,294.2,1649337392.781108,1649337393.9971106,b85adaa2-70f8-4157-a824-e44aa7140332
-0.733048661547755,-1.1879412306108008,-0.0510519443430431,0.567620482820644,0.0725326534797015,0.7452856493008901,-0.0705251642236728,-0.0850413256800504,-14.100564677645671,27.788517130011783,14.048494882377756,0.5711565623638885,-4.552864379015513,-0.0690055552039359,7598.7822265625,11.500999999999998,7.559999999999999,179.7304584235509,1.2869676154673688,46.49784807684453,1227.0,1435.0,1350.0,1528.0,1189.0,993.0,107.0,294.2,1649337395.6475918,1649337396.7690785,3076c30a-e25e-4030-ac4e-af279f9d1952
-0.7427918495942776,-1.1966062283964534,-0.0555225012322886,0.5710522922174985,0.0689956542183392,0.7542399105886666,-0.0751929515998461,-0.1063422146795203,-14.261823135990522,28.029219453891336,14.526199356602836,0.5849046782236759,-4.589157780468348,-0.0520044143309369,7598.7822265625,11.51,7.529999999999999,179.71353776824714,1.2914268396478388,46.53313397246168,1227.0,1435.0,1350.0,1528.0,1189.0,993.0,107.0,294.2,1649337396.878055,1649337397.9924376,3076c30a-e25e-4030-ac4e-af279f9d1952
-0.7375981124044706,-1.1986705754004776,-0.0577577796550886,0.5706841287559911,0.0689562081358997,0.7531354202113573,-0.0757451968643727,-0.0884336898681755,-14.294603342763128,27.84193441278629,14.025449032052215,0.5818040671144938,-4.592329741270143,-0.0490228144144067,7598.7822265625,11.509333333333334,7.576666666666666,179.7091497511603,1.287755126792297,46.53747228094952,1227.0,1435.0,1350.0,1528.0,1189.0,993.0,107.0,294.2,1649337398.1017487,1649337399.224952,3076c30a-e25e-4030-ac4e-af279f9d1952
-0.0085948029454029,0.1278886639178219,-0.0029145660323497,-0.0689604693305692,-0.1655507979829864,0.0429217896114887,-0.3020868753949039,-0.3353530828110239,-13.553508056506944,22.71517522844524,13.504579118526571,0.3977756480221941,0.4645888758605514,0.6746822744114247,7598.7822265625,11.663222222222222,7.6,179.21984865939896,1.261736872957407,46.6058238812486,1553.0,1435.0,1350.0,1528.0,1471.0,993.0,107.0,294.2,1649337401.1585128,1649337402.1023638,fdfae0cf-b926-4b80-b16a-986fd8d3958b
-0.0149587720760346,0.1158707557958518,-0.0098965238815383,-0.0631750427237029,-0.1688511210252833,0.0491542716451674,-0.3073595033870422,-0.3324603691671857,-13.700398801009886,22.743658386024723,13.427248487363986,0.3984852577348843,0.4200850039006386,0.694574786366782,7598.7822265625,11.66,7.559999999999999,179.23410857656614,1.2679712941338783,46.62131285301142,1553.0,1435.0,1350.0,1528.0,1471.0,993.0,107.0,294.2,1649337402.2148054,1649337403.3221178,fdfae0cf-b926-4b80-b16a-986fd8d3958b
-0.0151297051135531,0.1255481960342533,-0.0028093764799455,-0.068066357934659,-0.1664449094208303,0.0464850862941835,-0.3024024441766865,-0.3167476744893465,-13.53649642564354,22.88234611018161,13.799079274775572,0.4049348971563263,0.4529795660236912,0.6762893001918274,7598.7822265625,11.658,7.6,179.2228660851923,1.266385907620593,46.61772814206202,1553.0,1435.0,1350.0,1528.0,1471.0,993.0,107.0,294.2,1649337403.4304683,1649337404.7560318,fdfae0cf-b926-4b80-b16a-986fd8d3958b
-0.0063200784288794,0.1150292392577598,-0.0268057476955549,-0.3700656462745059,-0.2168964617065432,0.3453154943923633,-0.2391309094951535,-0.2517668087460542,-13.488460816665825,22.01020474539887,15.44231383240971,1.7509928603243536,0.434269695432057,0.6864190698510418,7598.7822265625,11.648444444444443,7.614444444444445,179.24026788937766,1.3498640409116984,46.6937561160783,1553.0,1522.0,1350.0,1528.0,1471.0,993.0,107.0,294.2,1649337405.675821,1649337406.8097827,2ded3507-8013-4c2f-8df8-b8f31e492bd8
0.0140133692450834,0.1167502012725203,-0.0203881722837758,-0.3633036751275082,-0.2095397653572209,0.3415802534858979,-0.2349900811201012,-0.2454458249984738,-13.636155489970443,22.03647405037514,16.076947544685307,1.727866438408125,0.4357196955226677,0.6628040176768708,7598.7822265625,11.644777777777776,7.655555555555556,179.2305933058733,1.3625004244847512,46.73270754655002,1553.0,1522.0,1350.0,1528.0,1471.0,993.0,107.0,294.2,1649337406.925904,1649337408.0362222,2ded3507-8013-4c2f-8df8-b8f31e492bd8
0.016693680437314,0.1185328610181078,-0.0231064124701449,-0.3747202855990226,-0.2148371733660696,0.3452087876714435,-0.2344717190093166,-0.2480123494157886,-13.350705028606455,21.962398291246544,15.33793344685544,1.7611727933518304,0.4481673194273264,0.6722898126003917,7598.7822265625,11.650555555555554,7.654444444444445,179.23039447147747,1.3632071474784029,46.75165031730314,1553.0,1522.0,1350.0,1528.0,1471.0,993.0,107.0,294.2,1649337408.1449287,1649337409.2616618,2ded3507-8013-4c2f-8df8-b8f31e492bd8
0.0041199865987356,0.1074687390476958,-0.045660978658384,-0.7245677488908037,-0.2739486615185899,0.7007641681042336,-0.1614484044078674,-0.1835513650124438,-13.412688166528222,21.66236269448089,18.741317637799376,3.346722651137392,0.4185835115202266,0.6800502242250408,7598.7822265625,11.635333333333332,7.66,179.24231391048903,1.458723180874506,46.83003774222269,1553.0,1613.0,1350.0,1528.0,1471.0,993.0,107.0,294.2,1649337411.194209,1649337412.2427692,02a4c6fe-cd26-403a-a143-84fef3a79e7a
0.0086562868525376,0.1087967573485715,-0.048632584128439,-0.7295248094619937,-0.2781956909867637,0.7035122453531205,-0.1628816124181784,-0.1870357696421509,-13.272535536617417,21.63448878987922,18.650737932705383,3.363803226547778,0.4237966909496836,0.6920249638494939,7598.7822265625,11.633555555555551,7.652222222222223,179.2529340957385,1.4607162087299743,46.855940855195016,1553.0,1613.0,1350.0,1528.0,1471.0,993.0,107.0,294.2,1649337412.3510349,1649337413.562024,02a4c6fe-cd26-403a-a143-84fef3a79e7a
0.0082618259487443,0.10795524080188,-0.0482249745379892,-0.7307081926039336,-0.2768808211850279,0.703591137524302,-0.1614089583189058,-0.1783181837612126,-13.287645460644448,21.539179150664825,18.398446970386864,3.3659905847614096,0.4231534087026976,0.6871422176014207,7598.7822265625,11.637,7.652222222222221,179.22717972910812,1.45838151726243,46.87192577458256,1553.0,1613.0,1350.0,1528.0,1471.0,993.0,107.0,294.2,1649337413.6704636,1649337414.9963646,02a4c6fe-cd26-403a-a143-84fef3a79e7a
0.024487317278174,0.1030770745686658,-0.0702490416251401,-1.0929155305766718,-0.3406388589369429,1.057448821869671,-0.0881838641303554,-0.1042121257762697,-13.08696731911663,21.350092112837928,20.80484808808644,4.976341540698951,0.4253051572506997,0.6995930999751553,7598.7822265625,11.604111111111113,7.617777777777778,179.2330931551095,1.5750242388248654,46.90113356074831,1553.0,1710.0,1350.0,1528.0,1471.0,993.0,107.0,294.2,1649337415.6467197,1649337416.837867,54c2499f-e331-42c3-b77f-a1444347077f
0.0396477641909843,0.113122678334694,-0.0590463519600171,-1.097333495690772,-0.3316451492160247,1.0515319088931154,-0.078322341451807,-0.0990709855119892,-13.049618683536698,21.269017772212305,20.86646985940147,4.973060284863871,0.4634245442714097,0.6593552232127184,7598.7822265625,11.613,7.649999999999999,179.26718035252736,1.5788297095516528,46.94596995809991,1553.0,1710.0,1350.0,1528.0,1471.0,993.0,107.0,294.2,1649337416.947388,1649337418.1952696,54c2499f-e331-42c3-b77f-a1444347077f
0.0175185082478809,0.103445238060332,-0.0661860942952619,-1.0898387334606363,-0.3356949483040678,1.0545298114636577,-0.0861195187022463,-0.1099975531495874,-13.270322893915033,21.382286411722625,20.86808086307915,4.963175144782161,0.4273026049900099,0.6844011541049723,7598.7822265625,11.61,7.626666666666667,179.2364581616406,1.5889087208890649,46.97155926182536,1553.0,1710.0,1350.0,1528.0,1471.0,993.0,107.0,294.2,1649337418.3060734,1649337419.261668,54c2499f-e331-42c3-b77f-a1444347077f
0.0312851933404706,0.0992376553238841,-0.0736414054032233,-1.2998367323721811,-0.3742600811686993,1.2636203727862638,-0.0439910941764755,-0.0738386361403934,-13.0906018116301,22.02772224570724,22.63984204032066,5.911013933443437,0.4199400829402948,0.6871180661777361,7598.7822265625,11.57,7.601111111111111,179.25305703914353,1.667859339965967,47.02260202440277,1553.0,1814.0,1350.0,1528.0,1471.0,993.0,107.0,294.2,1649337421.2297945,1649337422.3746383,9fa1b25f-b52d-42b2-905d-2f3f616dca13
0.034624962201463,0.1056936650836785,-0.0638456262886472,-1.307752254891802,-0.3664497541916047,1.2645407815462046,-0.0326306202906433,-0.0544574572838611,-12.978421812585786,21.91045839929218,22.715983378311485,5.930716708431323,0.444278805235894,0.6478982409380535,7598.7822265625,11.55888888888889,7.598888888888887,179.26206529974888,1.657232205947662,47.04518756271324,1553.0,1814.0,1350.0,1528.0,1471.0,993.0,107.0,294.2,1649337422.482774,1649337423.601105,9fa1b25f-b52d-42b2-905d-2f3f616dca13
0.0325606168637687,0.0968577413385897,-0.0694732685122352,-1.29044855469048,-0.3695396983564959,1.2566121177069365,-0.0421897227415738,-0.0548387690332968,-13.088086924680518,22.12973282272713,22.562810947661752,5.874960792347307,0.4107889654677345,0.672087928347298,7598.7822265625,11.563666666666668,7.6,179.24046975941312,1.6414228437661194,47.05094199708897,1553.0,1814.0,1350.0,1528.0,1471.0,993.0,107.0,294.2,1649337423.7098358,1649337424.8262718,9fa1b25f-b52d-42b2-905d-2f3f616dca13
-0.0324202411419397,0.1315308526914535,0.019267284872906,0.2991109788717369,-0.1105629463669541,-0.3146701796106343,-0.387803240793088,-0.4114314531105779,-13.867404051048489,24.076710464862423,11.101807066609927,-1.2264709957513065,0.4578785133058293,0.69109314622362,7598.7822265625,11.65688888888889,7.639999999999999,179.23206407327456,1.096830244166598,47.09356768987921,1553.0,1349.0,1350.0,1528.0,1471.0,993.0,107.0,294.2,1649337425.736612,1649337426.881057,537849f0-9934-4f75-a3dc-965d79b2e6ea
-0.0228479900001476,0.1318727187845774,0.0233302320346538,0.301385703163724,-0.1068681625297037,-0.3179310567948746,-0.3840953077677229,-0.4019249436229066,-13.78975702906412,24.082764845002423,11.013123160366318,-1.2386624512092816,0.4593747603126473,0.6752312118779582,7598.7822265625,11.655888888888889,7.6755555555555555,179.2462981875049,1.0923473159094772,47.21657712010142,1553.0,1349.0,1350.0,1528.0,1471.0,993.0,107.0,294.2,1649337426.994702,1649337428.09921,537849f0-9934-4f75-a3dc-965d79b2e6ea
-0.0437149715530512,0.1253378169037016,0.0144022671967681,0.3032922640146611,-0.1125878457154905,-0.3115407894242222,-0.3907616980291679,-0.4131539328245436,-13.911070659129908,23.988818217047093,11.202506085602238,-1.2297016154037317,0.4332427199494857,0.7041297662111896,7598.7822265625,11.656,7.654444444444445,179.24583221682147,1.0808069761127674,47.24654685181456,1553.0,1349.0,1350.0,1528.0,1471.0,993.0,107.0,294.2,1649337428.2075195,1649337429.536012,537849f0-9934-4f75-a3dc-965d79b2e6ea
-0.0465550900493081,0.1342920788398623,0.047471238487139,0.6723761356737328,-0.0493952085330459,-0.6790863906742977,-0.4700746510419904,-0.4942156637633871,-14.25142731282109,25.52887628591493,8.322047499887253,-2.8769630889302373,0.4514454292168312,0.6852941151510308,7598.7822265625,11.645777777777775,7.643333333333334,179.23687100863046,0.959984238068121,47.289554655743366,1553.0,1264.0,1350.0,1528.0,1471.0,993.0,107.0,294.2,1649337430.12463,1649337431.3872488,7682ed04-9f82-4204-8de2-871934c770a5
-0.0512491747539512,0.1325170048910866,0.0421723138912716,0.6621727483814329,-0.0554436090277574,-0.6654380389035208,-0.4714815618675445,-0.4942025149006531,-14.212109350704514,25.508011075205456,8.653369593584179,-2.823606641008461,0.4424930183900005,0.7029575257171623,7598.7822265625,11.63211111111111,7.661111111111111,179.2368482413332,0.9435759773896676,47.39986866157329,1553.0,1264.0,1350.0,1528.0,1471.0,993.0,107.0,294.2,1649337431.5095751,1649337432.609059,7682ed04-9f82-4204-8de2-871934c770a5
-0.036851351929665,0.1381840928339738,0.0465902758425504,0.6659727212259492,-0.0508547138694525,-0.6732746647672634,-0.4700746510529574,-0.4950571804634255,-14.331253270045227,25.47972810622817,8.84941902992247,-2.849784622235642,0.4626654714777982,0.6896058097733443,7598.7822265625,11.629333333333332,7.633333333333334,179.23552470245406,0.9418145712096468,47.50978727534126,1553.0,1264.0,1350.0,1528.0,1471.0,993.0,107.0,294.2,1649337432.717981,1649337433.8394306,7682ed04-9f82-4204-8de2-871934c770a5
-0.0468575100518125,0.1400775050440759,0.0692323307436311,0.9975302168135122,-0.003677190439285,-0.9956940052860916,-0.5491509311890921,-0.5781438152668524,-14.546879740267936,27.246991863006123,6.445206611189478,-4.309865366615906,0.453245076441056,0.705941667956785,7598.7822265625,11.612000000000002,7.563333333333334,179.24009182227908,0.8206935934292106,47.682191115821176,1553.0,1178.0,1350.0,1528.0,1471.0,993.0,107.0,294.2,1649337435.7716558,1649337436.9084637,ec758057-88d7-4bc4-9163-ac82101ac3e7
-0.0635826523346892,0.1448636303499378,0.0780551058677272,1.0105605739333396,0.0046853805294952,-1.007790813463392,-0.5461004327900112,-0.5697680938871885,-14.637569527844642,27.41039733349912,7.141755699276377,-4.364853870061376,0.4646221115900063,0.6797271784956616,7598.7822265625,11.615000000000002,7.596666666666668,179.22364472675767,0.8164486723629332,47.73231256177056,1553.0,1178.0,1350.0,1528.0,1471.0,993.0,107.0,294.2,1649337437.0175197,1649337438.133785,ec758057-88d7-4bc4-9163-ac82101ac3e7
-0.0587833780000996,0.1442456416402931,0.0751623927059868,0.9960970090410391,0.0010168942030727,-0.9961805074011678,-0.5443911017848883,-0.5660470110755212,-14.589125214106172,27.28897230480998,6.809670084522832,-4.3071152330249225,0.4665000002136707,0.6856468941057233,7598.7822265625,11.600555555555555,7.623333333333333,179.21899716248242,0.8103117829675787,47.78969677553736,1553.0,1178.0,1350.0,1528.0,1471.0,993.0,107.0,294.2,1649337438.241396,1649337439.3671415,ec758057-88d7-4bc4-9163-ac82101ac3e7
-0.0656207003230577,0.1470857599426279,0.0819602686130993,1.095054091340901,0.0109310113266515,-1.095637313145188,-0.5724898740754916,-0.5959077103554187,-14.607052589698272,28.209690947215112,5.928188668565874,-4.747538381729348,0.4733544326970816,0.7024615703511872,7598.7822265625,11.585444444444445,7.696666666666666,179.20620649489672,0.7606494537964812,47.88215287232734,1553.0,1088.0,1350.0,1528.0,1471.0,993.0,107.0,294.2,1649337441.3014266,1649337442.3860445,4a167687-6539-4b4a-80a0-727d84a7ee69
-0.0559432595275536,0.1423127833444863,0.0774502658072352,1.1092546826122327,0.0085642459513803,-1.1093777104417215,-0.579774253957367,-0.6009568114066173,-14.543397123078472,28.230928567867306,5.123460274874157,-4.810627960941437,0.4601006715272187,0.7206520079593388,7598.7822265625,11.574666666666666,7.678888888888888,179.20112331633442,0.7600724095333208,47.898500171195856,1553.0,1088.0,1350.0,1528.0,1471.0,993.0,107.0,294.2,1649337442.4952097,1649337443.6667683,4a167687-6539-4b4a-80a0-727d84a7ee69
-0.0523142191948916,0.149846986081102,0.085615606090534,1.106611794753606,0.0154804602385726,-1.111100190866543,-0.5721743052112472,-0.5961049400565349,-14.547270922867932,28.15897931605413,5.643339323646241,-4.80852635604391,0.4846200703411904,0.6909294388289369,7598.7822265625,11.574,7.67,179.2037688762729,0.7510923175293245,47.882071289512254,1553.0,1088.0,1350.0,1528.0,1471.0,993.0,107.0,294.2,1649337443.7757711,1649337444.900149,4a167687-6539-4b4a-80a0-727d84a7ee69
-0.0008107745881998,0.1251668838557155,-0.008147747258887,-0.073010267952804,-0.1710206561133386,0.0483127550679372,-0.3054660908498993,-0.3331309529095004,-13.495657944482105,22.72359718718741,13.328230291565758,0.4188214826469953,0.4557010760701167,0.6935005340712418,7598.7822265625,11.655666666666669,7.615555555555555,179.2059803397442,1.119921441777021,47.914671023510806,1553.0,1435.0,1350.0,1528.0,1471.0,993.0,107.0,294.2,1649337446.8373537,1649337447.9791286,946295e3-f075-420c-975a-156b2b773cbd
-0.0289752825674696,0.1207489220126567,-0.0036903391311278,-0.065370875090434,-0.166602693776679,0.0482470116013051,-0.3027706077104516,-0.329699141921095,-13.52933056971716,22.93768176395065,13.728440899145394,0.4031291372977651,0.4351679369727192,0.6775548365511042,7598.7822265625,11.657888888888888,7.582222222222223,179.20432136268582,1.1373840061868892,47.87959193084353,1553.0,1435.0,1350.0,1528.0,1471.0,993.0,107.0,294.2,1649337448.0926812,1649337449.2049692,946295e3-f075-420c-975a-156b2b773cbd
