raw_voltage_G-,raw_voltage_G0,raw_voltage_G1,raw_voltage_G2,raw_voltage_G3,raw_voltage_G4,raw_voltage_G5,raw_voltage_G6,load_x,load_y,load_z,load_l,load_m,load_n,rpm,voltage,current,roll,pitch,yaw,aileron1_pwm,elevator_pwm,throttle_pwm,rudder_pwm,aileron2_pwm,pbaro,pdiff,Tt,sample_start_time,sample_end_time,uid
0.0773420419947411,0.2029500168653212,0.0982155970366216,-0.1443146404439907,-0.0950702412735679,0.1265485083642075,-0.1809287052920723,-0.1932808956601469,-12.212237137847158,22.59687929790792,26.825910507079648,0.7627266670459408,0.6342415946907477,0.2965270614604581,4646.601833767361,11.964000000000002,0.16,179.4542516447949,-4.309503682815053,100.63996646395675,1553.0,1435.0,1200.0,1528.0,1471.0,995.0,110.0,294.54999999999995,1649344073.7011583,1649344074.6787603,0798b892-0886-4279-8aff-560a39cb1b00
0.0617244251912711,0.1994964613668736,0.1006840118615634,-0.140515678362966,-0.0928516515197452,0.12565338560181,-0.1802641903353364,-0.2053782031556829,-12.275955042263089,22.779041286476343,26.7251892162007,0.7534280338593534,0.6223241718914633,0.2885484616412747,4655.853515625,11.965666666666667,0.1577777777777777,179.51350884821412,-4.323548543887107,100.37097160605433,1553.0,1435.0,1200.0,1528.0,1471.0,995.0,110.0,294.54999999999995,1649344074.7874897,1649344075.9188912,0798b892-0886-4279-8aff-560a39cb1b00
0.0438027522621572,0.2091476040001859,0.1027746545402764,-0.1464851869082743,-0.0936011272400142,0.1244042594847712,-0.1791991458428431,-0.2084549981586166,-12.206461889722002,22.76824657968536,27.12215520681664,0.7642176298183847,0.655378996401979,0.2869314642948901,4655.853515625,11.96475,0.16,179.55334137308876,-4.329869504508999,100.12649731699972,1553.0,1435.0,1200.0,1528.0,1471.0,995.0,110.0,294.54999999999995,1649344076.0308597,1649344077.1450098,0798b892-0886-4279-8aff-560a39cb1b00
0.2887629555655916,0.610485228470016,0.1461390538323981,-0.3141705290636448,-0.1444208414441396,-0.1143234736957297,-0.233003616317365,-0.2646525321243026,-11.707019170395174,22.073581653743787,27.102117753530013,0.6038240391861546,2.1806647034180444,0.4213431321000789,4653.326171875,11.940666666666669,0.1455555555555555,179.2965152561026,-4.328768610824027,99.65888795740494,1658.0,1435.0,1200.0,1528.0,1551.0,995.0,110.0,294.54999999999995,1649344079.0773437,1649344080.2236545,a6d12a96-3233-4ec6-9b52-e3fb48c6dc6b
0.2987428154057234,0.6125232761908025,0.1427992850806003,-0.3138812577088906,-0.1472609600425389,-0.1152833285817581,-0.2351863001513833,-0.2600504885184928,-11.61351095137882,21.93517323274443,27.26721812184292,0.6000041550681892,2.185933826566089,0.433475823238239,4651.747802734375,11.938875,0.15,179.2688298432119,-4.313172947000345,99.54809555374187,1658.0,1435.0,1200.0,1528.0,1551.0,995.0,110.0,294.54999999999995,1649344080.33233,1649344081.2613385,a6d12a96-3233-4ec6-9b52-e3fb48c6dc6b
0.290235609462496,0.605278345259177,0.144718994681033,-0.3098051612547904,-0.1448415997483053,-0.1117726264853622,-0.2347392444178033,-0.2597086219029326,-11.781093899241403,22.18221398033886,27.297742181602526,0.6003522568929799,2.1593005419112345,0.4259108482528005,4650.80078125,11.941555555555556,0.15,179.2486401834803,-4.298113915487232,99.43099338337812,1658.0,1435.0,1200.0,1528.0,1551.0,995.0,110.0,294.54999999999995,1649344081.371987,1649344082.4645607,a6d12a96-3233-4ec6-9b52-e3fb48c6dc6b
0.4934486941838085,0.975479854715075,0.1944079161189027,-0.4807908410747672,-0.1877983939596332,-0.3207843243227306,-0.2716739367206137,-0.2941187648832028,-11.02957172172436,21.758914187656977,26.818062164728445,0.5163467705401932,3.570908416394699,0.5125931611162129,4651.923177083333,11.90488888888889,0.14,178.85223877135,-4.260916847562951,99.18159357929451,1767.0,1435.0,1200.0,1528.0,1630.0,995.0,110.0,294.54999999999995,1649344084.6051085,1649344085.7418582,e2a6a78d-1950-4b78-88b9-6d3eea15fa7c
0.5022977659607393,0.9754404086284496,0.1942238343854889,-0.4802517444092038,-0.1864703755180853,-0.3208632165068985,-0.270056646883536,-0.2917388503874255,-11.000136330957613,21.58173408115583,26.87937913502153,0.5137942962018471,3.569927633369178,0.50891233845776,4655.853515625,11.905333333333331,0.14,178.8331719188269,-4.248402280888065,99.08732330837,1767.0,1435.0,1200.0,1528.0,1630.0,995.0,110.0,294.54999999999995,1649344085.850314,1649344086.970855,e2a6a78d-1950-4b78-88b9-6d3eea15fa7c
0.5137765767423011,0.9776888355248784,0.1947497821974356,-0.4795022685491785,-0.1869568773474052,-0.324479108552795,-0.2705694461092188,-0.299246756622354,-10.927465779217115,21.611902747893577,26.77600657989056,0.5042245528036086,3.578704022717758,0.5097594355776774,4660.9169921875,11.908666666666669,0.14,178.80730826916977,-4.217051997188922,98.9886430119714,1767.0,1435.0,1200.0,1528.0,1630.0,995.0,110.0,294.54999999999995,1649344087.079647,1649344088.227599,e2a6a78d-1950-4b78-88b9-6d3eea15fa7c
0.6149426360591842,1.1555512401669896,0.2398761056685445,-0.5824697375394878,-0.1988301511736619,-0.429313683385247,-0.2759604123005887,-0.3036910167162687,-10.586500779843236,22.43139196125104,23.31184795614849,0.5082155571045455,4.289637829221273,0.4877294667600368,4663.45263671875,11.845666666666666,0.12,178.63401270954827,-4.159056576355128,98.77533392746216,1886.0,1435.0,1200.0,1528.0,1710.0,995.0,110.0,294.54999999999995,1649344090.1346655,1649344091.2718174,38f0b447-4a87-40cc-ada6-9b9b64cb39cf
0.6013863315425199,1.1506730740314632,0.2420850865026778,-0.5761320640193531,-0.1959111403580915,-0.4318250849143312,-0.2752503826446954,-0.2984841323705377,-10.638353420176456,22.563582029773453,23.11502777693696,0.4892046846782754,4.272815129038035,0.4788288516709628,4651.362196180556,11.843555555555556,0.13,178.61517201217774,-4.138052131973784,98.56417255799197,1886.0,1435.0,1200.0,1528.0,1710.0,995.0,110.0,294.54999999999995,1649344091.379802,1649344092.5020134,38f0b447-4a87-40cc-ada6-9b9b64cb39cf
0.6061067130366701,1.146452342687989,0.2439916473856948,-0.5791036702705118,-0.1927948990063578,-0.4243960699082892,-0.2692019815243225,-0.2952758499667444,-10.5642438918455,22.42928014691579,23.225999265907777,0.5118615139316277,4.255961210241865,0.4631006293097213,4646.040798611111,11.84977777777778,0.1244444444444444,178.5999422081484,-4.130573027400751,98.38848111979154,1886.0,1435.0,1200.0,1528.0,1710.0,995.0,110.0,294.54999999999995,1649344092.609801,1649344093.730239,38f0b447-4a87-40cc-ada6-9b9b64cb39cf
-0.1716649422411826,-0.2452187565746809,0.0594891468843649,0.0604884478043951,-0.0331434194078016,0.3729277544747347,-0.1230673572581966,-0.1450519789046413,-12.80426605542472,24.102901117292777,26.293991241694567,0.8620606187426249,-1.0654043209259343,0.128371595086871,4646.601833767361,11.95211111111111,0.15,179.57410780435032,-4.085520150997962,98.13884529472664,1449.0,1435.0,1200.0,1528.0,1386.0,995.0,110.0,294.54999999999995,1649344094.6393802,1649344095.777105,6c62b58a-7ba0-4340-a4cf-c180e511901a
-0.2108217633667508,-0.2522533099013562,0.0572538685207899,0.0661686845643499,-0.0332880550745746,0.3761097387276557,-0.1245926061230173,-0.1498644023076231,-12.870644972196066,24.144071877223755,26.495321997351084,0.856558043593015,-1.0939431138509577,0.1332064187812293,4662.88916015625,11.958222222222222,0.16,179.5567272496423,-4.067014607215459,97.95965452294146,1449.0,1435.0,1200.0,1528.0,1386.0,995.0,110.0,294.54999999999995,1649344095.8853624,1649344097.0072925,6c62b58a-7ba0-4340-a4cf-c180e511901a
-0.1774240717038988,-0.2473882917050315,0.0601728790824586,0.0646697331954798,-0.031986334112244,0.3724018066630251,-0.1229884650774397,-0.1497329156221671,-12.820473423649371,24.162716725347995,26.46657809389285,0.8518967115197117,-1.0754267641984234,0.1257329580064251,4663.45263671875,11.955555555555554,0.16,179.53419521448035,-4.036139638277931,97.8046699415748,1449.0,1435.0,1200.0,1528.0,1386.0,995.0,110.0,294.54999999999995,1649344097.1175215,1649344098.2352402,6c62b58a-7ba0-4340-a4cf-c180e511901a
-0.4217268840420582,-0.6661349200528389,0.0283004392999804,0.241033190890747,0.0269855696710989,0.6212277122608666,-0.0627805817916133,-0.0802551999749388,-13.50999739754383,25.800111933943445,26.69170261986495,1.0221652472035765,-2.6668030982284083,-0.0468251738717606,4672.208821614583,11.913333333333334,0.14,179.63814917582815,-3.982105395139661,97.44807866647686,1342.0,1435.0,1200.0,1528.0,1293.0,995.0,110.0,294.54999999999995,1649344100.169521,1649344101.3094091,d666e920-a63b-4568-a339-4a90ee52157a
-0.4309967169038771,-0.6727355680055311,0.020924020630771,0.2448463126010698,0.0210555076044449,0.6240283842890357,-0.0707749894488236,-0.0845548242590791,-13.634931048971277,25.925053360211,26.60962568907983,1.020242246296047,-2.690882829355824,-0.0183306661649337,4675.607042100694,11.914777777777775,0.14,179.62008104874374,-3.973068533117173,97.1887295535023,1342.0,1435.0,1200.0,1528.0,1293.0,995.0,110.0,294.54999999999995,1649344101.4186738,1649344102.535328,d666e920-a63b-4568-a339-4a90ee52157a
-0.4261711442948606,-0.6699217459568019,0.0293654836993754,0.2395473882920107,0.027472071427538,0.6262373650433394,-0.0595065563049476,-0.0718663318479627,-13.366307093451097,25.83735037027141,26.69738593832155,1.037147338731912,-2.681822289719092,-0.0539791097137903,4673.6240234375,11.910333333333332,0.14,179.61361361850965,-3.951972545228204,96.98514665837118,1342.0,1435.0,1200.0,1528.0,1293.0,995.0,110.0,294.54999999999995,1649344102.6443417,1649344103.7628624,d666e920-a63b-4568-a339-4a90ee52157a
-0.6505011146255341,-1.0540874034157006,-0.0217040533928817,0.3988175353777132,0.0553604562614332,0.8409555543144122,-0.0358126048636137,-0.0638587751247942,-14.154578655554577,27.922292569167897,24.435162505622685,1.1708943536646326,-4.11985959560409,-0.1057710473166302,4675.890082465277,11.829777777777778,0.12,179.7174279404344,-3.917729439256214,96.53658233263958,1227.0,1435.0,1200.0,1528.0,1189.0,995.0,110.0,294.54999999999995,1649344105.5176723,1649344106.6276662,44d504c4-856a-4cc3-9a7d-bfd4bb0f25fa
-0.6454125674368177,-1.0651980593515755,-0.0262797997838757,0.3966611493589015,0.0540324379572228,0.8534336659511526,-0.0357468613506787,-0.0625176080143441,-14.258437639738196,27.83922746273144,24.363374353714608,1.202956401496034,-4.1601859550256775,-0.0993216855079244,4671.642740885417,11.829777777777778,0.1122222222222222,179.7074437216876,-3.906552024406965,96.14224819109806,1227.0,1435.0,1200.0,1528.0,1189.0,995.0,110.0,294.54999999999995,1649344106.7387688,1649344108.0708714,44d504c4-856a-4cc3-9a7d-bfd4bb0f25fa
-0.6377468747372658,-1.062949630749709,-0.0265427737241803,0.394504763349972,0.05113972477705,0.85223713469596,-0.0375613814916987,-0.0630435563813613,-14.165644509778868,28.000783823622854,24.21383202506297,1.2062126685960728,-4.1508327917947465,-0.0923989299306602,4662.0439453125,11.83,0.12,179.70026746959968,-3.8911775057446127,95.79260549511577,1227.0,1435.0,1200.0,1528.0,1189.0,995.0,110.0,294.54999999999995,1649344108.179087,1649344109.2950609,44d504c4-856a-4cc3-9a7d-bfd4bb0f25fa
0.0600545407866927,0.1956307448321594,0.098304097880695,-0.1341254115379676,-0.0948502534487344,0.1241149881748464,-0.1848662344359305,-0.2184743062179962,-12.353661258768875,22.95922596076246,26.775889270087408,0.7366011017977214,0.6069914200848685,0.3005985380306476,4667.120768229167,11.962222222222223,0.16,179.18521656466737,-3.896519994336032,95.39580489637396,1553.0,1435.0,1200.0,1528.0,1471.0,995.0,110.0,294.54999999999995,1649344110.6137495,1649344111.7535515,d5d99859-ac04-4287-bbd9-bdd17310a3b8
0.0538746535741363,0.1919754074204581,0.0983698413550955,-0.1316403077759633,-0.0934170454906337,0.1257980212585537,-0.1841562047751208,-0.2103484109726781,-12.406007268282286,22.949059939424178,26.834659131678382,0.7346962170360345,0.5928293246635425,0.2971758590652839,4673.058322482639,11.967555555555556,0.16,179.09690677215855,-3.883189931533368,95.5978669360499,1553.0,1435.0,1200.0,1528.0,1471.0,995.0,110.0,294.54999999999995,1649344111.8693569,1649344112.9810555,d5d99859-ac04-4287-bbd9-bdd17310a3b8
0.0430927226686031,0.1985103091950399,0.1041947137060021,-0.1341911550292988,-0.0900378303826781,0.122392509003833,-0.1796462015590697,-0.2060224889872361,-12.318031421936762,22.981665712279145,26.96571591404886,0.7333690261024324,0.6162388378507031,0.2792133634773251,4680.00390625,11.9655,0.16,179.08629645273788,-3.8670804323412655,95.76059771084526,1553.0,1435.0,1200.0,1528.0,1471.0,995.0,110.0,294.54999999999995,1649344113.089349,1649344114.4124444,d5d99859-ac04-4287-bbd9-bdd17310a3b8
0.0436485079475852,0.1895358186419914,0.0824624476932835,-0.3875781957668054,-0.1343519737108937,0.3768541571670609,-0.1275626945076087,-0.1605608679313064,-12.240850445220136,22.28542391871154,28.843512020174494,1.8713979992963057,0.595197764954286,0.2947190384159944,4678.442437065973,11.952555555555556,0.1411111111111111,179.0248573833338,-3.780711433341919,96.1320780394239,1553.0,1522.0,1200.0,1528.0,1471.0,995.0,110.0,294.54999999999995,1649344116.5541642,1649344117.6904366,d6e2e337-3d40-46c9-9d0e-90e44da3f64e
0.0837773173097747,0.1909644749994982,0.0812992938031314,-0.3909412283413878,-0.1361219906396754,0.3763484381184342,-0.1286879195557765,-0.1411791823288785,-12.227178095648869,22.26855442791181,28.52189404737101,1.8776336259669435,0.6036498548024634,0.3000237043070412,4674.190538194444,11.956555555555555,0.1577777777777777,179.0163439319883,-3.7569774271816407,96.20109330643736,1553.0,1522.0,1200.0,1528.0,1471.0,995.0,110.0,294.54999999999995,1649344117.8033974,1649344119.1270964,d6e2e337-3d40-46c9-9d0e-90e44da3f64e
0.0736634413317742,0.1977476848439792,0.0883899810394912,-0.3923789879755454,-0.1303517354614702,0.3729409031749361,-0.1217919336388481,-0.1452886558892057,-12.13320969331394,22.180171277066663,28.848324686784544,1.8730861759806856,0.6261578159285744,0.2740511590969968,4673.6240234375,11.953666666666669,0.15,178.9994050628467,-3.745250846150375,96.26443572189017,1553.0,1522.0,1200.0,1528.0,1471.0,995.0,110.0,294.54999999999995,1649344119.2357705,1649344120.3531754,d6e2e337-3d40-46c9-9d0e-90e44da3f64e
0.087745694919878,0.1984314170165735,0.0753464744846313,-0.7034640829208244,-0.1789756179875618,0.673283395625806,-0.0522616243912936,-0.0751535056833704,-11.894477799451066,21.830831531182582,31.136128170904417,3.247247182552276,0.6442242173685189,0.2599542148446721,4676.17333984375,11.941666666666666,0.14,178.93642616523974,-3.641529158666247,96.42108838723412,1553.0,1613.0,1200.0,1528.0,1471.0,995.0,110.0,294.54999999999995,1649344121.996322,1649344123.2206268,07f328e8-768e-4582-a41f-8286e3b613df
0.0804350198822839,0.1965117074439836,0.0738475231313878,-0.7019256848654326,-0.1792911867155977,0.6737304512545574,-0.0540498471366348,-0.0778884346578699,-12.003919192033717,21.828867153312345,31.121628856154462,3.244636465986136,0.6376427770653892,0.2646583396985621,4671.07666015625,11.936555555555556,0.14,178.93166324665853,-3.632189776181769,96.42603192637335,1553.0,1613.0,1200.0,1528.0,1471.0,995.0,110.0,294.54999999999995,1649344123.3291025,1649344124.4500053,07f328e8-768e-4582-a41f-8286e3b613df
0.0906647054654924,0.1957096370003127,0.0732952778727976,-0.6961928510565396,-0.1790282127794142,0.6710349687869729,-0.0554830550894213,-0.0777569476797569,-12.00833250940011,21.840177415243907,31.369273481315744,3.2257322218537685,0.6317302414202974,0.2673882815590673,4666.83935546875,11.945,0.1466666666666666,178.93914002706995,-3.618487800092423,96.40604148049258,1553.0,1613.0,1200.0,1528.0,1471.0,995.0,110.0,294.54999999999995,1649344124.5583837,1649344125.675251,07f328e8-768e-4582-a41f-8286e3b613df
0.0979227856925391,0.191607243942043,0.057871857238644,-0.9744851450802082,-0.2271787432285641,0.9410565704984166,0.0009380020610253,-0.0120660594217871,-11.887713349696808,21.78806157894285,32.910666398051355,4.459459006097086,0.6351138254000488,0.2730065584056941,4653.326171875,11.916666666666666,0.1366666666666666,178.92236963592782,-3.5286328907273017,96.35632908698352,1553.0,1710.0,1200.0,1528.0,1471.0,995.0,110.0,294.54999999999995,1649344126.5885737,1649344127.6357949,5c0ad692-8c52-400f-a783-227c6b0c8acc
0.0954771282014278,0.1935926969976081,0.0599493512417472,-0.9756159336845844,-0.2268763231940271,0.9423977374153768,0.0008328124819317,-0.0305268288221233,-11.971322126890255,21.976302368406685,33.23543054331255,4.466384568303584,0.6405479862124354,0.2704652151393106,4653.326171875,11.921666666666663,0.1333333333333333,178.93602546080845,-3.52041531938213,96.28158405016632,1553.0,1710.0,1200.0,1528.0,1471.0,995.0,110.0,294.54999999999995,1649344127.749781,1649344128.9586098,5c0ad692-8c52-400f-a783-227c6b0c8acc
0.0900598654219652,0.1917781769853454,0.0553867536466933,-0.9720263374148466,-0.2291641965992554,0.9408067452920936,-0.0009159641468923,-0.0329330402825413,-11.816457814585762,21.731099831191,33.204252688630255,4.452932467517806,0.6321873109897478,0.2822674686865749,4649.960286458333,11.919666666666666,0.1366666666666666,178.95741305982946,-3.513671147906977,96.21429530319308,1553.0,1710.0,1200.0,1528.0,1471.0,995.0,110.0,294.54999999999995,1649344129.0678644,1649344130.1893227,5c0ad692-8c52-400f-a783-227c6b0c8acc
0.0905332184851419,0.1879519065224618,0.0477079150302966,-1.077202827886531,-0.2545411833565986,1.0465485534244967,0.0111413904909043,-0.0032038374146069,-11.977768820198222,22.4859710350699,33.94340943308873,4.9324592269107805,0.6249025443356413,0.3093665576319889,4655.853515625,11.888,0.1277777777777777,178.94298314684295,-3.4905779463000792,96.0792814360496,1553.0,1814.0,1200.0,1528.0,1471.0,995.0,110.0,294.54999999999995,1649344132.1183689,1649344133.256656,88fba1ec-acd4-4001-94c3-d5fa3ce76bdb
0.0911906532819112,0.1923304221993005,0.0498905985985562,-1.0508133771648804,-0.2497550573658565,1.0162408105453866,0.0058687631790556,-0.0229005849764117,-11.9288111574063,22.423031979256084,33.68806589500536,4.8045009397977205,0.6401294301445316,0.3078406559782169,4650.80078125,11.892555555555552,0.1211111111111111,178.96718478380205,-3.492162621335326,95.98252042280778,1553.0,1814.0,1200.0,1528.0,1471.0,995.0,110.0,294.54999999999995,1649344133.365259,1649344134.4866648,88fba1ec-acd4-4001-94c3-d5fa3ce76bdb
0.0827886365000335,0.1825083464829377,0.0515604830400075,-1.061437530340957,-0.2490450276569286,1.0359638535797968,0.0122195835861059,-0.0070169594664292,-11.935011390197458,22.59385633102236,33.76179694917508,4.874010934073245,0.6040979011799252,0.2943030384184796,4645.759765625,11.891666666666667,0.13,178.98425570326762,-3.454886413337224,95.9146617344938,1553.0,1814.0,1200.0,1528.0,1471.0,995.0,110.0,294.54999999999995,1649344134.595062,1649344135.6324236,88fba1ec-acd4-4001-94c3-d5fa3ce76bdb
0.040673362523207,0.1943158752610509,0.1247855716503098,0.1971296961387236,-0.0386264259204664,-0.1900862673144242,-0.2528712986986034,-0.2708455688210402,-12.57777369141173,24.210187722931067,25.116694476463863,-0.7074473575579089,0.5792668798543711,0.2844822933856238,4646.879991319444,11.964666666666666,0.15,178.9798950069375,-3.885412636357645,95.80113867811882,1553.0,1349.0,1200.0,1528.0,1471.0,995.0,110.0,294.54999999999995,1649344136.6242015,1649344137.6342576,46c2efff-3ae9-4e35-852f-d9a2a394aae8
0.0547819136357313,0.1934349126423113,0.123957203811223,0.1965248561316131,-0.0387184667899095,-0.1914142857716794,-0.2550145364434391,-0.2694386581738608,-12.751107744519656,24.237812909678947,24.71541465522089,-0.7090765562408126,0.5807685063140964,0.2879779025799627,4662.889431423611,11.964777777777776,0.15,178.96754298927848,-3.8905321002999154,96.04044953388838,1553.0,1349.0,1200.0,1528.0,1471.0,995.0,110.0,294.54999999999995,1649344137.7420871,1649344138.9990947,46c2efff-3ae9-4e35-852f-d9a2a394aae8
0.0404498346918709,0.1925408013354747,0.1233655124926887,0.1989836622385686,-0.0389419946354034,-0.1918613414770144,-0.2547515624904667,-0.2853748801072494,-12.652347189547104,24.1943670801629,24.847840893626948,-0.7158742611431462,0.575201373411357,0.2889015207282164,4665.9912109375,11.966111111111111,0.15,178.9571322631636,-3.88082687580802,96.20281223737848,1553.0,1349.0,1200.0,1528.0,1471.0,995.0,110.0,294.54999999999995,1649344139.131076,1649344140.220375,46c2efff-3ae9-4e35-852f-d9a2a394aae8
0.0220153624000487,0.1963276256990998,0.1441536007466797,0.5091350873948631,0.0069469563383287,-0.4948730982823962,-0.3263593724107294,-0.3418748370674512,-12.788671046207792,25.52775452104917,22.690412369627936,-2.0869459991850148,0.5726445568858132,0.2995091202220984,4668.53271484375,11.966333333333331,0.15,178.9022114709574,-3.9748990238147366,96.55437042196802,1553.0,1264.0,1200.0,1528.0,1471.0,995.0,110.0,294.54999999999995,1649344142.153127,1649344143.292324,9c213136-2e31-47cd-91da-70c43f95fa90
0.0244610199326087,0.2024812152962974,0.1515694652189629,0.5086222882891449,0.0117725279314848,-0.5002246190297152,-0.3228881160465098,-0.3463059482290418,-12.863199353353806,25.70270794784308,22.759823915417737,-2.0963122348101746,0.5961727893889947,0.2785996122420347,4676.17333984375,11.964,0.15,178.9094970060721,-3.986845024673089,96.72696019537534,1553.0,1264.0,1200.0,1528.0,1471.0,995.0,110.0,294.54999999999995,1649344143.4011412,1649344144.5210106,9c213136-2e31-47cd-91da-70c43f95fa90
0.030180702864034,0.2024812152921981,0.1463231355659576,0.5033365128778875,0.0083801642493309,-0.4962931578575608,-0.3240977962909198,-0.3465294760440465,-12.810903208057557,25.405857058346264,22.60530920826849,-2.077781700906659,0.5974852784324874,0.2919879154699087,4672.491861979167,11.96577777777778,0.15,178.90298404124354,-3.9709755070233874,96.8416436249993,1553.0,1264.0,1200.0,1528.0,1471.0,995.0,110.0,294.54999999999995,1649344144.6293497,1649344145.7146652,9c213136-2e31-47cd-91da-70c43f95fa90
0.0142970776234791,0.2035199622491975,0.1696489220027734,0.7598281059599062,0.0503245056089209,-0.7444485859240046,-0.3801901442240306,-0.4079601963355679,-13.061161094169536,26.85643843008201,20.90746130015155,-3.2036213478358246,0.5881241843899447,0.2821357524492369,4667.403157552083,11.931666666666668,0.1355555555555555,178.86208335067366,-4.068947218727489,97.12773141075463,1553.0,1178.0,1200.0,1528.0,1471.0,995.0,110.0,294.54999999999995,1649344147.6833465,1649344148.8242314,ef041d34-45d8-4c94-816f-fec688b03f99
0.0225150128693304,0.2103704327024709,0.1720551333323318,0.75274095935817,0.050442843870638,-0.7451980618887429,-0.3788095308865877,-0.3973623449898207,-13.07185732199284,26.8686425545763,20.8419072592309,-3.189133772053788,0.6154996501038746,0.2773907610724226,4665.9912109375,11.93,0.1325,178.87367607896996,-4.068929491066362,97.1767196144842,1553.0,1178.0,1200.0,1528.0,1471.0,995.0,110.0,294.54999999999995,1649344148.9374294,1649344150.0471642,ef041d34-45d8-4c94-816f-fec688b03f99
0.0105234017500189,0.2078590318269696,0.1690046358999135,0.7531354202104608,0.0478919967961822,-0.7412140052477341,-0.380926471356634,-0.4001893155893141,-13.075845318786133,26.885963093527284,21.08986432607201,-3.181070427987408,0.6036693006353948,0.288076745871909,4663.172200520833,11.92777777777778,0.13,178.86936433232893,-4.062519536399814,97.18890030823157,1553.0,1178.0,1200.0,1528.0,1471.0,995.0,110.0,294.54999999999995,1649344150.156665,1649344151.2790816,ef041d34-45d8-4c94-816f-fec688b03f99
0.0091822347320562,0.212855536180836,0.1726731219586465,0.8511852391569551,0.0542165196322307,-0.8421697420056862,-0.4131407836880347,-0.4358617358303881,-13.115875485049028,27.82162602150916,20.14897601928053,-3.622892662007228,0.6192080221310277,0.3200535236070604,4668.53271484375,11.913666666666666,0.13,178.87920891165265,-4.092431590959977,97.19948178907572,1553.0,1088.0,1200.0,1528.0,1471.0,995.0,110.0,294.54999999999995,1649344153.623175,1649344154.7570794,3c6083b0-7e5b-4c92-bab3-944eb7b07c43
0.0127981262254384,0.2072015970407441,0.1747506158915159,0.8432171299744583,0.0570040432172703,-0.8288895524974899,-0.4066847725294101,-0.4407530528670028,-13.161206388969411,27.77515029351008,20.23986107921918,-3.5752891795710555,0.5986296004194395,0.3035945450386629,4661.76220703125,11.901333333333334,0.13,178.8821170544192,-4.109045504365472,97.1453366027953,1553.0,1088.0,1200.0,1528.0,1471.0,995.0,110.0,294.54999999999995,1649344154.8654678,1649344155.9855454,3c6083b0-7e5b-4c92-bab3-944eb7b07c43
0.0185835526486156,0.2138416883478529,0.1731201776698848,0.8556163494097387,0.0552684153775424,-0.8469953160463949,-0.4134037575427174,-0.4352174496810306,-13.079954380754907,27.77131799520165,20.18149984786492,-3.644019841639478,0.6218461169565905,0.3186356529009398,4660.9169921875,11.894333333333332,0.1233333333333333,178.8797720228042,-4.10942130706543,97.11246290232005,1553.0,1088.0,1200.0,1528.0,1471.0,995.0,110.0,294.54999999999995,1649344156.0944278,1649344157.2187915,3c6083b0-7e5b-4c92-bab3-944eb7b07c43
0.0588185633698774,0.1919885561160905,0.100854944929407,-0.1085774930988958,-0.0897354103377021,0.1052203120204462,-0.1883374905632996,-0.216436257988328,-12.370660249242531,23.1024109891042,26.92162173153791,0.6376032766408799,0.5891783323528788,0.295015371101709,4665.14501953125,11.969333333333331,0.1433333333333333,178.89192065260795,-3.813666858927885,97.07628339028648,1553.0,1435.0,1200.0,1528.0,1471.0,995.0,110.0,294.54999999999995,1649344159.1530235,1649344160.495086,f4a73cf3-391c-4996-9025-c76d57b08a02
0.0369098010943068,0.1943022208414011,0.0999476848888354,-0.110507317239762,-0.0917072091649393,0.1042842260086109,-0.1886409220436117,-0.2122200768151687,-12.230553714223689,23.06543583758899,26.853273536897383,0.6396223195604384,0.5976495706158512,0.2996495383120304,4674.757052951389,11.967111111111112,0.15,178.87351708734428,-3.8116564591503086,97.0968422596882,1553.0,1435.0,1200.0,1528.0,1471.0,995.0,110.0,294.54999999999995,1649344160.6039093,1649344161.72134,f4a73cf3-391c-4996-9025-c76d57b08a02
0.0616521073869031,0.2012432150198933,0.1062691733758371,-0.1123152630788919,-0.0871810231077822,0.0995557526179227,-0.1838365902774167,-0.1984645162810905,-12.191076122333108,23.05343020649789,26.953934316930205,0.6333461904278204,0.623134094113932,0.2790259967488511,4678.72607421875,11.969,0.15,178.8591387802315,-3.813762813599349,97.11901001809444,1553.0,1435.0,1200.0,1528.0,1471.0,995.0,110.0,294.54999999999995,1649344161.8295162,1649344162.9537723,f4a73cf3-391c-4996-9025-c76d57b08a02
0.0998655055397872,0.2110130751965975,0.2477335469940702,-0.1229364181524685,0.0422029942091531,0.0917845360827936,-0.0352510459170634,-0.0604390183371498,-11.218135389550724,23.05831909903488,26.93116298687558,0.6474044670077,0.6633684575827806,-0.2998500767842302,4681.85009765625,11.964777777777776,0.1477777777777777,178.84004916041124,-3.812347826076295,97.12586752802116,1553.0,1435.0,1200.0,1424.0,1471.0,995.0,110.0,294.54999999999995,1649344165.0915844,1649344166.2292564,c6a5a429-e141-43a8-adfd-95a162aa2e67
0.1054832859229318,0.2189039361785496,0.2551548899021587,-0.1272354942386839,0.0477342124425162,0.088587211495246,-0.0288832417100198,-0.0598615711625965,-11.206035520384756,23.016019152641984,27.066438765659363,0.650034090498747,0.6926784626258052,-0.3254325823990726,4683.83935546875,11.966888888888889,0.1411111111111111,178.8402996006808,-3.8150191889516782,97.14139027127484,1553.0,1435.0,1200.0,1424.0,1471.0,995.0,110.0,294.54999999999995,1649344166.3377514,1649344167.4581528,c6a5a429-e141-43a8-adfd-95a162aa2e67
0.102025178863158,0.2176679587904118,0.2543922655643054,-0.1269067768129197,0.0464850862972921,0.089178902820092,-0.0287254573571026,-0.0612290362719623,-11.073762407228545,23.0250129727744,27.01830957088689,0.6507027522972963,0.6874445012749334,-0.3230420804259301,4676.17333984375,11.965,0.14,178.8441457560934,-3.810272112614781,97.13925545770428,1553.0,1435.0,1200.0,1424.0,1471.0,995.0,110.0,294.54999999999995,1649344167.566893,1649344168.6874342,c6a5a429-e141-43a8-adfd-95a162aa2e67
0.1771173812097158,0.2569825585945408,0.4957628645247282,-0.1406603140459852,0.2621105498378556,0.0542822631887214,0.214591163989926,0.1967878299558291,-9.427435950523364,23.20220193924579,27.58803559297493,0.6174227418047844,0.835194361035806,-1.2856588564502482,4675.890082465277,11.967666666666666,0.14,178.82501211949847,-3.802090352330883,97.07941541147588,1553.0,1435.0,1200.0,1304.0,1471.0,995.0,110.0,294.54999999999995,1649344169.6065493,1649344170.7314112,3620947d-fb5d-4211-8656-f8c78172ef9d
0.1706613715853356,0.2607430855137548,0.4972092209808372,-0.1452623580718326,0.2633070811294274,0.0509556430354618,0.2179177839957469,0.1978528742018437,-9.273288802220064,22.985741667186,27.05698321872085,0.6189584844861404,0.853568941920919,-1.2941342078993048,4669.098036024306,11.96788888888889,0.14,178.82457650521144,-3.794253658895678,97.11508645387124,1553.0,1435.0,1200.0,1304.0,1471.0,995.0,110.0,294.54999999999995,1649344170.8393905,1649344171.9637003,3620947d-fb5d-4211-8656-f8c78172ef9d
0.1840993386433266,0.2613084794198108,0.4936459246178383,-0.1487993576239198,0.259638595078009,0.0542165197039182,0.2134603761632396,0.1894508577128677,-9.445424778999126,23.049866063922003,27.10552371820661,0.6344334629531424,0.8566883096002471,-1.2779748676945162,4663.45263671875,11.96888888888889,0.1455555555555555,178.81673848368388,-3.797962593910602,97.13571210734484,1553.0,1435.0,1200.0,1304.0,1471.0,995.0,110.0,294.54999999999995,1649344172.076292,1649344173.3970728,3620947d-fb5d-4211-8656-f8c78172ef9d
0.2373647048017247,0.2849103878203557,0.6833421472757802,-0.1167296852731777,0.4306110802878998,-0.0105539586793089,0.3900605043323477,0.3781083402067113,-8.19976243681141,23.77919191925477,26.77852109041679,0.4313995292479749,0.9473811749389964,-2.017615752196199,4653.326171875,11.928888888888888,0.1322222222222222,178.79697191622583,-3.805686114905809,97.10015110688612,1553.0,1435.0,1200.0,1166.0,1471.0,995.0,110.0,294.54999999999995,1649344175.0122654,1649344176.0655184,7c69d8ed-a994-4689-9a54-b65fec1606df
0.2289232422385749,0.2835429234943906,0.6844466376530807,-0.115822425174763,0.4316498272067778,-0.0106065534687334,0.3921774442726292,0.3629084486466226,-8.088277790551842,23.75819892901017,26.711435642124624,0.4291960411328182,0.9420158276568944,-2.023715723113748,4653.326171875,11.93288888888889,0.1355555555555555,178.80249222689503,-3.805996698785568,97.05191858769724,1553.0,1435.0,1200.0,1166.0,1471.0,995.0,110.0,294.54999999999995,1649344176.1740992,1649344177.2881258,7c69d8ed-a994-4689-9a54-b65fec1606df
0.23729676986523,0.2877274958192021,0.6892968625094923,-0.1161292280961999,0.4352394209858852,-0.0133639447016057,0.3955467974257671,0.3742212571356285,-8.091507910172085,23.795941134513445,26.89325723827167,0.4242109509939888,0.9564677923291968,-2.0392711730220348,4653.326171875,11.926,0.13,178.79521428087943,-3.807622568399247,97.01350712162488,1553.0,1435.0,1200.0,1166.0,1471.0,995.0,110.0,294.54999999999995,1649344177.3964674,1649344178.518429,7c69d8ed-a994-4689-9a54-b65fec1606df
-0.0203365889352173,0.1588669914397652,-0.0798475903061777,-0.0742462454105783,-0.2523059047095211,0.1138064105198761,-0.379585304090214,-0.4099850958683998,-13.576730908369491,23.489742524131152,26.592751931283363,0.5723648615272214,0.4607274437635691,1.0298829076594709,4658.3837890625,11.970444444444446,0.14,178.93624250904207,-3.802760469779452,97.09904385733068,1553.0,1435.0,1200.0,1623.0,1471.0,995.0,110.0,294.54999999999995,1649344179.6326818,1649344180.7666483,e22c58a7-0376-45e7-a072-c132faa9911f
-0.0211649567888026,0.1642448080380965,-0.0756794533838238,-0.0734967697166411,-0.2495446781448898,0.1076265233881379,-0.3779417167354921,-0.4085650365478264,-13.581192042960945,23.533315826309,26.583298801537723,0.5572798420180568,0.4811855834867261,1.0187232215875714,4665.427408854167,11.96788888888889,0.14,178.93700597240928,-3.8134095884691472,97.0659644922704,1553.0,1435.0,1200.0,1623.0,1471.0,995.0,110.0,294.54999999999995,1649344180.8753765,1649344181.9987342,e22c58a7-0376-45e7-a072-c132faa9911f
-0.0062674836599501,0.1633506967149066,-0.0745223680646293,-0.0737334462288149,-0.2491502172147598,0.109506786925566,-0.3768898208460344,-0.3952059589299735,-13.558215888385256,23.61898304655369,26.702349618122057,0.562694985945748,0.4767183042956662,1.0151495975426958,4671.928548177083,11.966666666666669,0.14,178.90994172727804,-3.8135708093926817,97.0665291212418,1553.0,1435.0,1200.0,1623.0,1471.0,995.0,110.0,294.54999999999995,1649344182.1071672,1649344183.2347386,e22c58a7-0376-45e7-a072-c132faa9911f
-0.0678822762108876,0.1401695459044728,-0.2354361254234126,-0.0401779721111859,-0.3933256942998586,0.1072320625135816,-0.5498346635797057,-0.5701625544676219,-14.71503619594352,23.851114771583543,26.26090568980824,0.474764163836517,0.3875465564407329,1.6730639944878134,4684.125162760417,11.953555555555557,0.1355555555555555,178.9670254127214,-3.811808762882426,97.08767614582206,1553.0,1435.0,1200.0,1712.0,1471.0,995.0,110.0,294.54999999999995,1649344184.076491,1649344185.275535,1afc70b6-168b-4814-916a-adbe00844378
-0.0603349242263915,0.1371847919316379,-0.2299005236760962,-0.0357731587388089,-0.3890129210940647,0.1064299920525278,-0.5477308715685534,-0.5700047699091122,-14.840087852714692,24.169687000822723,26.33395205748221,0.4653618106354119,0.3764035947016417,1.6562111475377994,4681.56591796875,11.954444444444444,0.1311111111111111,178.9669662177486,-3.819698010828745,97.0490286587684,1553.0,1435.0,1200.0,1712.0,1471.0,995.0,110.0,294.54999999999995,1649344185.3844254,1649344186.5121107,1afc70b6-168b-4814-916a-adbe00844378
-0.0534844532141301,0.1463888790681169,-0.2265870518514909,-0.035733712657634,-0.386685601406436,0.0982778005058944,-0.5451800237717392,-0.5681771005532948,-14.705496282090843,23.997753908358764,26.48609117337919,0.446070992392906,0.4088257902210785,1.646386071230901,4675.328287760417,11.953333333333331,0.14,178.966674796344,-3.8302380362191975,97.00196637865729,1553.0,1435.0,1200.0,1712.0,1471.0,995.0,110.0,294.54999999999995,1649344186.6460712,1649344187.730709,1afc70b6-168b-4814-916a-adbe00844378
-0.1091691845042608,0.1312678787674833,-0.3644117059337298,0.0114701079139144,-0.5118480696825128,0.0763063293134269,-0.702819796723665,-0.7179408045549063,-15.727605636194756,24.5562543022972,26.29695315044518,0.2865128741948031,0.3464837328722964,2.226550978329671,4671.07666015625,11.939,0.1366666666666666,178.9938635027001,-3.828361441744737,96.94293760712031,1553.0,1435.0,1200.0,1801.0,1471.0,995.0,110.0,294.54999999999995,1649344189.6680782,1649344190.803997,86677491-9b4b-456a-bc35-64fdee901d89
-0.0906295217641952,0.1325695996712378,-0.3576269774211825,0.0118514201018585,-0.5081927311079454,0.0750966492568973,-0.697349936862686,-0.7234501106701946,-15.555376823324844,24.76383367862475,26.399921303228226,0.2847514269802052,0.3496210686897394,2.2048773568473843,4665.709147135417,11.939222222222222,0.13,178.9748603986093,-3.8208731353890704,96.90873733212624,1553.0,1435.0,1200.0,1801.0,1471.0,995.0,110.0,294.54999999999995,1649344190.91286,1649344192.0502262,86677491-9b4b-456a-bc35-64fdee901d89
-0.1021214829166656,0.1254298577690421,-0.360020040587773,0.0186361474609875,-0.5067989689598811,0.0743077274899534,-0.7004793278115347,-0.7197158789923762,-15.828547191452294,24.74921623105646,26.16194483896671,0.2672824305513558,0.3258980072362907,2.2093714963165625,4659.791124131944,11.942222222222222,0.13,178.96829734572682,-3.822818031755232,96.82152112879456,1553.0,1435.0,1200.0,1801.0,1471.0,995.0,110.0,294.54999999999995,1649344192.1585045,1649344193.206358,86677491-9b4b-456a-bc35-64fdee901d89
0.0243295330007583,0.1846910299840525,0.0494961377140693,-0.0815832182971013,-0.1089851027419479,0.1011705136400204,-0.212333863584856,-0.2427730988840735,-12.144016850394244,20.070515456555285,28.6072542799306,0.5453370272007555,0.5386334610002637,0.4285415442652101,7565.248046875,11.657000000000002,7.577777777777777,179.80319083129268,-4.08062499236531,83.53479359968395,1553.0,1435.0,1350.0,1528.0,1471.0,995.0,110.0,294.54999999999995,1649344198.2237632,1649344199.2084124,c89a1a05-78d8-404c-b438-794fd8115249
0.0315087211780373,0.1812066256061302,0.0455383801481647,-0.0754559255620454,-0.1131532397043528,0.1005656736174801,-0.2189608071911668,-0.2500706261920035,-12.217647344012944,20.3092683149446,28.79467518695361,0.5315346635972502,0.5234236053284507,0.448795884255281,7565.248046875,11.664,7.543333333333333,-99.92522587172022,-4.0944490106542,78.26052759387936,1553.0,1435.0,1350.0,1528.0,1471.0,995.0,110.0,294.54999999999995,1649344199.323763,1649344200.432107,c89a1a05-78d8-404c-b438-794fd8115249
0.0287737923651264,0.189358816970963,0.0354796274534808,-0.0967962606305341,-0.1252368923378053,0.0983961387747486,-0.2237469331591134,-0.2477170098382481,-11.85289094179558,19.861621791796107,26.775728552153577,0.5711914123258635,0.5712936853157368,0.4841704278086701,7572.675021701389,11.65877777777778,7.59111111111111,-179.82780986870105,-4.073832606395079,73.94725554391722,1553.0,1435.0,1350.0,1528.0,1471.0,995.0,110.0,294.54999999999995,1649344200.5411046,1649344201.660445,c89a1a05-78d8-404c-b438-794fd8115249
0.2604406655098265,0.5852791801988197,0.0760039092377937,-0.262943201369505,-0.1745576557440329,-0.1298915310767515,-0.2767230367964735,-0.3066626225669588,-11.566153289293164,18.962394585270395,27.681936178376347,0.4293308728339128,2.069184628720174,0.6198320384439941,7568.963595920139,11.619555555555555,7.558888888888889,179.83505897614015,-4.000631571785282,65.39736134467869,1658.0,1435.0,1350.0,1528.0,1551.0,995.0,110.0,294.54999999999995,1649344203.5968456,1649344204.7418635,7170a8bc-ca4a-4e32-82fd-d3eb0fe03587
0.2598358254890424,0.5770480971380333,0.0746627422187933,-0.2564345959077249,-0.1750704549519502,-0.1271040073139294,-0.2776697430709622,-0.2978003999571548,-11.520578544400315,19.1116791177671,27.77280163666852,0.4218732613049517,2.036301317968779,0.6228664220498331,7558.5771484375,11.62211111111111,7.605555555555556,179.74491717511398,-3.979276416162808,62.71594291301782,1658.0,1435.0,1350.0,1528.0,1551.0,995.0,110.0,294.54999999999995,1649344204.8634489,1649344205.961098,7170a8bc-ca4a-4e32-82fd-d3eb0fe03587
0.263057255902221,0.5806245421744854,0.0701132933711644,-0.2639819484837167,-0.1790413615452901,-0.1271566020705443,-0.2804441183328503,-0.2926987056749555,-11.532517848265378,18.881995647932264,27.250448869005982,0.4369416445194845,2.0550661987409287,0.6381422178977143,7557.837185329861,11.618666666666666,7.601111111111111,179.62793424846944,-3.9613469324321766,60.87500885621346,1658.0,1435.0,1350.0,1528.0,1551.0,995.0,110.0,294.54999999999995,1649344206.0698617,1649344207.192088,7170a8bc-ca4a-4e32-82fd-d3eb0fe03587
0.4677692927070545,0.9530218831714822,0.1099669912405305,-0.4366243601915328,-0.2334901182080989,-0.3336306026256309,-0.3297517366183654,-0.345977230592418,-10.873925473659854,18.6635175387004,27.13281456501145,0.3632548769354404,3.471942660907371,0.7721126540380305,7551.91748046875,11.585333333333333,7.62,178.91826696896638,-3.89109701386252,56.77509825554418,1767.0,1435.0,1350.0,1528.0,1630.0,995.0,110.0,294.54999999999995,1649344209.1241376,1649344210.2950675,aa0b0246-e782-44e1-805b-034824ee1686
0.4638246841815159,0.9528246527390348,0.1077974563867351,-0.4298790774984322,-0.235777991614214,-0.3361157066151953,-0.3347876880927639,-0.3584421968193992,-10.94532000017375,18.827411689974006,27.60543652657107,0.3434726575688892,3.466554157178426,0.7859409338838134,7551.91748046875,11.588444444444445,7.63111111111111,178.812811883821,-3.8690936543150607,55.76131338815176,1767.0,1435.0,1350.0,1528.0,1630.0,995.0,110.0,294.54999999999995,1649344210.4031603,1649344211.4975147,aa0b0246-e782-44e1-805b-034824ee1686
0.471976875140135,0.9503789954217524,0.0993428448062263,-0.4399509810229742,-0.2444298347959749,-0.331632000491737,-0.3396395578427388,-0.3591522271022851,-10.810149782071823,18.696328621484867,26.533985790151004,0.3748751877154246,3.46662286108917,0.8144105557668753,7551.91748046875,11.58877777777778,7.611111111111111,178.67313147965464,-3.8603222210328174,54.892024208290565,1767.0,1435.0,1350.0,1528.0,1630.0,995.0,110.0,294.54999999999995,1649344211.6171665,1649344212.719219,aa0b0246-e782-44e1-805b-034824ee1686
0.5997032985894569,1.1523429584221894,0.1625880723030549,-0.581878046460865,-0.246152314190481,-0.425421668584893,-0.3229801569917684,-0.3508816961044206,-10.370523173264331,19.25180517762196,23.054372053102387,0.4907681053885953,4.2733317653522,0.7251919967045906,7558.5771484375,11.528,7.586666666666665,178.36829558353753,-3.822356993986257,53.67545140389541,1886.0,1435.0,1350.0,1528.0,1710.0,995.0,110.0,294.54999999999995,1649344213.6297617,1649344214.7747126,90d99515-277a-4364-8c26-acfe17047bbf
0.5998742316157635,1.164834219442345,0.165585974914064,-0.5817334105853394,-0.246704559601134,-0.4357433972833262,-0.3265960490778699,-0.3607826658296577,-10.482833376029236,19.44666015398804,23.341599399214672,0.4686777840446459,4.318606351965391,0.7287652711186887,7558.5771484375,11.531666666666666,7.541111111111111,178.2946464126272,-3.809045334748855,53.04363158491255,1886.0,1435.0,1350.0,1528.0,1710.0,995.0,110.0,294.54999999999995,1649344214.9099195,1649344215.998801,90d99515-277a-4364-8c26-acfe17047bbf
0.6099855780535496,1.1688314230214327,0.1627327079235657,-0.5805500279080342,-0.2470858718084478,-0.4421468138814167,-0.3271877404775582,-0.3569300968646632,-10.376616432373346,19.04438419906857,23.134119794204043,0.4488306144612445,4.334352000769064,0.7344571795410506,7565.248046875,11.524,7.562222222222222,178.19826181869954,-3.808113630541449,52.54111825111168,1886.0,1435.0,1350.0,1528.0,1710.0,995.0,110.0,294.54999999999995,1649344216.1072133,1649344217.2239122,90d99515-277a-4364-8c26-acfe17047bbf
-0.239854087841624,-0.2844676198975195,-0.0044792609691451,0.1178430601506925,-0.0557065829979423,0.3631977199829856,-0.1567937655769412,-0.1843271379274877,-12.453908275477726,21.071173043585283,26.61009954367851,0.6877618379092056,-1.229061080112812,0.2920075482329329,7575.650499131944,11.643222222222224,7.622222222222222,178.98065391684526,-3.7481449016518216,51.49982138174244,1449.0,1435.0,1350.0,1528.0,1386.0,995.0,110.0,294.54999999999995,1649344219.162289,1649344220.2971275,fd031041-d3de-4e48-b290-d0111a628bbf
-0.2356601589732924,-0.2770532713599866,-0.0017777095802252,0.1109850037436575,-0.0551563606223068,0.3625423080902152,-0.1545048808304643,-0.1844055246917946,-12.421976208563736,21.034802872572225,26.67136350755303,0.7016783914794527,-1.2010067328253995,0.2852773994990369,7585.3330078125,11.641777777777778,7.656666666666666,178.89285107615487,-3.707746087690358,51.159679099440666,1449.0,1435.0,1350.0,1528.0,1386.0,995.0,110.0,294.54999999999995,1649344220.4057195,1649344221.5280838,fd031041-d3de-4e48-b290-d0111a628bbf
-0.2206964352842467,-0.2735147544387071,0.0007933663339367,0.1138590052653465,-0.0523010705292442,0.3577015653518171,-0.1534014016780203,-0.1739002213322069,-12.466838347505227,20.98817844416384,26.86714406700457,0.6841451224426527,-1.1893444672572722,0.2770298664941677,7579.376627604167,11.645222222222223,7.627777777777778,178.81103148117737,-3.6907450353681575,50.91009146515493,1449.0,1435.0,1350.0,1528.0,1386.0,995.0,110.0,294.54999999999995,1649344221.6370592,1649344222.7550423,fd031041-d3de-4e48-b290-d0111a628bbf
-0.4208064750852239,-0.6704345452982914,-0.0237946961929984,0.2825962173832499,0.0079988519917969,0.5909199703445815,-0.0909713878871882,-0.1219102721882039,-12.983391782433795,22.59927448954976,26.95156510390316,0.836797474939951,-2.6974337828591444,0.0920771648928259,7551.91748046875,11.589,7.650000000000001,178.8514130773703,-3.613622144082436,50.38572152601003,1342.0,1435.0,1350.0,1528.0,1293.0,995.0,110.0,294.54999999999995,1649344224.491094,1649344225.4400463,904841dd-9f44-4002-aeaa-59bf1a3553eb
-0.4313911778680084,-0.6656484180822474,-0.0194950724178323,0.2795457200314984,0.0109573086871361,0.5858971688619699,-0.087263455365391,-0.109852916857162,-12.907743389540736,22.543583277866656,26.536215821409296,0.832208523187184,-2.6756898761242365,0.0769497943234068,7545.26953125,11.590666666666667,7.653333333333334,178.83624095049402,-3.61436891143169,50.20376300979116,1342.0,1435.0,1350.0,1528.0,1293.0,995.0,110.0,294.54999999999995,1649344225.549382,1649344226.6471138,904841dd-9f44-4002-aeaa-59bf1a3553eb
-0.4323904789704437,-0.6662269609467002,-0.0244389823178771,0.277205252239282,0.0076306885046623,0.591327579889378,-0.0912738079036648,-0.1083802629594734,-13.086498259222958,22.46722344232944,26.88841419799836,0.8489046932949728,-2.679742656775797,0.0942423036789038,7545.26953125,11.596,7.6755555555555555,178.80119449095275,-3.6143071077060753,50.03652393068863,1342.0,1435.0,1350.0,1528.0,1293.0,995.0,110.0,294.54999999999995,1649344226.7552233,1649344228.0826538,904841dd-9f44-4002-aeaa-59bf1a3553eb
-0.6710788317383413,-1.0687219124295806,-0.0717611417738522,0.4271924195475863,0.0410678233890524,0.8252954584961302,-0.0526297879250679,-0.0797161035727553,-13.523731802312692,24.38343383143881,23.66713555205445,1.045940333945975,-4.179132802331112,0.0051618042265642,7545.26953125,11.492444444444446,7.615555555555555,178.95350922726382,-3.6104425487281873,49.87946183344943,1227.0,1435.0,1350.0,1528.0,1189.0,995.0,110.0,294.54999999999995,1649344229.1981363,1649344230.3382385,3c1423ea-d2d9-4435-a250-077064a4b862
-0.6462014893932279,-1.0636596608456566,-0.0723922792654322,0.425864401313187,0.0401868607129265,0.821705864748065,-0.0543391185121901,-0.0764683754853456,-13.564221988241147,24.311591529801827,23.68018518614511,1.0403437420020465,-4.159853081743994,0.0102762034452959,7538.63330078125,11.493111111111112,7.611111111111112,178.9409689999477,-3.6088568064758815,49.8075175536469,1227.0,1435.0,1350.0,1528.0,1189.0,995.0,110.0,294.54999999999995,1649344230.452072,1649344231.5614426,3c1423ea-d2d9-4435-a250-077064a4b862
-0.6371157370680929,-1.0619240317297374,-0.068671198007684,0.4311501767922444,0.0442892539899245,0.8166041710651696,-0.053247776661394,-0.0737728924394212,-13.679255288140991,24.36362405783278,23.90700762112222,1.0174646075419498,-4.154953574356807,-0.0014630162691777,7538.63330078125,11.499777777777776,7.614444444444445,178.9113912452019,-3.603433446547415,49.72323529601867,1227.0,1435.0,1350.0,1528.0,1189.0,995.0,110.0,294.54999999999995,1649344231.669346,1649344232.8007703,3c1423ea-d2d9-4435-a250-077064a4b862
0.0351246126705514,0.1756052812082803,0.0303910819665537,-0.0783880850007273,-0.1244611192217271,0.0953456412832029,-0.2298347801892116,-0.2500969237096739,-12.076915621169409,19.89581732943595,26.79380833060828,0.5226756274220254,0.5185464679704891,0.4970698663870499,7538.63330078125,11.630777777777778,7.674444444444443,178.5416427490328,-3.61319838776268,49.70236755028447,1516.7777777777778,1435.0,1350.0,1528.0,1439.6666666666667,995.0,110.0,294.54999999999995,1649344234.4936,1649344235.4564517,97010eb6-ce78-4bde-bd93-b547671bbc4e
0.036492077086431,0.1764205003447632,0.0359529804873814,-0.0785195719521054,-0.1183075290071631,0.0944515299494036,-0.2240230558226273,-0.2557245662837251,-12.129901404710267,19.82523267239537,26.807956565727668,0.5207476570298081,0.5222212467776215,0.4729416755283731,7547.485514322917,11.654333333333334,7.666666666666667,178.45182424362733,-3.62940329615975,49.72226882425111,1553.0,1435.0,1350.0,1528.0,1471.0,995.0,110.0,294.54999999999995,1649344235.5659015,1649344236.6874015,97010eb6-ce78-4bde-bd93-b547671bbc4e
0.0406076190156699,0.1834156064948351,0.03341528209439,-0.0825036271371009,-0.1209109710312811,0.0910065715749432,-0.2271787432567165,-0.2597086225935716,-12.189635295992131,19.67160213518967,26.751326585128947,0.5208095364861335,0.5497088801650555,0.4851927303284656,7555.617296006944,11.654222222222222,7.654444444444445,178.44489843180892,-3.635735403270913,49.72730153530456,1553.0,1435.0,1350.0,1528.0,1471.0,995.0,110.0,294.54999999999995,1649344236.8011844,1649344237.9060428,97010eb6-ce78-4bde-bd93-b547671bbc4e
0.0676069496342266,0.1740481721959793,0.0069080159394439,-0.4413740748375244,-0.183242370353077,0.44386193069269,-0.1511165626637085,-0.1834446580276736,-11.788173300903384,18.85261205216113,28.827114724521856,2.1170303579763248,0.5358265234701346,0.4971908595630286,7559.318359375,11.647666666666666,7.646666666666667,178.45101979912508,-3.523745961523961,49.839655490966585,1553.0,1522.0,1350.0,1528.0,1471.0,995.0,110.0,294.54999999999995,1649344239.5096996,1649344240.460736,b6889526-8cce-460b-9b26-578cde570d0a
0.0523494048078446,0.1768938533942515,0.0121669887497934,-0.4393987356388196,-0.1772136926227092,0.4446538867110613,-0.1453412502892855,-0.1670891958252484,-11.825365100142507,18.749153653933494,29.638091418237504,2.114040684105977,0.5396635562712556,0.4751101203890894,7567.475748697917,11.642333333333331,7.643333333333334,178.4564414515063,-3.515949585177607,49.87443519367525,1553.0,1522.0,1350.0,1528.0,1471.0,995.0,110.0,294.54999999999995,1649344240.5941603,1649344241.643193,b6889526-8cce-460b-9b26-578cde570d0a
0.0613739619198955,0.1809385945029068,0.0159856736207115,-0.4453186846313761,-0.1758841570498319,0.4488685492177779,-0.1407872495793795,-0.1585127049699733,-11.723490363526578,18.79492211613053,30.05656974145296,2.137477086731062,0.5513755203409497,0.4626902238007124,7578.6259765625,11.646,7.603333333333334,178.48471388121067,-3.522832850609295,49.91923668117109,1553.0,1522.0,1350.0,1528.0,1471.0,995.0,110.0,294.54999999999995,1649344241.7512467,1649344242.830517,b6889526-8cce-460b-9b26-578cde570d0a
0.0728087761117143,0.1816142351749851,0.005579491869738,-0.8211712633494048,-0.2268894719533336,0.8150920711288748,-0.0504339555632191,-0.0814780287924959,-11.661299843914785,18.232040679139093,33.323629521799674,3.80456409852884,0.5701198006702324,0.4193708891170769,7598.7822265625,11.637,7.644444444444444,178.5054472998912,-3.400383733058376,50.0004832991682,1553.0,1613.0,1350.0,1528.0,1471.0,995.0,110.0,294.54999999999995,1649344243.5099146,1649344244.4708197,a5dce726-d506-43c7-b3a1-91c42e72c6de
0.08821904799056,0.1856771821626766,-0.0034799600131924,-0.8251158741400566,-0.2374215788537223,0.8119363843180198,-0.0608608720947732,-0.0836475639993533,-11.617977272912096,18.25240111584406,32.84936798041288,3.80600100344028,0.5891667540704626,0.4607208034752401,7598.7822265625,11.63588888888889,7.606666666666667,178.52494673106165,-3.3713424090377164,50.08739024671249,1553.0,1613.0,1350.0,1528.0,1471.0,995.0,110.0,294.54999999999995,1649344244.5823574,1649344245.8938897,a5dce726-d506-43c7-b3a1-91c42e72c6de
0.0769111692925865,0.1783796560179594,-0.001862670358787,-0.8227754051139944,-0.2352783411353148,0.8133958894728117,-0.0574027648479301,-0.0797686982775985,-11.482826267285883,18.29011062140969,32.365411959482984,3.804322578976239,0.5649443238149462,0.4492074649111026,7598.7822265625,11.632777777777775,7.608888888888888,178.5261518799952,-3.3727701083017263,50.11531509567913,1553.0,1613.0,1350.0,1528.0,1471.0,995.0,110.0,294.54999999999995,1649344246.0019996,1649344247.1269965,a5dce726-d506-43c7-b3a1-91c42e72c6de
0.0901256089181439,0.1692544611400365,-0.0141829990063332,-1.1628403496657065,-0.2844413226309931,1.155669578434672,0.0208188310334474,-0.0074245695443914,-11.628617031247655,18.129784627812867,35.489701599706414,5.339308809711807,0.5451461771281079,0.4218768116296747,7598.7822265625,11.601333333333336,7.690000000000001,178.60104110969488,-3.275839763286706,50.16049034630455,1553.0,1710.0,1350.0,1528.0,1471.0,995.0,110.0,294.54999999999995,1649344249.059743,1649344250.204949,5ead031b-9238-418d-9dbf-b73825a58671
0.1011047701484393,0.1748821029393366,-0.0217040534500696,-1.1715710908357173,-0.2959069873963867,1.1559194036562328,0.0123642192284233,-0.0069249187457037,-11.46237745351668,18.25247782670492,35.10255556561717,5.360025430571028,0.5691081452809201,0.4599073101028487,7598.7822265625,11.596,7.680000000000001,178.61084015442412,-3.3030732927592314,50.17439205799525,1553.0,1710.0,1350.0,1528.0,1471.0,995.0,110.0,294.54999999999995,1649344250.319272,1649344251.6364582,5ead031b-9238-418d-9dbf-b73825a58671
0.0892840923537626,0.1744744933686565,-0.0192715445271192,-1.1701378817347787,-0.2914758760603768,1.1530792853527072,0.0169136682141166,-0.0042294360715452,-11.401964195873104,18.011018065460522,34.85925981631899,5.348922421450452,0.5692817498464559,0.4438401993763847,7598.7822265625,11.603666666666664,7.706666666666667,178.6010957512082,-3.3200996025517995,50.18723850545919,1553.0,1710.0,1350.0,1528.0,1471.0,995.0,110.0,294.54999999999995,1649344251.7444468,1649344252.861349,5ead031b-9238-418d-9dbf-b73825a58671
0.0878640331840211,0.1619569349526635,-0.0255566215802069,-1.3469880021682,-0.3229407110236678,1.335477998585753,0.0517708621097521,0.0397135072721338,-11.499692929228754,18.773492153837623,35.99525012235335,6.162600694778255,0.5343452675110902,0.4437901493304392,7598.7822265625,11.565777777777775,7.702222222222223,178.6750970563158,-3.2512292161829413,50.21304447796331,1553.0,1802.4444444444443,1350.0,1528.0,1471.0,995.0,110.0,294.54999999999995,1649344254.490831,1649344255.528457,6a941427-9622-4668-ac28-eee96555a339
0.0945041247058368,0.1689125950498545,-0.0218092430002634,-1.3531415977712544,-0.3201137407798636,1.3380814405937087,0.0549002518521169,0.0319689254101481,-11.652711626704296,18.730656148353525,36.55613914599387,6.182246993246285,0.5575395820193437,0.4318653757922949,7598.7822265625,11.570666666666666,7.697777777777778,178.66471972223678,-3.267770985715328,50.20765545870816,1553.0,1814.0,1350.0,1528.0,1471.0,995.0,110.0,294.54999999999995,1649344255.6363535,1649344256.6878307,6a941427-9622-4668-ac28-eee96555a339
0.0892183488709311,0.1640081315112331,-0.0256749597961903,-1.3322220014639408,-0.3224542090959686,1.3232497107832806,0.0463798966829598,0.0150859989099609,-11.562087418415649,18.90647928310512,36.45279852999013,6.102730842799903,0.5366016172110258,0.4518891922345516,7598.7822265625,11.569777777777777,7.693333333333334,178.66616165106163,-3.284682818691495,50.19745039717826,1553.0,1814.0,1350.0,1528.0,1471.0,995.0,110.0,294.54999999999995,1649344256.7958114,1649344257.7423365,6a941427-9622-4668-ac28-eee96555a339
0.0277744914242769,0.1878467169590464,0.053309259617546,0.2661603480500952,-0.0707486921051573,-0.2468623437871321,-0.3083193583701949,-0.3346956479909767,-12.312320465593269,20.934575960555566,24.73044395361252,-1.0159484378152297,0.5434621989139392,0.5054180206039038,7598.7822265625,11.650333333333332,7.676666666666667,178.6836909521115,-3.815971051703511,50.259456372283445,1553.0,1349.0,1350.0,1528.0,1471.0,995.0,110.0,294.54999999999995,1649344259.710158,1649344260.8494313,1835cbd4-7b8b-4ed5-ae35-a85d4e1ac765
0.0392533033495549,0.1894114117556254,0.0560573371140613,0.2708807297047528,-0.0673957744599125,-0.245928786263558,-0.307228016448167,-0.3234272129604569,-12.46767600910216,20.993504990201,25.7133328935227,-1.0238926741952603,0.5413130370379889,0.497035620804869,7598.7822265625,11.657111111111112,7.63,178.6784150104326,-3.813283419696978,50.373836617399256,1553.0,1349.0,1350.0,1528.0,1471.0,995.0,110.0,294.54999999999995,1649344260.9573014,1649344262.0831392,1835cbd4-7b8b-4ed5-ae35-a85d4e1ac765
0.0393625386664886,0.1899403938954477,0.0581247167213721,0.2717657380592876,-0.0650684551332015,-0.2501616554998604,-0.3038690297747639,-0.320797979069149,-12.299762868908315,20.85531193706501,25.32302491514786,-1.0361917094649993,0.5455876372257561,0.4859605948864524,7598.7822265625,11.655666666666669,7.654444444444445,178.68664159383292,-3.823086875590063,50.51561540746065,1553.0,1349.0,1350.0,1528.0,1471.0,995.0,110.0,294.54999999999995,1649344262.1949065,1649344263.305687,1835cbd4-7b8b-4ed5-ae35-a85d4e1ac765
0.0133635201851287,0.192198935248533,0.0821969451374578,0.6046603565934161,-0.0125657093149193,-0.5728448888625387,-0.3810842557757534,-0.4121151851451772,-12.832184901016102,22.38176118342065,23.1243301768853,-2.501533559573877,0.5378793544281448,0.4906671404286211,7598.7822265625,11.644555555555554,7.626666666666667,178.6976715904326,-3.931972944996629,50.72286497581121,1553.0,1264.0,1350.0,1528.0,1471.0,995.0,110.0,294.54999999999995,1649344264.2155125,1649344265.3550065,0b99ee62-fc04-430e-98b3-4dbb47f8ba55
0.0091559373093468,0.1941975369979404,0.0760828014197388,0.594535861458058,-0.019008570618209,-0.5668227841674507,-0.3834773189221837,-0.4174009630831881,-12.719181170767984,22.18682262904112,22.90258312337994,-2.4667378850593566,0.5473964839619417,0.5111833498325312,7598.7822265625,11.641222222222222,7.613333333333334,178.68912930051064,-3.928279709930422,50.85196731422803,1553.0,1264.0,1350.0,1528.0,1471.0,995.0,110.0,294.54999999999995,1649344265.4642663,1649344266.5882733,0b99ee62-fc04-430e-98b3-4dbb47f8ba55
0.012390516649895,0.1941712396051947,0.0722039360357457,0.585870871465795,-0.0226244622137139,-0.5606691924785473,-0.3850551628185518,-0.4076840737155756,-12.777143435283772,22.081879753824964,22.62014728490211,-2.434326867637795,0.5510304837093113,0.5231671867292591,7598.7822265625,11.638333333333334,7.690000000000001,178.71675058551415,-3.94125246846213,50.93038016262949,1553.0,1264.0,1350.0,1528.0,1471.0,995.0,110.0,294.54999999999995,1649344266.699617,1649344267.816372,0b99ee62-fc04-430e-98b3-4dbb47f8ba55
-0.0135255641099069,0.2035068135603264,0.1025116805675245,0.9305244656304624,0.0319031820169202,-0.9018122588952316,-0.4630532456203948,-0.4846565595156412,-13.055324017644375,23.92056612299247,20.338234994845703,-3.965180737477664,0.567756284770085,0.5186223775604791,7598.7822265625,11.619,7.699999999999999,178.74524917037107,-4.048372364785817,51.08232341254073,1553.0,1178.0,1350.0,1528.0,1471.0,995.0,110.0,294.54999999999995,1649344269.5406902,1649344270.677838,b9d8745b-4574-4c50-9ceb-8499f5d019bd
0.0008854072331913,0.2040327613849379,0.0967788490988616,0.924213091945033,0.0250921573228756,-0.8961714651346678,-0.4674186137705671,-0.5018550592455522,-13.007397418293884,23.932974475462974,20.347898413765886,-3.938445742818831,0.5697178942404144,0.541979427899214,7598.7822265625,11.613,7.686666666666666,178.7412785537336,-4.066474215929251,51.1330637495199,1553.0,1178.0,1350.0,1528.0,1471.0,995.0,110.0,294.54999999999995,1649344270.7857616,1649344271.902769,b9d8745b-4574-4c50-9ceb-8499f5d019bd
0.0114175131296201,0.2048085344277621,0.0954771281849239,0.916994458274682,0.0237115442009744,-0.8962109112448257,-0.465525201074192,-0.4848800870913895,-12.835031439229429,23.718757212678625,19.509836027524585,-3.9237826309846144,0.5796378897379764,0.5419954658049065,7598.7822265625,11.610555555555557,7.707777777777778,178.7384129099218,-4.084737904610519,51.20743198756786,1553.0,1178.0,1350.0,1528.0,1471.0,995.0,110.0,294.54999999999995,1649344272.011182,1649344273.1358252,b9d8745b-4574-4c50-9ceb-8499f5d019bd
-0.0125262631840447,0.2002853831106745,0.0993822909112994,1.0807877566008144,0.0377675006009536,-1.0453829610313137,-0.5165158580677037,-0.5503080179260543,-13.296837283747957,25.16685842032025,18.91925419022286,-4.6190022106343465,0.5512818469042247,0.5892660192306037,7598.7822265625,11.578375,7.675,178.7639303069335,-4.124800491837918,51.28939738811138,1553.0,1088.0,1350.0,1528.0,1471.0,995.0,110.0,294.54999999999995,1649344274.989015,1649344276.203329,57a7a216-76ac-4711-a7b5-cbd61da678d3
-0.0039138669718927,0.2047296422560642,0.1053255015212157,1.075173263526351,0.0428034512731877,-1.0452777711368877,-0.5091131401353813,-0.5299406807879827,-13.219099162282935,25.0332506399182,18.87088989230834,-4.606659262146113,0.56889472725593,0.5642952421600057,7598.7822265625,11.575666666666669,7.708888888888889,178.77375686214685,-4.144567942714501,51.2813092109055,1553.0,1088.0,1350.0,1528.0,1471.0,995.0,110.0,294.54999999999995,1649344276.3118913,1649344277.4369276,57a7a216-76ac-4711-a7b5-cbd61da678d3
