raw_voltage_G-,raw_voltage_G0,raw_voltage_G1,raw_voltage_G2,raw_voltage_G3,raw_voltage_G4,raw_voltage_G5,raw_voltage_G6,load_x,load_y,load_z,load_l,load_m,load_n,rpm,voltage,current,roll,pitch,yaw,aileron1_pwm,elevator_pwm,throttle_pwm,rudder_pwm,aileron2_pwm,pbaro,pdiff,Tt,sample_start_time,sample_end_time,uid
0.2079439926306379,0.3456260058889283,0.3695212309661073,-0.2629310640295674,0.1082288348151073,0.0920837532202592,0.1144112505387546,0.0909711711942511,-6.698546846656986,21.52412305636968,28.436496096433107,0.9622793172959528,1.1478495337628478,-0.7479027475536708,4527.16259765625,11.963,0.17,179.41306863973935,-4.391210152784414,100.94415121537298,1553.0,1435.0,1200.0,1528.0,1471.0,995.0,110.0,294.54999999999995,1649346624.008788,1649346625.1924706,0321d543-3dbc-49bb-974b-ac92ddb70fe2
0.2150908144330612,0.3384781728287517,0.3670897337817688,-0.2625224429669603,0.1077317129633507,0.0972127561261681,0.1140693844406322,0.0905595158604916,-6.7526260315639295,21.50133580691349,28.213513313373305,0.9725482240709836,1.1231950234863894,-0.7446287766546987,4535.953125,11.961666666666668,0.1633333333333333,179.43100016304038,-4.357580151154171,100.1739130594004,1553.0,1435.0,1200.0,1528.0,1471.0,995.0,110.0,294.54999999999995,1649346625.3094006,1649346626.427514,0321d543-3dbc-49bb-974b-ac92ddb70fe2
0.1958193780432836,0.340733174076112,0.3714050344166141,-0.2644102925515708,0.1107574302052742,0.0944985618252992,0.1174455649957217,0.1031716438281796,-6.728024875281383,21.54111461507913,27.92381737834626,0.9711523692841244,1.134552772383365,-0.7595905142512172,4542.3564453125,11.966333333333331,0.1666666666666666,179.3978828524847,-4.320553126481102,99.42070484175834,1553.0,1435.0,1200.0,1528.0,1471.0,995.0,110.0,294.54999999999995,1649346626.536543,1649346627.650882,0321d543-3dbc-49bb-974b-ac92ddb70fe2
0.4275079882427463,0.7398683869634752,0.4070223211724487,-0.3575086390848736,0.0616849791547397,-0.2115186443261082,0.0384775302520738,0.0073019707681136,-6.181285673567007,20.84035557341056,27.668322126483723,0.4908604814408777,2.64365571596834,-0.5810799830620552,4541.554361979167,11.938666666666668,0.1666666666666666,178.90233896782195,-4.27050448845101,98.17014273932348,1658.0,1435.0,1200.0,1528.0,1551.0,995.0,110.0,294.54999999999995,1649346629.504214,1649346630.7210722,1d450ae6-513c-46da-81d2-2ecc4da67c09
0.4266664717461226,0.7435763189487833,0.4110063758153711,-0.358652575867102,0.0636572835892577,-0.2130438932669071,0.040384091222197,0.0150859993062343,-6.196825737439236,20.970622983080776,27.83931839749883,0.4910948575732706,2.6565527886056888,-0.5912961011484438,4539.150824652777,11.937444444444443,0.16,178.85256965606973,-4.227371938706118,97.77553690803497,1658.0,1435.0,1200.0,1528.0,1551.0,995.0,110.0,294.54999999999995,1649346630.829395,1649346632.1517494,1d450ae6-513c-46da-81d2-2ecc4da67c09
0.4218803467141893,0.7378434879354107,0.4073247411633653,-0.3568249067259731,0.0601071356060655,-0.2091781761435459,0.0379384336935941,0.0130873974216011,-6.101911324212921,21.05732127567667,27.804465478394267,0.4960925006792071,2.634231355582589,-0.578656114340198,4536.213595920139,11.94022222222222,0.16,178.77693973030014,-4.200579857640575,97.4653294475906,1658.0,1435.0,1200.0,1528.0,1551.0,995.0,110.0,294.54999999999995,1649346632.261211,1649346633.390585,1d450ae6-513c-46da-81d2-2ecc4da67c09
0.6216353218019138,1.1021806842200597,0.4626544503109367,-0.443553724526883,0.0324028325494644,-0.49425510944427,-0.0149324746542077,-0.0347344119295275,-5.434337422348412,20.85696196093196,26.682810130355005,0.0527096171055584,4.020116020264461,-0.4987739503409008,4527.161946614583,11.909333333333333,0.1566666666666666,178.4890077934689,-4.153800176606372,96.85140168859354,1767.0,1435.0,1200.0,1528.0,1630.0,995.0,110.0,294.54999999999995,1649346635.5249708,1649346636.5823717,ec06c188-7888-4401-879d-34d7810b74a6
0.6254352946486668,1.1077557311677222,0.4667962892748857,-0.4472879551408129,0.0335204717441681,-0.496464090973632,-0.0134466719260562,-0.0417295185512674,-5.443531953632482,21.01917072142399,26.676273258904374,0.0574451171262331,4.041873933852044,-0.5074978482064102,4524.075256347656,11.906249999999998,0.15,178.4488092842912,-4.125658480991548,96.6490260293982,1767.0,1435.0,1200.0,1528.0,1630.0,995.0,110.0,294.54999999999995,1649346636.6917105,1649346637.8942597,ec06c188-7888-4401-879d-34d7810b74a6
0.6376767296625449,1.1067564302954265,0.4683872813738289,-0.4471696168430124,0.0350720178910084,-0.4946101243421714,-0.0116847466303527,-0.0330250812427287,-5.46070124669269,21.053697581860103,26.82862110460996,0.0616680315427574,4.036984088924783,-0.5142195957801149,4521.590928819444,11.909222222222224,0.1577777777777777,178.42128722675807,-4.11777557705774,96.4549304567517,1767.0,1435.0,1200.0,1528.0,1630.0,995.0,110.0,294.54999999999995,1649346638.0024254,1649346639.114812,ec06c188-7888-4401-879d-34d7810b74a6
0.7407756469248065,1.290509456641483,0.5153412714429072,-0.4983575038372018,0.0285371157920337,-0.6532886392280618,-0.0312763045468838,-0.0585729994603596,-5.074496228905332,22.02816792451496,23.25913904526906,-0.1710131599966895,4.764367907372887,-0.5248070588532834,4518.4111328125,11.850555555555555,0.14,178.3088258853441,-4.087471260938994,96.18785639982586,1886.0,1435.0,1200.0,1528.0,1710.0,995.0,110.0,294.54999999999995,1649346640.02964,1649346641.1788445,10f02703-590d-48c4-8f2d-cc3cde128e7c
0.7390663165774832,1.300725993754228,0.5140132532456816,-0.5071145378811908,0.0259862687095671,-0.6561682048919537,-0.0306846132014348,-0.0532609254693461,-4.899739294330793,21.727812177813448,23.12643620202213,-0.1597206115960738,4.803614283694392,-0.5191471831367391,4516.823893229167,11.852333333333334,0.14,178.30094081140228,-4.064621242525671,95.97585795272738,1886.0,1435.0,1200.0,1528.0,1710.0,995.0,110.0,294.54999999999995,1649346641.2921374,1649346642.4089954,10f02703-590d-48c4-8f2d-cc3cde128e7c
0.7433396424477816,1.3022380938614233,0.514184186281109,-0.5102833744376729,0.0294312271589067,-0.6558263385283949,-0.0273711416424193,-0.0578235231666257,-4.997760202790999,21.341298440569066,22.989512887963325,-0.1544291758639182,4.811587327046006,-0.5287378737312075,4511.27685546875,11.851666666666668,0.1333333333333333,178.26432189053216,-4.037988058222068,95.77019640335884,1886.0,1435.0,1200.0,1528.0,1710.0,995.0,110.0,294.54999999999995,1649346642.5216017,1649346643.5650375,10f02703-590d-48c4-8f2d-cc3cde128e7c
-0.0114875161290589,-0.0929335779924231,0.329796999577184,-0.1556427488328527,0.1570812973958948,0.4215976497804969,0.1971089616513057,0.1748193937696996,-6.9739488275189325,22.669837160802384,28.390272958119112,1.4661959641110616,-0.5103650076406698,-0.930890039683086,4508.90380859375,11.955222222222222,0.16,179.29286338162638,-3.917648188464212,95.40248785702188,1449.0,1435.0,1200.0,1528.0,1386.0,995.0,110.0,294.54999999999995,1649346645.5584917,1649346646.6987855,f7a8a477-adec-43f1-b5bc-992bc9310612
-0.0338140029577284,-0.0934959376479028,0.3324034755715672,-0.1590947875890795,0.1623776932179404,0.4256277248483172,0.204571857892865,0.1836785802136245,-6.938045271377707,22.305554592772864,28.475869682802777,1.480785664068195,-0.5129028778722207,-0.9520853802580264,4525.037489149306,11.953333333333331,0.16,179.20776074238788,-3.891455314202728,95.19822877316292,1449.0,1435.0,1200.0,1528.0,1386.0,995.0,110.0,294.54999999999995,1649346646.806958,1649346647.9244587,f7a8a477-adec-43f1-b5bc-992bc9310612
-0.02555662150524,-0.0922599601375788,0.3292609373910312,-0.1608567130315842,0.1591168166593635,0.4268899995819883,0.201600252677515,0.1748821028589684,-6.949271347175061,22.28568440105144,28.573526831782686,1.4873183529315503,-0.5090359145980301,-0.9388572444743168,4537.546875,11.952000000000002,0.1633333333333333,179.19818178153187,-3.8791956938249874,95.06702615157631,1449.0,1435.0,1200.0,1528.0,1386.0,995.0,110.0,294.54999999999995,1649346648.0330942,1649346649.1491115,f7a8a477-adec-43f1-b5bc-992bc9310612
-0.2420630691082975,-0.502880656359107,0.2904985833730344,-0.0638061801487387,0.2035725570322576,0.7456538127574369,0.2789540287696986,0.2572586811226331,-7.326118470827452,23.36733287922144,29.53435990501681,1.9899047176127576,-2.0693497690713114,-1.10489200477928,4539.9501953125,11.914888888888887,0.15,179.35915567989073,-3.82457315321258,94.84185226956888,1342.0,1435.0,1200.0,1528.0,1293.0,995.0,110.0,294.54999999999995,1649346650.0626233,1649346651.198603,3a1cd652-63f0-47b0-b347-652f278e3b32
-0.2470464256115351,-0.4924668862535959,0.2921816163840031,-0.0671065030381213,0.2000355578862216,0.7393555878584762,0.2740101192683876,0.2469895498748629,-7.399262384309972,23.72494783331572,29.64099051462928,1.9856311404648608,-2.0302000687990303,-1.094145969935852,4550.933702256944,11.91122222222222,0.15,179.3477705134542,-3.8153175354091737,94.62965498807456,1342.0,1435.0,1200.0,1528.0,1293.0,995.0,110.0,294.54999999999995,1649346651.31017,1649346652.4287694,3a1cd652-63f0-47b0-b347-652f278e3b32
-0.2495052320719286,-0.5002246190198988,0.2957186154584994,-0.0638324775442126,0.205413374422199,0.7427610998617028,0.2792433000624207,0.2513154707280898,-7.4299994174108335,23.73426042265258,29.50702138359022,1.9860994068000373,-2.058070086941294,-1.1148672523097356,4556.0380859375,11.919000000000002,0.15,179.3435418674481,-3.806686547891738,94.4552779818344,1342.0,1435.0,1200.0,1528.0,1293.0,995.0,110.0,294.54999999999995,1649346652.536874,1649346653.60617,3a1cd652-63f0-47b0-b347-652f278e3b32
-0.4441848621235889,-0.862813205081726,0.2481597838702949,0.0289052793177618,0.2267800048500055,0.9977800420100738,0.3198596202086474,0.3045939847256782,-7.976077853747864,25.42421570593427,27.351995933073784,2.3581837618486,-3.409437110172937,-1.1841455096378062,4556.84521484375,11.829,0.1255555555555555,179.4766622543716,-3.762942221897439,94.16114802778634,1227.0,1435.0,1200.0,1528.0,1189.0,995.0,110.0,294.54999999999995,1649346654.5700576,1649346655.7063017,66870c1b-2a13-40d3-b62f-d77a5a85c8e1
-0.4479585388762113,-0.8698083151125767,0.2468317656274665,0.0409626338063791,0.228226361380122,0.9945191655638044,0.3158624168178752,0.2944431918929597,-8.194592930851393,25.560926414982323,27.471400030792395,2.3244068835613465,-3.4367510944508903,-1.1793953000696349,4550.126356336806,11.826,0.12,179.47316671533636,-3.743897804648544,93.85782539802533,1227.0,1435.0,1200.0,1528.0,1189.0,995.0,110.0,294.54999999999995,1649346655.8147163,1649346656.9362175,66870c1b-2a13-40d3-b62f-d77a5a85c8e1
-0.4518505537954539,-0.8627343128609608,0.2460296951871874,0.0299834723636915,0.2265696257209955,0.9963862803313358,0.3170063533148457,0.286080621614515,-8.172557329526741,25.34358599330904,27.288862378927178,2.3518701189860054,-3.4074601841851546,-1.1770673317459766,4542.3564453125,11.83175,0.13,179.4773247827211,-3.7623788083677,93.56059890182604,1227.0,1435.0,1200.0,1528.0,1189.0,995.0,110.0,294.54999999999995,1649346657.044129,1649346658.1616304,66870c1b-2a13-40d3-b62f-d77a5a85c8e1
0.2214416344224745,0.3429750266303492,0.3706135841051266,-0.261523141914835,0.1097434634540756,0.094135961245328,0.1155025923062385,0.0939124332018163,-6.750856709708772,21.58137079297812,28.5512112562738,0.9641408242588057,1.1371571434461116,-0.7532152676589438,4543.4267578125,11.96322222222222,0.1655555555555555,178.8435173786898,-3.8154702660281146,93.19405698974477,1553.0,1435.0,1200.0,1528.0,1471.0,995.0,110.0,294.54999999999995,1649346660.0981624,1649346661.2371788,26bfa0cc-8bf4-47c8-aedf-23c75f056514
0.2098181874643558,0.3422649970801076,0.3658800538188058,-0.2592352685097132,0.1049310407128655,0.0909802741683121,0.109809206930177,0.0898626349300188,-6.708573525122082,21.62216008127933,28.26251159896226,0.9518986549704088,1.1361724937258275,-0.7325622932168114,4554.423828125,11.962,0.16,178.7798053741119,-3.7841271445412255,93.51735868173796,1553.0,1435.0,1200.0,1528.0,1471.0,995.0,110.0,294.54999999999995,1649346661.3461287,1649346662.4691398,26bfa0cc-8bf4-47c8-aedf-23c75f056514
0.2058341326649989,0.3461044161106409,0.3601077765843244,-0.2629037552264159,0.0986722613796484,0.0920321698568635,0.1025774241156747,0.0848003868392944,-6.852579681687804,21.64893495220556,28.41690343728534,0.9623798071881824,1.150309710367352,-0.7053343777402853,4556.579644097223,11.958222222222222,0.1577777777777777,178.7247236930053,-3.761552041241995,93.75641985614786,1553.0,1435.0,1200.0,1528.0,1471.0,995.0,110.0,294.54999999999995,1649346662.5778575,1649346663.7000687,26bfa0cc-8bf4-47c8-aedf-23c75f056514
0.2095117217240689,0.3438433462398481,0.3505188376911592,-0.522592580187364,0.0631566216969871,0.3456639348150683,0.1668922473596719,0.1502035179350969,-6.619725462916748,20.97170798936594,30.37963731585213,2.1135818130208754,1.154139457669625,-0.7348021332963928,4556.30712890625,11.959555555555555,0.16,178.64848360366975,-3.625584319208198,94.19822988370022,1553.0,1522.0,1200.0,1528.0,1471.0,995.0,110.0,294.54999999999995,1649346665.6304257,1649346666.9677408,40dc06f7-3930-4949-9e23-eca3573d73c2
0.2434262534877479,0.3527313585425729,0.3563998445185814,-0.5288756358212343,0.0679437585513524,0.3425148222896437,0.1752108203292518,0.1437065448266116,-6.397979786566758,20.6716812263072,30.404576658259515,2.119097888669089,1.1868257243696283,-0.7598489785014337,4558.730794270833,11.957777777777778,0.16,178.62451419314252,-3.623368207413744,94.3219769743528,1553.0,1522.0,1200.0,1528.0,1471.0,995.0,110.0,294.54999999999995,1649346667.07592,1649346668.195801,40dc06f7-3930-4949-9e23-eca3573d73c2
0.239862956976932,0.350035876006455,0.3524026411458076,-0.5220777580753633,0.0629341052953782,0.3366373554564496,0.1647313097761452,0.143364678967033,-6.639294833103271,21.08452413908812,30.02428166500397,2.09291174765506,1.1807111754410604,-0.7337975489406238,4556.84521484375,11.957222222222224,0.1588888888888889,178.61688866638912,-3.608675806462877,94.42044553488716,1553.0,1522.0,1200.0,1528.0,1471.0,995.0,110.0,294.54999999999995,1649346668.3048184,1649346669.4345882,40dc06f7-3930-4949-9e23-eca3573d73c2
0.2313163048265712,0.3462359030641549,0.343461528341561,-0.8171083141792727,0.0241717486465575,0.6245674807821104,0.238311410905209,0.211514369158137,-6.475202342317672,20.43325482983204,32.060220852398544,3.4010904257937056,1.1829997948827546,-0.7733695760433702,4520.000922309027,11.952777777777776,0.151111111111111,178.6039689841191,-3.505891609874202,94.5301611402548,1553.0,1613.0,1200.0,1528.0,1471.0,995.0,110.0,294.54999999999995,1649346671.4616194,1649346672.4999745,85fdcd22-0120-4ac1-97c0-dcfb454ba8c1
0.2378775039432015,0.3466961073984597,0.3489708316795314,-0.8180944669124236,0.0307723942107294,0.6264345954662424,0.2458982082419792,0.2249260386209342,-6.472286967227933,20.27276833734095,32.312840717658936,3.4067627795162934,1.1829341983551314,-0.8002004221184437,4512.596842447917,11.954777777777776,0.1555555555555555,178.59938668609593,-3.491358746015511,94.59076920330985,1553.0,1613.0,1200.0,1528.0,1471.0,995.0,110.0,294.54999999999995,1649346672.608966,1649346673.731124,85fdcd22-0120-4ac1-97c0-dcfb454ba8c1
0.2366809726313471,0.3436456100909169,0.3455127248116981,-0.8123353351957854,0.0244347225629106,0.6241730199325347,0.2382325187202945,0.2128555361039855,-6.4093943220913845,20.71145637850088,32.27191533157749,3.3914505873688614,1.1704897026916787,-0.7764525942814986,4508.90380859375,11.952000000000002,0.16,178.6066737390304,-3.488123821385797,94.62970962958792,1553.0,1613.0,1200.0,1528.0,1471.0,995.0,110.0,294.54999999999995,1649346673.8393898,1649346674.9582367,85fdcd22-0120-4ac1-97c0-dcfb454ba8c1
0.2701444027816377,0.3593977470486941,0.3550849749857619,-1.0961501121732682,-0.0053865209536933,0.8830182299609787,0.3165330002799363,0.3030292900342037,-6.0004483386676295,20.67197313132619,34.44551440964399,4.614094169918,1.242960654386894,-0.8575808592449339,4508.90380859375,11.92488888888889,0.1444444444444445,178.60626696331985,-3.405356656240641,94.65433018481608,1553.0,1710.0,1200.0,1528.0,1471.0,995.0,110.0,294.54999999999995,1649346676.9599855,1649346678.236657,8685c955-0a33-4cfd-8336-11ef52f96a29
0.2609797620150941,0.3528102507147384,0.350903689874566,-1.0886422012100256,-0.0050709522541156,0.8814009404513441,0.313180082949016,0.2821623102426835,-6.164188092006992,20.517420401964795,34.254695244731494,4.592178307862328,1.2199115963050513,-0.8485887506070093,4504.1650390625,11.929666666666666,0.15,178.59958855613138,-3.41780806738164,94.5919842180722,1553.0,1710.0,1200.0,1528.0,1471.0,995.0,110.0,294.54999999999995,1649346678.352089,1649346679.4639788,8685c955-0a33-4cfd-8336-11ef52f96a29
0.2662918350091636,0.3534150906983967,0.3509694333555857,-1.094243549837422,-0.0066356471263852,0.8876334219511954,0.314679034229864,0.2921290213981848,-6.085448410912059,20.56711662395501,34.49655640546411,4.61922970159617,1.2201738610202573,-0.848281517769756,4500.486653645833,11.925000000000002,0.15,178.6188967420051,-3.398140845973738,94.5859645446837,1553.0,1710.0,1200.0,1528.0,1471.0,995.0,110.0,294.54999999999995,1649346679.571862,1649346680.6986935,8685c955-0a33-4cfd-8336-11ef52f96a29
0.2629915124323126,0.3565313314764662,0.3287218408593799,-1.22957003815752,-0.0510782417224594,1.016109323562377,0.3163094724445965,0.3010701343790236,-6.301818371432346,21.344335618885133,35.39148260996378,5.217273847702112,1.2407257532426703,-0.7597621495249034,4529.555338541667,11.894666666666666,0.1366666666666666,178.6199197525608,-3.3679744617307303,94.52929901859956,1553.0,1814.0,1200.0,1528.0,1471.0,995.0,110.0,294.54999999999995,1649346682.0125988,1649346683.1483314,f309f24f-f6d7-49d3-b4b6-7c29094eaf05
0.2646745454621378,0.3585167844688928,0.3239094183713396,-1.230253771066646,-0.0558775160208475,1.016687866133594,0.3127987707370379,0.2921947650322906,-6.183917781478991,21.239169812294826,35.62922445342903,5.219276706265187,1.245008154445193,-0.7409718400414173,4537.013346354167,11.890777777777776,0.1322222222222222,178.61961922423734,-3.369629928830813,94.45574319360789,1553.0,1814.0,1200.0,1528.0,1471.0,995.0,110.0,294.54999999999995,1649346683.257594,1649346684.3808374,f309f24f-f6d7-49d3-b4b6-7c29094eaf05
0.2638461776327104,0.3554531384693394,0.3275910530738921,-1.2203659426733544,-0.0518671635053176,1.0091273661809068,0.3141925324800917,0.2908010032894133,-6.1306286936007925,21.35771587162259,35.4400121532162,5.1809485748668695,1.2338354392027544,-0.7539992367652372,4532.481825086806,11.894666666666666,0.1388888888888889,178.63681612274758,-3.3643528487870697,94.38561915921916,1553.0,1814.0,1200.0,1528.0,1471.0,995.0,110.0,294.54999999999995,1649346684.4894822,1649346685.6067295,f309f24f-f6d7-49d3-b4b6-7c29094eaf05
0.1834682012624434,0.3451577100505055,0.3904812626086644,0.0806716963960871,0.1560268731343547,-0.2386444076896816,0.0335993639223394,0.0145206051656898,-6.768927538399444,23.168244748741145,26.08645509514289,-0.5444619511720145,1.126471414185129,-0.7275997716603516,4544.7646484375,11.964888888888888,0.16,178.649913389936,-3.786288804549797,94.2548771959466,1553.0,1349.0,1200.0,1528.0,1471.0,995.0,110.0,294.54999999999995,1649346687.5420773,1649346688.6794367,fac2c353-86dc-4b40-8a24-2dc1968228eb
0.1922515300048835,0.3482476534456638,0.3897186382778828,0.0795935033507523,0.1573548914100447,-0.2416423107522134,0.0340727169870573,0.0095503981060319,-6.827869723289956,22.88905645874635,25.952179037422862,-0.5507063211693645,1.1397475116685027,-0.7287945839564963,4542.3564453125,11.966555555555557,0.16,178.6377632423125,-3.7902005582375753,94.50030410666297,1553.0,1349.0,1200.0,1528.0,1471.0,995.0,110.0,294.54999999999995,1649346688.7882097,1649346689.9162502,fac2c353-86dc-4b40-8a24-2dc1968228eb
0.2032832857338972,0.3477611517205066,0.3914542660548709,0.0772793328216515,0.1566317131436344,-0.2387101511380721,0.0344671778786585,0.0143496724272624,-6.812420949767918,23.12953404312072,26.00350137844312,-0.5372006300352306,1.1377576549867123,-0.730831733736685,4552.007975260417,11.965333333333332,0.16,178.64829691183246,-3.7916201466519457,94.71054947187446,1553.0,1349.0,1200.0,1528.0,1471.0,995.0,110.0,294.54999999999995,1649346690.0293188,1649346691.133092,fac2c353-86dc-4b40-8a24-2dc1968228eb
0.1784848455637272,0.3429224318456824,0.4017759917935802,0.3724018066409165,0.1969587630945947,-0.5182120403172429,-0.0378638015160927,-0.0694338228538446,-7.143093946873713,24.03924934427344,23.982346898838383,-1.824946760645901,1.104197254115444,-0.6982974751116943,4552.005859375,11.955,0.15,178.61064739130754,-3.881572552224282,95.10178726099224,1553.0,1264.0,1200.0,1528.0,1471.0,995.0,110.0,294.54999999999995,1649346692.9913528,1649346693.939885,175f164d-9642-416c-a20c-5e6fbe5a92b7
0.1741983707275261,0.340463625819177,0.402104709167269,0.365958945985545,0.1954729604734823,-0.5095207497282396,-0.03685135187589,-0.060282329565522,-7.168824042665503,24.221609965212057,24.035068885884733,-1.7896620442492988,1.0955072599210056,-0.6985358342849862,4551.099670410156,11.947375,0.15,178.6089379467403,-3.9007900839379226,95.2550322311228,1553.0,1264.0,1200.0,1528.0,1471.0,995.0,110.0,294.54999999999995,1649346694.0483084,1649346695.2329953,175f164d-9642-416c-a20c-5e6fbe5a92b7
0.1841650821397761,0.3426463092417999,0.3978576806186899,0.367918101574704,0.1915152030627365,-0.5118875156719045,-0.0421371279371399,-0.0634643143708362,-7.195141265221735,24.20005815115169,24.22268740852168,-1.7997375415426244,1.1017062399607171,-0.6792938959878805,4553.886501736111,11.948777777777776,0.1477777777777777,178.6192777147788,-3.902425024896592,95.37162147325267,1553.0,1264.0,1200.0,1528.0,1471.0,995.0,110.0,294.54999999999995,1649346695.3435094,1649346696.46257,175f164d-9642-416c-a20c-5e6fbe5a92b7
0.1553431409285111,0.3347570920516932,0.408547569813895,0.6368878079646724,0.2262409083404012,-0.7672089889813839,-0.1106023924396324,-0.1343620881874624,-7.515914213747386,25.4743114088694,21.802645953140185,-2.971776516434579,1.0634193619308496,-0.6464399101752042,4538.884928385417,11.924555555555555,0.14,178.6495035785858,-4.000135481864941,95.64942651627447,1553.0,1178.0,1200.0,1528.0,1471.0,995.0,110.0,294.54999999999995,1649346698.8082516,1649346699.9463794,a8f3a606-4ce1-46a5-8c67-d9dac9f15278
0.1521611565274491,0.3368082885254921,0.4033932813018132,0.6330483890358647,0.2226776118204356,-0.7656968882117993,-0.1145601502580106,-0.1362029058250736,-7.631699110829463,25.283294737977187,21.768571167044247,-2.961304472298539,1.0723768175563435,-0.6287618083026819,4509.43603515625,11.927888888888887,0.1444444444444445,178.65815211589486,-4.013796998569828,95.70716514096824,1553.0,1178.0,1200.0,1528.0,1471.0,995.0,110.0,294.54999999999995,1649346700.0543995,1649346701.1071072,a8f3a606-4ce1-46a5-8c67-d9dac9f15278
0.1380657545624922,0.3280381087305767,0.4019600735267561,0.6375846887981423,0.2242817526883503,-0.760989652928368,-0.1146653398312566,-0.1369392329660866,-7.782242974305529,25.284864627091803,21.80480737224593,-2.961090427840442,1.0395783162840238,-0.6299195518989064,4496.48779296875,11.93025,0.14,178.66504453567734,-4.0175326377271325,95.76989701340024,1553.0,1178.0,1200.0,1528.0,1471.0,995.0,110.0,294.54999999999995,1649346701.2148983,1649346702.4027405,a8f3a606-4ce1-46a5-8c67-d9dac9f15278
0.1325170048759128,0.3328899773129184,0.3857477323192384,0.7590128868795064,0.2145122718156654,-0.8830359106406744,-0.1753334288423375,-0.2001187236732738,-8.074592930744812,26.324770271521867,20.72001566240551,-3.50349061938694,1.0534988859661707,-0.5086450046891324,4495.50439453125,11.899333333333333,0.14,178.66469391929994,-4.072053342116289,95.84273984253356,1553.0,1088.0,1200.0,1528.0,1471.0,995.0,110.0,294.54999999999995,1649346703.5190914,1649346704.6579523,195b6ed4-4c93-449d-bde6-c49443e3cf87
0.1279149612825658,0.3396878527968778,0.384643241915972,0.7425507207524228,0.2107385961438972,-0.8743446179146619,-0.1720988493227761,-0.2019726900045898,-7.873648704322178,26.13988776364961,20.75678225736992,-3.4479991043389138,1.0792006475820364,-0.5056584698320052,4493.670844184027,11.902555555555557,0.1322222222222222,178.68647008019377,-4.061631042625281,95.82586548073408,1553.0,1088.0,1200.0,1528.0,1471.0,995.0,110.0,294.54999999999995,1649346704.7664058,1649346705.8836038,195b6ed4-4c93-449d-bde6-c49443e3cf87
0.1379211188698752,0.3345993077053442,0.3849325132234142,0.7548316018743472,0.2105939605184375,-0.8788414743836254,-0.1768323803285083,-0.1950038804649216,-7.9818106365164,26.530065212751765,20.9949883997838,-3.483222337527072,1.0572827543024474,-0.4995240820628706,4486.875813802083,11.900333333333334,0.1366666666666666,178.69406828619043,-4.0646078667385455,95.81517092231368,1553.0,1088.0,1200.0,1528.0,1471.0,995.0,110.0,294.54999999999995,1649346705.992525,1649346707.121424,195b6ed4-4c93-449d-bde6-c49443e3cf87
0.1984051196102936,0.3386622545636805,0.356741710598228,-0.2426547604927997,0.0979622318012608,0.0777132397965484,0.0961345630370213,0.0800142615864215,-6.748375094522935,21.7289900534373,27.956418412872807,0.8848686256449225,1.123035694859258,-0.6919381260350225,4485.838650173611,11.964333333333334,0.16,178.6915168310805,-3.780109949808136,95.77102892752768,1553.0,1435.0,1200.0,1528.0,1471.0,995.0,110.0,294.54999999999995,1649346709.0463817,1649346710.0976913,14c82e54-3415-4948-a5ed-eb2f7df54bdf
0.2153907058495931,0.3340071107011145,0.3698499483464921,-0.2349647951684951,0.1078495455094447,0.0749272333702668,0.1058140262191528,0.0852439026118724,-6.625212367362762,22.182497842349505,28.00019709497072,0.8649894556983124,1.104208234453631,-0.7375885667833079,4515.509711371527,11.964444444444444,0.1544444444444444,178.69643608510273,-3.7600508225806695,95.79255844270148,1553.0,1435.0,1200.0,1528.0,1471.0,995.0,110.0,294.54999999999995,1649346710.207976,1649346711.20703,14c82e54-3415-4948-a5ed-eb2f7df54bdf
0.1901932534322459,0.3380528631087202,0.3638698205940278,-0.2348889372817235,0.103538290364126,0.0712101981190622,0.0995557526154242,0.084586467634673,-6.720537195472885,21.984649834602173,28.001024378729667,0.8548084833736467,1.119657815970127,-0.7141485549281968,4547.712456597223,11.96211111111111,0.15,178.68298364807742,-3.746748080534685,95.8005330680124,1553.0,1435.0,1200.0,1528.0,1471.0,995.0,110.0,294.54999999999995,1649346711.3190317,1649346712.6399271,14c82e54-3415-4948-a5ed-eb2f7df54bdf
0.2814785782908014,0.3778322178039818,0.5984410238710917,-0.2498865442992079,0.3144160603304154,0.0350457205071774,0.3376498050174739,0.3216609914387021,-5.094606236756087,21.93352087709152,28.24916304323693,0.8195721472166707,1.2718636181654233,-1.6539234510021716,4559.001030815973,11.963555555555557,0.15,178.65321464803486,-3.750757022122528,95.74394798637849,1553.0,1435.0,1200.0,1424.0,1471.0,995.0,110.0,294.54999999999995,1649346713.5522568,1649346714.6960728,a05a26b0-e90a-411c-8fb2-eb2cfc651863
0.287237706899025,0.3762938204656643,0.6046209105102186,-0.2480325778942406,0.3220817497350527,0.034033270908683,0.3474981778120629,0.3238568235001,-4.885912289977918,21.683103338472897,28.19728643306857,0.8118593945621108,1.2652356514393943,-1.686804584454195,4561.965711805556,11.962,0.1588888888888889,178.6511580021848,-3.740792724760864,95.75126236006967,1553.0,1435.0,1200.0,1424.0,1471.0,995.0,110.0,294.54999999999995,1649346714.8186672,1649346715.918259,a05a26b0-e90a-411c-8fb2-eb2cfc651863
0.284949833886408,0.3885484044198011,0.6018728332601349,-0.2536076258149289,0.3127198786286306,0.0289447254050348,0.3377155484926509,0.3175454496736575,-4.901772644462263,22.10726532665801,28.39766377635608,0.8156996383718607,1.3100534961368069,-1.6548477035581122,4562.506293402777,11.963111111111113,0.15,178.66114525657116,-3.730249094548349,95.76044289322408,1553.0,1435.0,1200.0,1424.0,1471.0,995.0,110.0,294.54999999999995,1649346716.0272496,1649346717.0942128,a05a26b0-e90a-411c-8fb2-eb2cfc651863
0.3742952187734111,0.4221038745440581,0.8956935720848643,-0.2275074606795014,0.5842667306831079,-0.04334680802477,0.6296560257336955,0.6180457280733676,-2.853956055922917,22.162774192639063,28.455037055206105,0.6104135827590815,1.4363185908398897,-2.8350960880941023,4559.26953125,11.952777777777778,0.14,178.61026945417345,-3.7576644303756574,95.74697148345108,1553.0,1435.0,1200.0,1304.0,1471.0,995.0,110.0,294.54999999999995,1649346719.0817928,1649346720.217861,76631c0f-0365-4f37-b1f0-1a6bfd683c28
0.3686544285084492,0.4154243374017901,0.8871206228459135,-0.2210908962231538,0.5765484467273964,-0.0438859045963962,0.6183218506721444,0.6034506766542279,-3.0054738989524608,22.408397513379512,28.20932320143162,0.5958139160351389,1.4131870970823264,-2.798065472358113,4556.84521484375,11.945666666666666,0.1366666666666666,178.6217183690422,-3.754278364094623,95.76419722053784,1553.0,1435.0,1200.0,1304.0,1471.0,995.0,110.0,294.54999999999995,1649346720.3269932,1649346721.4526656,76631c0f-0365-4f37-b1f0-1a6bfd683c28
0.3670897337631996,0.4196056224624109,0.8878700984655435,-0.2231946878360833,0.5750889415836828,-0.0448852055378994,0.6168886429199617,0.5958112848710267,-3.0210408195163767,22.54712642165579,28.36996344709163,0.5992887324067734,1.4278647739385275,-2.794412373552648,4552.005859375,11.95011111111111,0.1455555555555555,178.61666858251587,-3.7604171863386497,95.76345956010748,1553.0,1435.0,1200.0,1304.0,1471.0,995.0,110.0,294.54999999999995,1649346721.561168,1649346722.6802776,76631c0f-0365-4f37-b1f0-1a6bfd683c28
0.4027621439266544,0.4258512526645315,1.023288511081704,-0.1484311941224717,0.7025786880117276,-0.1299835719726025,0.7268906250194879,0.7044326539996897,-2.4963380541100624,23.603467199877223,27.859099364906115,0.2533414466754435,1.4515014765913632,-3.30864348210299,4537.546875,11.909,0.14,178.56383023909666,-3.792529842472026,95.71499253775708,1553.0,1435.0,1200.0,1166.0,1471.0,995.0,110.0,294.54999999999995,1649346723.590334,1649346724.7326057,2e4b0fc5-73b3-42f6-9f81-69641d653562
0.3926902434038762,0.4249176953102516,1.021552883310752,-0.147813205370441,0.7041039366309301,-0.127695698674169,0.730085757906648,0.7048928583412533,-2.381141911237317,23.207398467762868,28.14479967867984,0.2544800911751456,1.444459750006474,-3.3123657360534327,4527.958984375,11.907000000000002,0.13,178.5926855116102,-3.793052162216055,95.61113344014778,1553.0,1435.0,1200.0,1166.0,1471.0,995.0,110.0,294.54999999999995,1649346724.8406332,1649346726.1588562,2e4b0fc5-73b3-42f6-9f81-69641d653562
0.3903892217334307,0.4246415727113594,1.0125328782317384,-0.1458671981674092,0.6934534937040489,-0.1314693747504074,0.7181730402501895,0.6980029421789049,-2.337356756446103,23.41854214258429,27.741497264748546,0.2425187341792957,1.4458808464323372,-3.2692442241386,4530.35205078125,11.919666666666664,0.13,178.5901841445542,-3.813387959536776,95.58099485098012,1553.0,1435.0,1200.0,1166.0,1471.0,995.0,110.0,294.54999999999995,1649346726.267541,1649346727.3889,2e4b0fc5-73b3-42f6-9f81-69641d653562
0.1246277873252137,0.3105108978088943,0.1537652974383972,-0.1971997126773056,-0.0861063699906805,0.0755437049359563,-0.1236458999283507,-0.1410679237175907,-8.098240720432123,22.232020628183808,28.05051807826487,0.7700212320686205,1.0077154247627982,0.1443442177373663,4527.958984375,11.96811111111111,0.15,178.6926688563205,-3.793472408577488,95.60747473548238,1553.0,1435.0,1200.0,1623.0,1471.0,995.0,110.0,294.54999999999995,1649346728.5023422,1649346729.6422956,2ff99a40-adae-427f-8232-7cf3edb6c2c0
0.1460864590606655,0.307197426567117,0.1535286209212372,-0.1969104413277654,-0.0843444446029613,0.0769243180347509,-0.1218708258232983,-0.1427246597132352,-8.1213417068512,22.09416273614509,27.8309548650992,0.77149883912461,0.9973444218508136,0.1390720563085807,4535.416232638889,11.967222222222224,0.1577777777777777,178.70225237063593,-3.787847463204767,95.63585037693424,1553.0,1435.0,1200.0,1623.0,1471.0,995.0,110.0,294.54999999999995,1649346729.7506323,1649346730.8815572,2ff99a40-adae-427f-8232-7cf3edb6c2c0
0.1421024042080051,0.3007151197351027,0.1527791452457538,-0.1957402072438558,-0.0841603628590894,0.0805928042564331,-0.122515111987848,-0.1432374588183698,-8.230037841436145,22.206730271088905,27.59672902415731,0.7777195091900339,0.975687407706798,0.139533606786357,4533.548014322917,11.967999999999998,0.15,178.70309324281374,-3.792789247364879,95.65648513732675,1553.0,1435.0,1200.0,1623.0,1471.0,995.0,110.0,294.54999999999995,1649346730.9896438,1649346732.0972135,2ff99a40-adae-427f-8232-7cf3edb6c2c0
0.0802509381226025,0.2782965940043913,-0.0040453539231145,-0.1518367066823689,-0.2261531448223302,0.069679386450986,-0.2982606042461109,-0.3148148159069283,-9.515577673633617,22.84394162098103,27.388691214544803,0.6498951288785472,0.8872103836891183,0.7931444532776059,4506.53564453125,11.961333333333334,0.15,178.71553784748153,-3.8072193026470007,95.70535969429766,1553.0,1435.0,1200.0,1712.0,1471.0,995.0,110.0,294.54999999999995,1649346733.0082474,1649346734.241336,93e2b751-8a66-4034-acae-4dcfd0f0cb72
0.082196945164064,0.2846474139111783,-0.0044266661177359,-0.157069888206253,-0.2268631744837381,0.0699949551543866,-0.297471682355418,-0.3213365700033611,-9.484941946287655,22.660503797683827,27.636572683741623,0.6612289459610458,0.9092330527624632,0.7946769435488424,4504.1650390625,11.964777777777776,0.15,178.7342267628705,-3.8022196041745513,95.68714509760105,1553.0,1435.0,1200.0,1712.0,1471.0,995.0,110.0,294.54999999999995,1649346734.3536313,1649346735.5862684,93e2b751-8a66-4034-acae-4dcfd0f0cb72
0.0790938528857585,0.2839505330548343,7.018807415947348e-05,-0.1571619290693515,-0.2229974573732447,0.0694953047042344,-0.2931063145726373,-0.3119221018767606,-9.452476246895287,22.710386868072355,27.48986170096664,0.660861336366373,0.9079870921121792,0.7767768147732761,4498.650227864583,11.963666666666668,0.15,178.73349213807973,-3.808389826316011,95.6894043723965,1553.0,1435.0,1200.0,1712.0,1471.0,995.0,110.0,294.54999999999995,1649346735.698644,1649346736.8097332,93e2b751-8a66-4034-acae-4dcfd0f0cb72
0.029089361050625,0.2538268716680382,-0.1486810193768759,-0.1057242258387773,-0.3549183454425235,0.0582268720614515,-0.4585563903838603,-0.4825133208144662,-10.619532588204008,23.29566375645389,27.215125054911688,0.5153506005810905,0.7899469790442573,1.3901499518083178,4485.570421006944,11.959444444444443,0.1488888888888888,178.76609338989817,-3.8338306208588855,95.6867512233589,1553.0,1435.0,1200.0,1801.0,1471.0,995.0,110.0,294.54999999999995,1649346737.4577932,1649346738.447072,99664631-d431-486d-a4f5-9db937749b24
0.019714340533186,0.2521043925523475,-0.1482734097640174,-0.1026342820584779,-0.3555100368888519,0.0574905450609296,-0.4606733309933755,-0.4909284885109463,-10.682959458580886,23.523143067954443,27.26600382772701,0.5082302863439571,0.7831338775781035,1.393167027664966,4492.36181640625,11.954555555555556,0.1444444444444445,178.7776394452351,-3.83298325051498,95.65574975362613,1553.0,1435.0,1200.0,1801.0,1471.0,995.0,110.0,294.54999999999995,1649346738.5554523,1649346739.8870456,99664631-d431-486d-a4f5-9db937749b24
0.0204112214581215,0.2537348308007223,-0.1531121303403017,-0.107275772088927,-0.3588892524123121,0.0601728790999303,-0.4622511749152529,-0.4944523401220094,-10.634385968444912,23.24724204932642,27.245198467533847,0.5226791304139882,0.7893496570534118,1.4068863092544543,4489.48583984375,11.954666666666668,0.15,178.78583567223913,-3.833668166706752,95.6455727717628,1553.0,1435.0,1200.0,1801.0,1471.0,995.0,110.0,294.54999999999995,1649346739.9997094,1649346741.1088622,99664631-d431-486d-a4f5-9db937749b24
0.1867290778141209,0.3168758778068448,0.3164460165444479,-0.2697582727494318,0.0865208432336976,0.1222119672687889,0.10942991758862,0.0927285448398457,-5.67745637711483,18.075919314624244,27.63414857124181,1.0202666887944485,1.0373206427340669,-0.6414369525074999,7488.14306640625,11.662333333333333,7.613333333333333,179.59247038847892,-4.061704751750074,82.86609758937219,1553.0,1435.0,1350.0,1528.0,1471.0,995.0,110.0,294.54999999999995,1649346745.0446763,1649346746.2274687,49307597-7663-469a-9f68-48220feb832e
0.1800030142255592,0.3115405417977847,0.3353851950784827,-0.2441688836901539,0.110340211932565,0.1172685633038216,0.1236279806886855,0.1002005444340612,-6.1239124672594,18.22371506742576,29.664981378089017,0.9534566001674684,1.0005231233077572,-0.7178407665418589,7498.332194010417,11.661333333333332,7.662222222222223,179.8559183738654,-4.082167334457263,77.04182225264334,1553.0,1435.0,1350.0,1528.0,1471.0,995.0,110.0,294.54999999999995,1649346746.3356905,1649346747.4685695,49307597-7663-469a-9f68-48220feb832e
0.1718609372100353,0.3080131514010142,0.3155230793056284,-0.2602633956601424,0.0886827923461064,0.1262956487931649,0.1099229937119671,0.0924124704971007,-5.726214790640023,18.087144606648508,28.22122823989821,1.0081226478412073,0.9979945164693826,-0.6440253953725593,7505.62744140625,11.65877777777778,7.638888888888889,179.95336847730346,-4.057889284756846,72.22646830916294,1553.0,1435.0,1350.0,1528.0,1471.0,995.0,110.0,294.54999999999995,1649346747.5813992,1649346748.685458,49307597-7663-469a-9f68-48220feb832e
0.4067330498668988,0.7038278140327214,0.3622510138560166,-0.3517889553084445,0.0504559924470655,-0.1740580051911261,0.041120418145473,0.0153226758575771,-5.362396561029757,17.590508667735254,28.594274128637423,0.5389242041766014,2.490881477008975,-0.5096187086487131,7505.62744140625,11.628222222222222,7.633333333333334,179.62965393832044,-4.000764760474098,66.66834950728142,1658.0,1435.0,1350.0,1528.0,1551.0,995.0,110.0,294.54999999999995,1649346749.458876,1649346750.4101365,dd742c96-9776-493c-94a5-0a6bb7db8fc1
0.4159765825858151,0.714662338688922,0.3609492930446546,-0.3575086392173332,0.0441446182877996,-0.180119554681262,0.0349668283128275,0.0034757000812263,-5.327450335444435,17.824856364450262,28.46135280948571,0.5396904034916006,2.533073937048065,-0.4894849871980437,7514.40576171875,11.629333333333337,7.606666666666667,179.54495959261232,-3.964441577308624,64.02182423536044,1658.0,1435.0,1350.0,1528.0,1551.0,995.0,110.0,294.54999999999995,1649346750.5183327,1649346751.7570212,dd742c96-9776-493c-94a5-0a6bb7db8fc1
0.4081531089463683,0.7074962999292015,0.3596607209131758,-0.3568775017027525,0.0448546478909468,-0.1739528156263293,0.0361502109706197,0.0174133185117873,-5.372722718409269,17.791984741620766,28.42272091763699,0.5518131785810396,2.506699802444035,-0.4913147056624069,7505.62744140625,11.628444444444446,7.631111111111112,179.3946058795029,-3.928862220716512,61.30067762893727,1658.0,1435.0,1350.0,1528.0,1551.0,995.0,110.0,294.54999999999995,1649346751.867093,1649346752.992412,dd742c96-9776-493c-94a5-0a6bb7db8fc1
0.618269255889801,1.0755940217053486,0.4181198198655317,-0.4420021782144505,0.0184257682377822,-0.4613833608099862,-0.0175227678951883,-0.0436623772194256,-4.835374034263139,17.813634901039713,27.707013214935944,0.1011495738068023,3.904017170072747,-0.415433983544325,7518.794921875,11.597,7.653333333333332,178.95105187698243,-3.864834367321388,58.11982589933629,1767.0,1435.0,1350.0,1528.0,1630.0,995.0,110.0,294.54999999999995,1649346754.1032937,1649346755.2439172,7540a4bc-1917-4b90-b35e-1ec76b8a1765
0.6162575055584005,1.075265304320436,0.4189350389428729,-0.4396485610516829,0.02108180483037,-0.4622906211227448,-0.0153137869756263,-0.0338928955522504,-4.832572044941038,17.644325426859947,27.85392927079493,0.0927447042909884,3.9012213634480175,-0.4230484316069758,7518.794921875,11.59475,7.625,178.79615001679574,-3.8386238365465823,56.346196242022025,1767.0,1435.0,1350.0,1528.0,1630.0,995.0,110.0,294.54999999999995,1649346755.3524392,1649346756.4919455,7540a4bc-1917-4b90-b35e-1ec76b8a1765
0.6208595487984652,1.074266003453758,0.4045503664407592,-0.4494969367809627,0.0063552649201833,-0.4623695132045637,-0.0271476138027869,-0.0511176879411714,-4.667385939695463,17.495971826494575,26.31520961551162,0.1129211011003926,3.910239982800125,-0.368734701603965,7512.20556640625,11.598,7.649999999999999,178.67313147965464,-3.831670383806392,55.13313102435687,1767.0,1435.0,1350.0,1528.0,1630.0,995.0,110.0,294.54999999999995,1649346756.6012,1649346757.9048717,7540a4bc-1917-4b90-b35e-1ec76b8a1765
0.7286262527657995,1.2807399752910078,0.4651001075640164,-0.5166999400858215,0.0079199597489868,-0.6250057838137387,-0.0367593111153583,-0.0557328806772979,-4.40709376968094,18.42548765740888,23.343067418111737,-0.0921167104745148,4.721271072442348,-0.4197141026211712,7518.794921875,11.527333333333331,7.633333333333332,178.37935138307404,-3.800832364295,53.275279727343246,1886.0,1435.0,1350.0,1528.0,1710.0,995.0,110.0,294.54999999999995,1649346759.0191164,1649346760.160558,990528e5-d273-4425-956f-3b3cdaf72dad
0.7341618533499057,1.2907066870715869,0.4642717397754164,-0.5190272598719126,0.0049483543365061,-0.6332237216776663,-0.0396651730877468,-0.0540629961165217,-4.300599156521284,18.360426921897577,23.244324820904826,-0.1057683270177309,4.75900663717634,-0.4092527082090006,7518.794921875,11.527666666666669,7.63111111111111,178.2673696727218,-3.750206148393219,52.43993279310749,1886.0,1435.0,1350.0,1528.0,1710.0,995.0,110.0,294.54999999999995,1649346760.268592,1649346761.5901165,990528e5-d273-4425-956f-3b3cdaf72dad
0.7368441871278606,1.288221583463633,0.4662045979589025,-0.5215123640390743,0.0078805136986413,-0.6297393160309547,-0.0365883779961259,-0.0585467015752822,-4.404889215784867,18.32115856563221,23.0886098638146,-0.0925740062060163,4.752232061304668,-0.4208607400761495,7525.396484375,11.523222222222223,7.622222222222222,178.1586573462522,-3.7318152000067903,51.81205133709105,1886.0,1435.0,1350.0,1528.0,1710.0,995.0,110.0,294.54999999999995,1649346761.6991708,1649346762.827774,990528e5-d273-4425-956f-3b3cdaf72dad
-0.03579996186301,-0.1198504779354667,0.2960149667683108,-0.1433664171711313,0.1551722078269355,0.4505247790769149,0.2104599449322725,0.1879554464438322,-5.826797309872516,19.28872561434349,30.31501324635777,1.4802950344879362,-0.6402083501865893,-0.899494846415439,7528.335503472223,11.638666666666666,7.684444444444444,178.96611775647168,-3.622428060333613,50.41764165618618,1449.0,1435.0,1350.0,1528.0,1386.0,995.0,110.0,294.54999999999995,1649346765.1729767,1649346766.302063,158ed86c-df32-43c6-b9cf-ac9730b4811d
-0.0300600500436065,-0.1233652258074358,0.2951299584265284,-0.1461731583225752,0.1547802755576349,0.4537866669054853,0.2123437484577822,0.1828097547279921,-5.720259355970679,19.20496031224747,29.926250751616944,1.493348552043075,-0.650411204423582,-0.901326117998526,7538.63330078125,11.637,7.707777777777778,178.8096290156678,-3.5683208432645213,50.03579993063661,1449.0,1435.0,1350.0,1528.0,1386.0,995.0,110.0,294.54999999999995,1649346766.4107878,1649346767.5425594,158ed86c-df32-43c6-b9cf-ac9730b4811d
-0.0323413489145399,-0.1252763383619086,0.2955608310711882,-0.1406603141548819,0.1560400217616101,0.4499133647541009,0.2100680126755725,0.1796024844361689,-5.87948980139583,19.319248309498093,29.82352290542224,1.472891654708996,-0.6561910660274157,-0.9008751577039886,7538.63330078125,11.637666666666666,7.676666666666667,178.71247792273334,-3.540916701358354,49.7547292982816,1449.0,1435.0,1350.0,1528.0,1386.0,995.0,110.0,294.54999999999995,1649346767.6524427,1649346768.757864,158ed86c-df32-43c6-b9cf-ac9730b4811d
-0.2681106396322935,-0.5368568966755729,0.2600725019826999,-0.0416769236010769,0.2056106048004673,0.7668232117029448,0.2915241815947903,0.2625576052373168,-6.308927759242602,20.26133137652989,30.67055041368979,1.9661450708394408,-2.218756893456215,-1.084419514727574,7545.26953125,11.598777777777778,7.648888888888889,178.83066296267182,-3.4863712849653243,49.33266041470534,1342.0,1435.0,1350.0,1528.0,1293.0,995.0,110.0,294.54999999999995,1649346769.6686163,1649346770.809014,a746bb15-5a2f-497a-93ee-becc5f6a27ad
-0.2735542005817876,-0.5446935218681876,0.2583631715656841,-0.0389682921507004,0.2059261734982471,0.7753041199825796,0.2899463381440079,0.267199094919797,-6.567099586182768,20.40091748433249,31.125956148692698,1.9798756523155103,-2.2507974610231782,-1.0807928200894568,7540.845377604167,11.597666666666663,7.653333333333332,178.77462809072102,-3.4627395656310536,49.0745710921777,1342.0,1435.0,1350.0,1528.0,1293.0,995.0,110.0,294.54999999999995,1649346770.9173756,1649346772.2413476,a746bb15-5a2f-497a-93ee-becc5f6a27ad
-0.2670061490350062,-0.5384873354514361,0.26012509677103,-0.0372852589568329,0.2055054152470475,0.7644038518209549,0.28874980686719,0.2671070540232435,-6.427094403403715,20.442955403487243,30.662376289152093,1.95194776807898,-2.224497522109158,-1.0807253010336733,7538.63330078125,11.6,7.67,178.7333191066208,-3.4585454737416463,48.8496017363904,1342.0,1435.0,1350.0,1528.0,1293.0,995.0,110.0,294.54999999999995,1649346772.3499734,1649346773.4676838,a746bb15-5a2f-497a-93ee-becc5f6a27ad
-0.501145028067675,-0.9569316250193272,0.2054133743598213,0.0558732553438754,0.232013185660342,1.0799199425884316,0.3435798665873968,0.3175848956110843,-7.126322561628,22.071699852806177,29.41063431088468,2.458333124807103,-3.7927855134927726,-1.1730559700821486,7542.320095486111,11.495888888888889,7.62,178.86271476371698,-3.398538467333545,48.49492367316999,1227.0,1435.0,1350.0,1528.0,1189.0,995.0,110.0,294.54999999999995,1649346775.607217,1649346776.7470148,f9f0f38d-d537-4da0-8660-f83ab643fbf7
-0.5100466977993796,-0.960179354942667,0.2025469587326595,0.0510082377529068,0.2282789561348793,1.0875067399531089,0.3412656962202742,0.3134036106859147,-7.189665142415288,22.216980098382468,29.37859062369965,2.487139318188887,-3.8038144135143,-1.1613524390092116,7538.63330078125,11.501111111111111,7.610000000000001,178.84411084623764,-3.404512700991322,48.40063556786264,1227.0,1435.0,1350.0,1528.0,1189.0,995.0,110.0,294.54999999999995,1649346776.8556137,1649346777.9746778,f9f0f38d-d537-4da0-8660-f83ab643fbf7
-0.5071802812131788,-0.9578914803980956,0.1979975099814784,0.0606462320970189,0.2273191013263478,1.0775005825890398,0.3346387537638791,0.3124437559419379,-7.358315011811861,22.01228713340174,29.496736062238348,2.441263665076448,-3.796565476325765,-1.1439142860904312,7538.63330078125,11.507555555555555,7.627777777777778,178.81721659692576,-3.4082888706808885,48.306750064261365,1227.0,1435.0,1350.0,1528.0,1189.0,995.0,110.0,294.54999999999995,1649346778.0833738,1649346779.2038963,f9f0f38d-d537-4da0-8660-f83ab643fbf7
0.1903196831925117,0.3115784707284275,0.3126025517720089,-0.2517420279502405,0.0874690665433712,0.1174076360324113,0.1019832041755846,0.07277792679018,-6.029500732204943,18.127723643656115,28.528959845974263,0.968947946959498,1.0095521770857367,-0.6263752889839438,7530.539767795139,11.642333333333331,7.704444444444444,178.21615084304574,-3.5153781260170494,48.22976965831082,1553.0,1435.0,1350.0,1528.0,1471.0,995.0,110.0,294.54999999999995,1649346781.1399462,1649346782.4874735,ac94529f-64e7-4b46-9685-ea2c66129a95
0.190437010010472,0.3107607230166288,0.3052514195747372,-0.2566186777062352,0.0813554285419371,0.1191579297754902,0.0961740090928507,0.0816446997651499,-6.087017981867489,17.988931986050726,27.97713882916132,0.982478597614768,1.011915038249862,-0.6006600965146341,7532.00927734375,11.642111111111111,7.705555555555555,178.22785019818406,-3.516416148759349,48.23411821208239,1553.0,1435.0,1350.0,1528.0,1471.0,995.0,110.0,294.54999999999995,1649346782.5959156,1649346783.7075176,ac94529f-64e7-4b46-9685-ea2c66129a95
0.1947366334823549,0.3215295045300451,0.3139558559228113,-0.2571972204604847,0.0863124869707154,0.113254165274579,0.1029455875726596,0.0832751381640608,-5.8722401078733455,18.027294747076752,28.619709265559308,0.971415378557287,1.045712982183087,-0.6265794846663834,7531.274522569444,11.641555555555556,7.698888888888888,178.2451503084418,-3.510862564633894,48.24751448977452,1553.0,1435.0,1350.0,1528.0,1471.0,995.0,110.0,294.54999999999995,1649346783.815869,1649346785.145398,ac94529f-64e7-4b46-9685-ea2c66129a95
0.1963802204846364,0.307999496982918,0.3167039332868802,-0.5887416676952713,0.0591341320312532,0.4521223455358704,0.2032043935391556,0.1889249098646479,-5.917032370020374,17.199958206606418,31.911954369402302,2.475935047779354,1.0070855712160316,-0.7356471854993457,7525.396484375,11.631666666666668,7.704444444444444,178.28741400120603,-3.4408920197740365,48.35726766118259,1553.0,1522.0,1350.0,1528.0,1471.0,995.0,110.0,294.54999999999995,1649346786.054938,1649346787.1940873,c6bc4cb9-0397-4b18-9e36-dcca3563e2f2
0.2227615611836692,0.3053834123150607,0.31243819307014,-0.588728013300406,0.0582258605217666,0.4493995542045306,0.2014455026073313,0.1688519083151151,-5.941304490238755,16.89724531089756,31.14332217243928,2.4674319030082605,1.0039805828707165,-0.7273843773024372,7525.396484375,11.634999999999998,7.71,178.31220151661395,-3.4459317507441214,48.4023393206056,1553.0,1522.0,1350.0,1528.0,1471.0,995.0,110.0,294.54999999999995,1649346787.302676,1649346788.4145696,c6bc4cb9-0397-4b18-9e36-dcca3563e2f2
0.1957688061302479,0.3074189315098514,0.3199101920890786,-0.5840374672340481,0.0590350110893967,0.4577692043618974,0.2022293671694887,0.1841751964983639,-6.003047091090091,17.70437649769927,33.25180607792215,2.4816865524058,0.9932744434232614,-0.736900866778256,7529.805013020833,11.631333333333334,7.679999999999999,178.33942665064558,-3.453525640440706,48.45482135582312,1553.0,1522.0,1350.0,1528.0,1471.0,995.0,110.0,294.54999999999995,1649346788.5228608,1649346789.6500947,c6bc4cb9-0397-4b18-9e36-dcca3563e2f2
0.2181939066076406,0.3018985023168615,0.3165198515290539,-0.9663855434770242,0.0159143671938141,0.8220214334250926,0.3072237239215745,0.2824647303596365,-5.448069470638582,16.752382810940027,34.61187271972822,4.156709997650674,1.0034314033016691,-0.8243605331095685,7532.00927734375,11.624333333333333,7.699999999999999,178.372751902516,-3.327376386486605,48.59218139294647,1553.0,1613.0,1350.0,1528.0,1471.0,995.0,110.0,294.54999999999995,1649346791.5811665,1649346792.7251632,031cfbee-f46c-477d-8d0d-5afd413fdea2
0.2333017578704135,0.3114050090912364,0.3227128870668449,-0.9782193772337948,0.0168084785875022,0.8242041168025491,0.3141793837936912,0.2859622833293853,-5.1657974815338745,16.799138974739854,34.745687211972665,4.189090751702371,1.037753134006482,-0.84251004021809,7537.897298177083,11.62988888888889,7.698888888888888,178.36648178885793,-3.3272665105615205,48.60859509643192,1553.0,1613.0,1350.0,1528.0,1471.0,995.0,110.0,294.54999999999995,1649346792.838516,1649346793.952727,031cfbee-f46c-477d-8d0d-5afd413fdea2
0.2285813761315338,0.30112272928335,0.3178741671687743,-0.972052635069987,0.0137185349243693,0.8320012929740511,0.3091039873733746,0.2789671773452317,-5.335789916622477,17.026063069324366,35.18889396581201,4.193949839345291,0.9954012090334388,-0.8252564302732892,7545.26953125,11.621777777777778,7.674444444444443,178.38606318229844,-3.3378837550350893,48.65094113092114,1553.0,1613.0,1350.0,1528.0,1471.0,995.0,110.0,294.54999999999995,1649346794.0615056,1649346795.1838398,031cfbee-f46c-477d-8d0d-5afd413fdea2
0.2474234569247874,0.294614125055896,0.3286035025740294,-1.3308150896303943,-0.0153137869319247,1.1774964135650303,0.4180803738126936,0.3921511468486657,-5.0244814221637935,16.52626566528336,36.897659122017046,5.777253830473812,0.9984849220275308,-0.9565980881914404,7548.224175347223,11.601333333333333,7.665555555555555,178.40989143558292,-3.210190404009874,48.736286621330166,1553.0,1710.0,1350.0,1528.0,1471.0,995.0,110.0,294.54999999999995,1649346796.087705,1649346797.2261846,f35cb728-8438-49b4-b4c1-20ec546b7f5e
0.2626890924294087,0.3073157648243784,0.334125954626693,-1.3391645197268571,-0.0149193260328903,1.1775490083525524,0.4218014545388538,0.3934791651004437,-4.892302368821003,16.631169931813705,37.61455424299342,5.797357503756716,1.0402143061513969,-0.9674369044983168,7551.91748046875,11.594444444444443,7.663333333333333,178.37547031780565,-3.205783082152315,48.762079312910906,1553.0,1710.0,1350.0,1528.0,1471.0,995.0,110.0,294.54999999999995,1649346797.3336723,1649346798.46926,f35cb728-8438-49b4-b4c1-20ec546b7f5e
0.2540898455663061,0.3015434875399608,0.3290242608321954,-1.3356143683447304,-0.0190743141622524,1.17831163270102,0.4165551251659817,0.3857477321507211,-4.909727155273806,16.71840767592572,37.34304469421763,5.791335178638093,1.0203354271453111,-0.9484520829919098,7545.26953125,11.593333333333334,7.676666666666667,178.38011181080162,-3.1940347298930707,48.78158898936514,1553.0,1710.0,1350.0,1528.0,1471.0,995.0,110.0,294.54999999999995,1649346798.5852308,1649346799.6889057,f35cb728-8438-49b4-b4c1-20ec546b7f5e
0.2492116795146463,0.2830169756696578,0.3131537854614371,-1.5200513259207864,-0.0597432330420434,1.378408493203566,0.445955607466171,0.4150035790336875,-5.047912101404783,17.522520854994955,39.10624918028525,6.661775956445354,0.9579162166903932,-0.9150850475781068,7549.701497395833,11.542333333333334,7.633333333333334,178.40966831607,-3.123436542823545,48.84325193719202,1553.0,1814.0,1350.0,1528.0,1471.0,995.0,110.0,294.54999999999995,1649346800.5931425,1649346801.741711,9efd3c48-ff9f-44c5-93bd-ac4cd6d69016
0.2450829891011382,0.2878031008115259,0.3102610725195454,-1.519985582456701,-0.0634380167857537,1.373175311887926,0.4408013189893496,0.4196845144733948,-5.076496433412147,17.5357556363056,39.00664792080848,6.649781429666524,0.9767609196870948,-0.8983571260614179,7538.63330078125,11.543,7.66,178.42266844279027,-3.1195143066926656,48.896190456719054,1553.0,1814.0,1350.0,1528.0,1471.0,995.0,110.0,294.54999999999995,1649346801.8621123,1649346802.9656522,9efd3c48-ff9f-44c5-93bd-ac4cd6d69016
0.2599541637621057,0.2969282954516091,0.3170983941166171,-1.5370394608834093,-0.0595591512276534,1.3782112626730352,0.4519908585364717,0.4287834116173022,-4.841413486347348,17.2793188068591,38.83250348639579,6.698298332379651,1.0133943242632708,-0.9279131735567772,7545.26953125,11.550777777777776,7.646666666666667,178.44305883419247,-3.123047791223285,48.89634337706548,1553.0,1814.0,1350.0,1528.0,1471.0,995.0,110.0,294.54999999999995,1649346803.0973785,1649346804.193963,9efd3c48-ff9f-44c5-93bd-ac4cd6d69016
0.193868819592564,0.333047761655987,0.3270256591372251,0.1088230546070295,0.1314256630478681,-0.2524768378266123,0.008380164225271,-0.017325537906481,-5.949502395040079,19.16171556517884,25.821014314704684,-0.6683971021099544,1.070047920383388,-0.5710637492608143,7538.63330078125,11.643,7.66,178.4659581817498,-3.667465805970116,48.959352631068754,1553.0,1349.0,1350.0,1528.0,1471.0,995.0,110.0,294.54999999999995,1649346804.9581215,1649346805.8929636,dc7a3b78-11c3-4153-8302-def7cfe14855
0.1774723959876497,0.3331398025216348,0.3319695685882184,0.106955939823001,0.1361591935749777,-0.2471384664694748,0.0122853270524668,-0.0159054782131305,-6.174665232966522,19.282679097119043,26.38179032010124,-0.6511652101203381,1.067561983969889,-0.5892316179678826,7538.63330078125,11.644666666666668,7.690000000000001,178.46826678568925,-3.695367840207656,49.0688155194371,1553.0,1349.0,1350.0,1528.0,1471.0,995.0,110.0,294.54999999999995,1649346806.0020907,1649346807.0549958,dc7a3b78-11c3-4153-8302-def7cfe14855
0.1748163594556474,0.334125954672314,0.3376103588718384,0.1015518257228326,0.141497564111468,-0.2442851990557291,0.021160697111048,-0.0052024392898096,-6.030799448714519,19.118918416086075,26.274497875609025,-0.633312580180468,1.0722135185510833,-0.6167398921389923,7542.320095486111,11.645222222222223,7.699999999999999,178.4848049503996,-3.7070938046246216,49.15778746084046,1553.0,1349.0,1350.0,1528.0,1471.0,995.0,110.0,294.54999999999995,1649346807.162781,1649346808.288409,dc7a3b78-11c3-4153-8302-def7cfe14855
0.1712399141903161,0.3489050882108676,0.3544932836630803,0.4505445020948606,0.1850197473062153,-0.5899644967318152,-0.0721161565773372,-0.0889859346863602,-6.48971224132786,20.783798470488936,24.56616289621141,-2.185968067633052,1.1041633111077247,-0.5647910042703785,7543.794813368056,11.62622222222222,7.699999999999999,178.56147154710328,-3.862470315526787,49.35038020214208,1553.0,1264.0,1350.0,1528.0,1471.0,995.0,110.0,294.54999999999995,1649346809.958387,1649346811.152007,4d4d7489-2706-4438-80f6-b58d52bb0377
0.1658489489015265,0.3464725795784966,0.354348648002141,0.447980506562923,0.1840861898893221,-0.5842579607687106,-0.0716428035163855,-0.0929305438800456,-6.496724456234335,20.89510838028504,24.70280980931124,-2.1666120361493086,1.094186858716679,-0.5641709390806217,7538.63330078125,11.619,7.69,178.57906611440524,-3.88903586198486,49.44552208109568,1553.0,1264.0,1350.0,1528.0,1471.0,995.0,110.0,294.54999999999995,1649346811.26033,1649346812.3839943,4d4d7489-2706-4438-80f6-b58d52bb0377
0.1717264159258008,0.3500884707882812,0.3505355263681114,0.4431680841450511,0.1823242646696329,-0.5861908196856216,-0.0725500635771457,-0.0937720603872781,-6.470765633178253,20.51380179996421,24.288253448144555,-2.162870393351761,1.111583435514486,-0.5552964025293553,7538.63330078125,11.625666666666667,7.690000000000001,178.58098767429172,-3.908411401112893,49.55363486873809,1553.0,1264.0,1350.0,1528.0,1471.0,995.0,110.0,294.54999999999995,1649346812.4987977,1649346813.617647,4d4d7489-2706-4438-80f6-b58d52bb0377
0.1525161713200728,0.354651068050446,0.3611465234572516,0.7865594029289196,0.2188513413161847,-0.926387185925484,-0.1692061358911693,-0.1910461224655634,-6.744799365642732,22.29262821862441,21.16439256746981,-3.6902592269106833,1.1167462199370553,-0.4836585764856614,7538.63330078125,11.605,7.690000000000001,178.5935476332655,-4.063193780421007,49.67199294013551,1553.0,1178.0,1350.0,1528.0,1471.0,995.0,110.0,294.54999999999995,1649346814.5171745,1649346815.6643226,cdb4e03c-5e3b-4043-9eee-590dfae8c190
0.148295439912219,0.3498517942717523,0.3532967523581085,0.7805898953978173,0.2115012204335511,-0.9097540758929668,-0.1775687074641612,-0.2061408271274376,-7.181142340955112,22.54819905917068,22.01531449073051,-3.638197319604775,1.0945343289411793,-0.4508837635847063,7534.21728515625,11.599333333333334,7.683333333333334,178.6202931362354,-4.067946833173427,49.76174504092407,1553.0,1178.0,1350.0,1528.0,1471.0,995.0,110.0,294.54999999999995,1649346815.7770278,1649346816.8882315,cdb4e03c-5e3b-4043-9eee-590dfae8c190
0.1335031570768523,0.345118263959222,0.3622641625775344,0.7895704540825621,0.2240187787271756,-0.9118184223483738,-0.1667999242662152,-0.1922558024968832,-7.204296392121012,22.3644129722494,22.316256699896723,-3.6638296281159,1.0737370178871926,-0.4954994762643038,7525.396484375,11.607888888888889,7.697777777777778,178.63203043686912,-4.091142535049745,49.80132446934447,1553.0,1178.0,1350.0,1528.0,1471.0,995.0,110.0,294.54999999999995,1649346816.995781,1649346818.117823,cdb4e03c-5e3b-4043-9eee-590dfae8c190
0.1442982364000536,0.3563998445259,0.3444345317677,0.9750459478523896,0.2161953048350253,-1.100502334033646,-0.2523716482264937,-0.2801811444944681,-7.656492740093211,23.838089983151463,20.93179177734069,-4.497781772814972,1.1075795023073245,-0.3385863536846485,7525.396484375,11.566333333333333,7.67,178.62277021817442,-4.163416086888496,49.861351966320086,1553.0,1088.0,1350.0,1528.0,1471.0,995.0,110.0,294.54999999999995,1649346819.02996,1649346820.1629865,33033d6a-948f-4b09-9aae-ef053da32444
0.1325827483359494,0.3584904870710559,0.3447895465051923,0.979253530357959,0.217641661300411,-1.1111396369080948,-0.2528187040323709,-0.2735279034788529,-7.582650166792891,23.67602900608152,20.26321829665244,-4.532302536400451,1.1203253073898336,-0.3409387062193016,7518.794921875,11.564444444444446,7.680000000000001,178.635627669832,-4.162592574774817,49.89925192711458,1553.0,1088.0,1350.0,1528.0,1471.0,995.0,110.0,294.54999999999995,1649346820.2716382,1649346821.600089,33033d6a-948f-4b09-9aae-ef053da32444
0.1481113582060363,0.3638946008281379,0.3339550215377737,0.9637906647066912,0.2028888247408014,-1.1059327498052198,-0.2613653577485029,-0.2806544978078885,-7.315289149288422,23.65623128631568,19.65655110934546,-4.486354381376302,1.145295202933316,-0.2940497802708266,7518.794921875,11.56611111111111,7.687777777777778,178.6213844486828,-4.178958941254768,49.95649498363855,1553.0,1088.0,1350.0,1528.0,1471.0,995.0,110.0,294.54999999999995,1649346821.7084892,1649346822.8306808,33033d6a-948f-4b09-9aae-ef053da32444
