raw_voltage_G-,raw_voltage_G0,raw_voltage_G1,raw_voltage_G2,raw_voltage_G3,raw_voltage_G4,raw_voltage_G5,raw_voltage_G6,load_x,load_y,load_z,load_l,load_m,load_n,rpm,voltage,current,roll,pitch,yaw,aileron1_pwm,elevator_pwm,throttle_pwm,rudder_pwm,aileron2_pwm,pbaro,pdiff,Tt,sample_start_time,sample_end_time,uid
0.0497985577676428,0.1788267116763619,0.0500878290701846,-0.1205165100262431,-0.1318112408481339,0.137631847600753,-0.2330693598060995,-0.2562110682001066,-13.137535897523836,22.85956020096092,27.77181360574756,0.7329795710415133,0.5359534070546321,0.4842792208068126,4612.97998046875,11.967222222222222,0.14,179.08677987834915,-3.9286000173433737,100.51444959539926,1553.0,1435.0,1200.0,1528.0,1471.0,995.0,110.0,294.54999999999995,1649343446.700055,1649343447.6744416,d7358ba3-a1a6-4e5b-bef6-e884d02153f4
0.0452622575424859,0.1740931811940321,0.0480892272349444,-0.1198985212516792,-0.1326922035621943,0.1408664267947385,-0.2331088059138442,-0.2521875666130037,-13.094193033543156,22.8222989462726,27.64564544798647,0.7385092504835543,0.5188078245750634,0.4875599162860904,4620.161566840277,11.968777777777778,0.14,179.11790429148698,-3.922297412854876,99.9557287376436,1553.0,1435.0,1200.0,1528.0,1471.0,995.0,110.0,294.54999999999995,1649343447.7836058,1649343448.9070525,d7358ba3-a1a6-4e5b-bef6-e884d02153f4
0.0359003857602967,0.186282022170455,0.0555971328019712,-0.1230016137837617,-0.1282084978314386,0.1328588709780977,-0.2284804642999474,-0.254830455436152,-13.041077896185197,22.80835905005823,27.84537113595463,0.7278550284209737,0.563235071247356,0.4664012771409649,4623.20703125,11.967999999999998,0.14,179.14125898498898,-3.915122061972431,99.50819956502622,1553.0,1435.0,1200.0,1528.0,1471.0,995.0,110.0,294.54999999999995,1649343449.0153267,1649343450.1437955,d7358ba3-a1a6-4e5b-bef6-e884d02153f4
0.2485410960311317,0.5562205642676487,0.0924266307532983,-0.3070965294131718,-0.1820129670794751,-0.0599536119742128,-0.2748427729361349,-0.297918738352345,-12.61621163195708,22.223000676537698,27.83345221561696,0.7080180792821659,1.9728189539405343,0.5991612894016821,4628.755479600694,11.939777777777778,0.14,178.84892992415206,-3.904703225007877,98.5464907160506,1658.0,1435.0,1200.0,1528.0,1551.0,995.0,110.0,294.54999999999995,1649343452.0050666,1649343453.2172692,0ab20255-0121-466a-a1b2-d602ac074f29
0.2516967829636393,0.5535645278763117,0.0917954933315714,-0.3015083326829431,-0.1818814801221543,-0.0617549834472056,-0.2749742599307396,-0.3082273182407614,-12.505182725345858,22.208054372392883,27.9355246754094,0.6913062071299518,1.960438410820111,0.5999850794384901,4635.152126736111,11.939222222222222,0.1377777777777778,178.8577241721634,-3.89856255292095,98.27686292728512,1658.0,1435.0,1200.0,1528.0,1551.0,995.0,110.0,294.54999999999995,1649343453.3257582,1649343454.436677,0ab20255-0121-466a-a1b2-d602ac074f29
0.2496192890630212,0.5568517016275087,0.0923477385707728,-0.3035595296134571,-0.1818814801164244,-0.0619259165200716,-0.2754213156693795,-0.2888592859187014,-12.584362248626585,22.219088971863776,28.10117906262484,0.6956362925519961,1.9721472763075103,0.6004223237322299,4635.708984375,11.939,0.1311111111111111,178.8536548972379,-3.8969800360357536,98.0617802703214,1658.0,1435.0,1200.0,1528.0,1551.0,995.0,110.0,294.54999999999995,1649343454.545349,1649343455.6699648,0ab20255-0121-466a-a1b2-d602ac074f29
0.4599063730277935,0.9252781362263112,0.1321619900803141,-0.4844593282539721,-0.2350548131727724,-0.2601162312364802,-0.3209684060846172,-0.3412042531412784,-11.993560490818254,21.8596562209093,27.54374780693508,0.6581501151895028,3.379519909682364,0.7261924324677212,4642.12548828125,11.910666666666666,0.1255555555555555,178.4751273312556,-3.8901576731241647,97.58209987946094,1767.0,1435.0,1200.0,1528.0,1630.0,995.0,110.0,294.54999999999995,1649343457.601281,1649343458.7337575,4918373a-da45-4ea6-8cdc-c1b805d448db
0.4607347408247065,0.924831080589014,0.1372636841001384,-0.4870233246312233,-0.2313337317184955,-0.2566318262759128,-0.3140127447017951,-0.3303828741994793,-11.824709735819452,21.875853807284862,27.68641334368249,0.6722329289657555,3.3760230317778035,0.7045027103585753,4640.72900390625,11.91,0.13,178.47447770437455,-3.875927306011529,97.4868824889715,1767.0,1435.0,1200.0,1528.0,1630.0,995.0,110.0,294.54999999999995,1649343458.842097,1649343459.9667609,4918373a-da45-4ea6-8cdc-c1b805d448db
0.4630489111678131,0.9328386359725964,0.1377370371523899,-0.4912572058927221,-0.2330956572090236,-0.2602740155991199,-0.3147096257071071,-0.3375620636649504,-11.743679445847842,21.84958267690428,27.728781395351515,0.6734959996836792,3.4056580574967423,0.7083084912736811,4649.124348958333,11.906666666666666,0.13,178.453645627406,-3.8838702468338218,97.3866904440366,1767.0,1435.0,1200.0,1528.0,1630.0,995.0,110.0,294.54999999999995,1649343460.0749776,1649343461.2025278,4918373a-da45-4ea6-8cdc-c1b805d448db
0.58380652635223,1.1268213399378717,0.1809173542824927,-0.6155518679258382,-0.2506491687809536,-0.3613612077811285,-0.3238479710479776,-0.3448858886577223,-11.668785048473335,22.61569543323664,24.23107048017914,0.7334267767717709,4.181734905242311,0.7035553755402667,4676.740614149306,11.846555555555556,0.11,178.21139096010418,-3.866426892330994,97.26496205373871,1886.0,1435.0,1200.0,1528.0,1710.0,995.0,110.0,294.54999999999995,1649343462.1073515,1649343463.2440746,85df07fd-dc13-4372-85f4-d2d427c51aec
0.5802037839303423,1.114159145959852,0.1768412585917519,-0.6069000229657683,-0.2512540088777747,-0.3566671223863691,-0.3250839486813939,-0.3516180225561281,-11.629294626886502,22.603239130173858,24.246700736518104,0.7241954042376765,4.132502103930931,0.7102936329287972,4671.642957899306,11.850333333333335,0.1188888888888888,178.24273545711523,-3.86773430437462,97.1236985635047,1886.0,1435.0,1200.0,1528.0,1710.0,995.0,110.0,294.54999999999995,1649343463.3523796,1649343464.4718723,85df07fd-dc13-4372-85f4-d2d427c51aec
0.5747865215938674,1.116170896412123,0.1821007368898866,-0.6103318337932425,-0.2472699534366011,-0.3549446428799683,-0.3195877927919919,-0.3451751601836016,-11.607461462885835,22.62937281318551,24.36344991381493,0.7362721011065928,4.139614511936651,0.6902551413224249,4663.1708984375,11.852,0.1188888888888888,178.22582694436994,-3.863146978573312,97.02795752517892,1886.0,1435.0,1200.0,1528.0,1710.0,995.0,110.0,294.54999999999995,1649343464.580517,1649343465.7010128,85df07fd-dc13-4372-85f4-d2d427c51aec
-0.252489986459378,-0.2950917680040008,0.0050535440219018,0.1094804895230232,-0.0674746665707016,0.3833152237174596,-0.1806586512763397,-0.2066667749565403,-13.954380789993222,24.42634919522031,26.80775715812092,0.7738252116737072,-1.2583491117622587,0.325513941981716,4666.839301215277,11.935777777777778,0.1311111111111111,179.11162962436947,-3.873595650183615,96.80572745470376,1449.0,1435.0,1200.0,1528.0,1386.0,995.0,110.0,294.54999999999995,1649343467.5251932,1649343468.4712584,d55641cf-854c-4f47-b212-cabd570f5df7
-0.231664977742874,-0.295069516357803,0.009588327164509,0.1099229937281222,-0.0636397985532206,0.3850720916889577,-0.1752899369577364,-0.1859479681345055,-13.85730816232183,24.44389426086652,27.15572533232124,0.7772213898265475,-1.2618034470202166,0.3070234344489885,4685.547526041667,11.944666666666665,0.13,179.17893430845075,-3.8683415271645822,96.68959450715592,1449.0,1435.0,1200.0,1528.0,1386.0,995.0,110.0,294.54999999999995,1649343468.579703,1649343469.7928164,d55641cf-854c-4f47-b212-cabd570f5df7
-0.2138383780005061,-0.2972314657502729,0.011244557190715,0.1100747094478142,-0.0614904923594802,0.3869685381147091,-0.1731279876954905,-0.1859353250888545,-13.894494768212242,24.453699988416947,27.15882179208496,0.7812699720236529,-1.2695898348876813,0.2984742942802106,4694.10009765625,11.942555555555556,0.1322222222222222,179.18347562533893,-3.856582550166629,96.61091072791736,1449.0,1435.0,1200.0,1528.0,1386.0,995.0,110.0,294.54999999999995,1649343469.9020002,1649343471.0263767,d55641cf-854c-4f47-b212-cabd570f5df7
-0.4695618518236572,-0.7184404539366865,-0.0309212897111418,0.3168617176664557,-0.0079242193928373,0.6100644702300737,-0.1302728432971841,-0.1530200895960353,-14.647165298603332,26.077666266405163,27.25996588879845,0.8244386310793301,-2.8730543093175256,0.1717717755898183,4695.528862847223,11.906333333333333,0.12,179.30326803646207,-3.8382644096994776,96.41454658382904,1342.0,1435.0,1200.0,1528.0,1293.0,995.0,110.0,294.54999999999995,1649343472.141511,1649343473.2792866,bdb0a5c6-abe9-4f3e-bc78-30049089d97e
-0.4692199856131283,-0.7096045265009083,-0.0322230106586141,0.3164409594222054,-0.0107774865232048,0.6038977322869754,-0.1345330211573437,-0.1578851076009325,-14.673616989304572,26.080788442938168,27.53751426739852,0.8115170830196466,-2.842217559818321,0.1849351397528333,4694.10009765625,11.910999999999998,0.13,179.3035716004252,-3.8304509104483295,96.2944202523465,1342.0,1435.0,1200.0,1528.0,1293.0,995.0,110.0,294.54999999999995,1649343473.388215,1649343474.3555975,bdb0a5c6-abe9-4f3e-bc78-30049089d97e
-0.4720601046831542,-0.7146141817859929,-0.0330776759450636,0.3189655089335333,-0.0108432300129228,0.6044762748672282,-0.1350063742707221,-0.1573460110290683,-14.667684014086651,26.12882492924564,27.24689209656334,0.8073549229664982,-2.8588372207892534,0.1858541453398881,4693.814615885417,11.910999999999998,0.1211111111111111,179.3042591728016,-3.8281976120683945,96.18049042026097,1342.0,1435.0,1200.0,1528.0,1293.0,995.0,110.0,294.54999999999995,1649343474.4645512,1649343475.5318763,bdb0a5c6-abe9-4f3e-bc78-30049089d97e
-0.6902101920214859,-1.1141769877953769,-0.077165256138778,0.4923967985908932,0.0298914315504654,0.8193785457195001,-0.1017270219820623,-0.1164535631898814,-15.54855692894594,28.108812215574872,24.78559433961467,0.9091450749321616,-4.353506095687179,0.0913590201711928,4684.69384765625,11.833,0.1,179.423942300898,-3.814717427399597,95.90675920562408,1227.0,1435.0,1200.0,1528.0,1189.0,995.0,110.0,294.54999999999995,1649343477.6709852,1649343478.8086436,ecea0b1e-951e-4c1a-86ed-0254585758d6
-0.6997955953205529,-1.111060744451305,-0.0770863639591679,0.4875712275058413,0.0285897106073564,0.8204172926234518,-0.1011221819222805,-0.1193331275366162,-15.477633693843991,28.088727218537603,24.738155596526862,0.9222635053894024,-4.341301025524723,0.0924889971818366,4668.53271484375,11.832,0.1,179.42902851509996,-3.812499323466636,95.65197721247456,1227.0,1435.0,1200.0,1528.0,1189.0,995.0,110.0,294.54999999999995,1649343478.9170945,1649343480.037801,ecea0b1e-951e-4c1a-86ed-0254585758d6
-0.6827548783431453,-1.107799865429505,-0.0771521074326354,0.4865324805896635,0.0276824505557093,0.8176692153588047,-0.1019768472204876,-0.1234092238296583,-15.44430075657762,28.07910467418068,24.6621654198615,0.9183689704778232,-4.328509608911328,0.0953367362594514,4662.32568359375,11.825888888888889,0.1055555555555555,179.40873678198577,-3.80888918903533,95.45544459038668,1227.0,1435.0,1200.0,1528.0,1189.0,995.0,110.0,294.54999999999995,1649343480.145754,1649343481.267637,ecea0b1e-951e-4c1a-86ed-0254585758d6
0.0070915920017851,0.1498601347829629,0.0454200418982876,-0.1101553367436573,-0.1297205979997094,0.1562109548798438,-0.2320700587797195,-0.2559875405663173,-13.338158163506366,22.99121280879384,27.719948544304444,0.751888098072769,0.427621403708217,0.4826900108598312,4654.58984375,11.964,0.14,178.91412787432938,-3.7992824805358376,95.15303189360512,1553.0,1435.0,1200.0,1528.0,1471.0,995.0,110.0,294.54999999999995,1649343483.201146,1649343484.3391876,8621736b-3cfb-4051-bc6c-295ec7be6a3c
0.0218049832462748,0.1562898470571802,0.0510213865055988,-0.1165061574097945,-0.1265386132996194,0.1543964348496345,-0.2271787432335346,-0.2405246715136819,-13.292783299010626,22.993484479519267,27.56646267104286,0.7624288675096905,0.4539129791172518,0.464293224624032,4660.354058159723,11.959444444444443,0.14,178.8778109996025,-3.777341446464556,95.40460521566456,1553.0,1435.0,1200.0,1528.0,1471.0,995.0,110.0,294.54999999999995,1649343484.4476783,1649343485.7714322,8621736b-3cfb-4051-bc6c-295ec7be6a3c
0.0226333511367922,0.1612732027768716,0.0528227578976015,-0.1175054583947884,-0.1261047062873422,0.1512144504519368,-0.2268500257780782,-0.2433910878374656,-13.274967692980104,23.01267657407258,27.685239861560685,0.75777752657044,0.4716623373646017,0.4615450679113598,4667.96826171875,11.959666666666667,0.14,178.85233439399835,-3.769723888265223,95.64441012178408,1553.0,1435.0,1200.0,1528.0,1471.0,995.0,110.0,294.54999999999995,1649343485.8849094,1649343487.0019426,8621736b-3cfb-4051-bc6c-295ec7be6a3c
0.0419356373725577,0.1507279487089086,0.0322844942837211,-0.3630836872428949,-0.1688774183926129,0.399172550149205,-0.176135499338136,-0.1922426537272098,-13.215625387398635,22.42292230787215,29.440138417567752,1.86431419346042,0.4450615093469838,0.4749217280136868,4661.48046875,11.949666666666666,0.1322222222222222,178.8361954158995,-3.680701147329915,95.93044554275578,1553.0,1522.0,1200.0,1528.0,1471.0,995.0,110.0,294.54999999999995,1649343488.1184237,1649343489.253955,15d2b628-648b-45a1-b4fd-074a1e4cf97a
0.010891565286117,0.1475722617026714,0.0316402081685974,-0.3644248545153868,-0.1693244740997433,0.4014998691987715,-0.1756227001402407,-0.1996716678007884,-13.185893555490686,22.4304786320229,29.15528043530152,1.872556903768352,0.4356644291882917,0.4749010760777791,4656.416124131944,11.953333333333331,0.1388888888888889,178.83438465685953,-3.662084944996484,96.03697903888012,1553.0,1522.0,1200.0,1528.0,1471.0,995.0,110.0,294.54999999999995,1649343489.361905,1649343490.4821002,15d2b628-648b-45a1-b4fd-074a1e4cf97a
0.0527135225839629,0.152302252178999,0.0318399672052642,-0.367235641694675,-0.1703591754433847,0.3973610645268289,-0.1763140182018607,-0.1900442930666482,-13.13604528240947,22.396169447942704,28.856245899444225,1.86935683573474,0.4560604408688758,0.4771972362417852,4634.87841796875,11.955333333333334,0.1333333333333333,178.81544985466047,-3.668328259648437,96.13350327223073,1553.0,1522.0,1200.0,1528.0,1471.0,995.0,110.0,294.54999999999995,1649343490.5903642,1649343491.7120876,15d2b628-648b-45a1-b4fd-074a1e4cf97a
0.0574773963444021,0.161641366263737,0.0210555075997358,-0.6786393348422507,-0.2190265506616535,0.6933483041426517,-0.1075913408182646,-0.1364132850074726,-12.908800656252993,22.123214336155883,31.69321631723464,3.2351502935617464,0.5019875715085612,0.4630097737897578,4616.843804253473,11.959333333333332,0.1344444444444444,178.81749587577184,-3.5644305287816382,96.27247333672344,1553.0,1613.0,1200.0,1528.0,1471.0,995.0,110.0,294.54999999999995,1649343492.6078386,1649343493.756504,a30bb9d2-976c-493e-9a16-81e3abe62319
0.0500483829543035,0.157473229683767,0.0198721249166128,-0.6745763861614187,-0.2175670452382957,0.69223066507037,-0.1089982514075696,-0.1349143336229334,-13.079509784664848,22.072702988923325,31.477291741030093,3.2229596719067373,0.4889003837074982,0.4637661829821384,4624.039713541667,11.949666666666666,0.1366666666666666,178.8343876924992,-3.565097847749922,96.32232157510602,1553.0,1613.0,1200.0,1528.0,1471.0,995.0,110.0,294.54999999999995,1649343493.8647802,1649343494.9958715,a30bb9d2-976c-493e-9a16-81e3abe62319
0.0468795471693991,0.153305093098493,0.0157697316384578,-0.6691722699942781,-0.2215773980147967,0.6918362042212053,-0.1125221022036264,-0.1361634598751678,-12.90286858240338,22.13340983132615,31.51700131073948,3.2101763114657977,0.4707407667066755,0.4795353146650536,4626.812174479167,11.94988888888889,0.1355555555555555,178.8447285989026,-3.5754867552049885,96.34478454946635,1553.0,1613.0,1200.0,1528.0,1471.0,995.0,110.0,294.54999999999995,1649343495.1106555,1649343496.223324,a30bb9d2-976c-493e-9a16-81e3abe62319
0.0477342124482747,0.1538967844081702,-0.001008005051457,-0.9624672294634052,-0.2721867359866348,0.9756113416751162,-0.0542207802128781,-0.0767444980363889,-12.88760304062649,21.974577631550503,33.70696697938335,4.5079269468501,0.4884868870943337,0.4889928782708191,4646.055881076389,11.928,0.1255555555555555,178.8552971782783,-3.48769491870823,96.3673727439615,1553.0,1710.0,1200.0,1528.0,1471.0,995.0,110.0,294.54999999999995,1649343497.1277363,1649343498.2661216,aec08fb7-7557-4bd6-bb7e-9f4724b32a82
0.0537037205181458,0.1499784730414151,-0.0033616217017542,-0.9633613413324942,-0.273777728415436,0.9821067971669316,-0.0544048619530829,-0.067145949680409,-12.87281234664306,21.961653639745496,33.9576772947225,4.52438454077927,0.4714247714409958,0.4945174960156654,4672.775933159723,11.925555555555556,0.12,178.87732529726154,-3.4941786417894067,96.32950313956331,1553.0,1710.0,1200.0,1528.0,1471.0,995.0,110.0,294.54999999999995,1649343498.3740146,1649343499.4938266,aec08fb7-7557-4bd6-bb7e-9f4724b32a82
0.0588032232148316,0.1521178754308493,-3.719293720426282e-05,-0.9662200887425244,-0.2718728107963831,0.9803897966881016,-0.0523032619442546,-0.0747793156789387,-12.890461519887827,22.032906734987066,33.65767420887244,4.527556018569548,0.4827965998947006,0.484168224547274,4673.6240234375,11.921666666666669,0.1244444444444444,178.87729190522558,-3.484108405347804,96.31276310481752,1553.0,1710.0,1200.0,1528.0,1471.0,995.0,110.0,294.54999999999995,1649343499.602074,1649343500.638796,aec08fb7-7557-4bd6-bb7e-9f4724b32a82
0.0590815372939603,0.1349889597134553,-0.0029803095169164,-1.0738762056855051,-0.2911208611918912,1.1022858739400556,-0.0280417251593309,-0.0410326379462492,-12.835514887335275,22.741377437474902,34.58028180383056,5.049043321958804,0.4230670146305287,0.4778856711726353,4684.977376302083,11.89222222222222,0.11,178.8861301700116,-3.453053313886852,96.2199279325286,1553.0,1814.0,1200.0,1528.0,1471.0,995.0,110.0,294.54999999999995,1649343502.6572845,1649343503.7944682,6c80c8f7-8f9c-478b-b2c8-5736cc863349
0.0586081841941776,0.1457051468819856,0.0020293438432102,-1.0577953394403317,-0.286229545493099,1.077513731493808,-0.0310922227940021,-0.0512360262829441,-12.883889753775806,22.76095697966036,34.663960404447586,4.957470746456555,0.4611979945234521,0.4702518861056151,4683.83935546875,11.880000000000004,0.11,178.89768077880797,-3.4698460217234324,96.1060003771728,1553.0,1814.0,1200.0,1528.0,1471.0,995.0,110.0,294.54999999999995,1649343503.906269,1649343505.025243,6c80c8f7-8f9c-478b-b2c8-5736cc863349
0.0624344548216276,0.1474013286486918,0.0030943882359132,-1.0524964113234956,-0.2856378541015079,1.0688750385749992,-0.031670765463513,-0.0526560855637629,-12.75234257467126,22.765897141575167,34.36710822664381,4.92621004500027,0.4686748326333332,0.4687409121985691,4681.28173828125,11.890666666666666,0.11,178.9172151198342,-3.464789499871637,96.019632635118,1553.0,1814.0,1200.0,1528.0,1471.0,995.0,110.0,294.54999999999995,1649343505.1338644,1649343506.2528484,6c80c8f7-8f9c-478b-b2c8-5736cc863349
0.0247634399860066,0.1603659427665459,0.078239187629533,0.2071095561756289,-0.0738123384274273,-0.161750824436768,-0.2972744518824568,-0.3199033615149377,-13.481701288801204,24.47022336759412,25.3737046210655,-0.6672938898549456,0.4518787776186715,0.4546784397495981,4681.28173828125,11.967666666666666,0.1355555555555555,178.91643344262923,-3.8776863168821527,96.00846451691513,1553.0,1349.0,1200.0,1528.0,1471.0,995.0,110.0,294.54999999999995,1649343507.163407,1649343508.3000305,d93f4209-ddeb-4bc7-85d4-68c95ad057d4
0.0130873975774099,0.1635216297644431,0.0738738205132171,0.2054791179099134,-0.0781119622905388,-0.1614878504829757,-0.3024155928579763,-0.3220465996202419,-13.573230776137985,24.44329511654353,25.601286190130423,-0.6634307555624204,0.4622688401736855,0.4744406175407192,4683.55517578125,11.969555555555557,0.1388888888888889,178.91262067925248,-3.8804118943840726,96.22512646539693,1553.0,1349.0,1200.0,1528.0,1471.0,995.0,110.0,294.54999999999995,1649343508.408042,1649343509.536339,d93f4209-ddeb-4bc7-85d4-68c95ad057d4
0.0306803533431531,0.1639292393367025,0.0764641136534181,0.2018632265946778,-0.0767576465182669,-0.1597127763433264,-0.2981948607443385,-0.3225199524917126,-13.41645929894992,24.42189919633369,25.462792638455262,-0.6512413807895447,0.4645245402992978,0.4629964113414193,4678.158799913194,11.967555555555556,0.1377777777777778,178.90797159715743,-3.876582814444373,96.4088342689532,1553.0,1349.0,1200.0,1528.0,1471.0,995.0,110.0,294.54999999999995,1649343509.6494951,1649343510.7592125,d93f4209-ddeb-4bc7-85d4-68c95ad057d4
-0.0005083545669113,0.1608918905989043,0.0936889055621541,0.5100949421356882,-0.0319468880264741,-0.4542304682925808,-0.3717092335654465,-0.3929969771588725,-13.793109404508971,25.747847759625355,23.2913464193041,-1.999245376594328,0.4382084713667558,0.4816169110259429,4681.28173828125,11.959124999999998,0.13,178.85836450239808,-3.973857846853132,96.78697194497036,1553.0,1264.0,1200.0,1528.0,1471.0,995.0,110.0,294.54999999999995,1649343512.5034416,1649343513.6258438,da1cc780-a2b6-4be1-bf1e-fc97bf9899db
-0.0013893172485646,0.1679264428634392,0.0943594890594351,0.4967621653525695,-0.0336299211992751,-0.4488263529189831,-0.3687244789660425,-0.3866330070546781,-13.703508092117444,25.62537398644104,23.3091607447665,-1.9577566900400905,0.4654822398903016,0.4796178592633917,4681.28173828125,11.948555555555556,0.1244444444444444,178.86114837366733,-3.9732866248519207,96.94137652944002,1553.0,1264.0,1200.0,1528.0,1471.0,995.0,110.0,294.54999999999995,1649343513.734795,1649343514.6861832,da1cc780-a2b6-4be1-bf1e-fc97bf9899db
-0.0073851228643982,0.1644157410730768,0.0966999569617916,0.4943033593774959,-0.0311185201356884,-0.4415551222490928,-0.3648456128617203,-0.3872772932345877,-13.756386522540934,25.674504678122403,23.555436398857264,-1.935415926910008,0.4509584373632239,0.4673280984633922,4676.740614149306,11.951222222222222,0.1277777777777777,178.8604456230927,-3.965418294359935,97.04729834417869,1553.0,1264.0,1200.0,1528.0,1471.0,995.0,110.0,294.54999999999995,1649343514.7947009,1649343515.8749063,da1cc780-a2b6-4be1-bf1e-fc97bf9899db
-0.0128286832115815,0.171949943775569,0.1201835280554275,0.7809317614467284,0.0129953566875638,-0.727499909395122,-0.4304050254097228,-0.446472736588664,-13.894145649978045,27.099427349015365,21.29953909631812,-3.2143491322199043,0.4664080720330685,0.4681372722879221,4676.740614149306,11.941777777777778,0.12,178.87566024892385,-4.070292908289589,97.23729371632092,1553.0,1178.0,1200.0,1528.0,1471.0,995.0,110.0,294.54999999999995,1649343517.524638,1649343518.7467067,a5551877-7a6c-4f5a-bcf9-c1fe42fdcc69
-0.0085159107497996,0.1700433828872208,0.1157655662033652,0.774304819159228,0.0086431381675293,-0.7203996104734539,-0.4333503339920683,-0.4549930932229371,-13.981571538756244,27.104938986448243,21.14798208872172,-3.1836966690284227,0.4617552710947658,0.4837148528105456,4676.456976996527,11.935,0.12,178.90123551281602,-4.085335498731026,97.2973189365668,1553.0,1178.0,1200.0,1528.0,1471.0,995.0,110.0,294.54999999999995,1649343518.8550987,1649343519.9787247,a5551877-7a6c-4f5a-bcf9-c1fe42fdcc69
-0.015274340797455,0.175723619467535,0.1191184836829563,0.7746203878430566,0.0115752974770869,-0.7251988865912159,-0.4312728395206412,-0.4555584877255886,-13.995343467541252,27.03588267997554,21.319944990418666,-3.195463479161459,0.481805515973256,0.4731441663655424,4672.492621527777,11.930888888888887,0.12,178.88950276564174,-4.0913527530942,97.36694967951544,1553.0,1178.0,1200.0,1528.0,1471.0,995.0,110.0,294.54999999999995,1649343520.0924838,1649343521.2036188,a5551877-7a6c-4f5a-bcf9-c1fe42fdcc69
-0.0201393585049995,0.1796813768894733,0.1293218716643775,0.8985468392613726,0.0260520120667773,-0.848757243281574,-0.4648283200510534,-0.4816192095089113,-14.085299918470191,28.17620565289275,20.426374634381183,-3.7447836393793135,0.4906140746033257,0.4870681384198531,4669.380696614583,11.889333333333331,0.11,178.89616903027166,-4.136462452876334,97.40644335111628,1553.0,1088.0,1200.0,1528.0,1471.0,995.0,110.0,294.54999999999995,1649343523.137746,1649343524.2761402,6e04cffa-d598-48a2-84cf-ef2771f1185b
-0.0148535825034628,0.1821138856091364,0.1307024847406951,0.8776667111809747,0.0240008154645572,-0.8303359098724553,-0.457267818188495,-0.4734407186572633,-13.896563490183436,28.111730875405748,20.684665058993232,-3.656510477940999,0.4987696304370327,0.4778494713651299,4666.273600260417,11.903,0.11,178.89250349541712,-4.144685384022728,97.3872072616838,1553.0,1088.0,1200.0,1528.0,1471.0,995.0,110.0,294.54999999999995,1649343524.3845222,1649343525.504322,6e04cffa-d598-48a2-84cf-ef2771f1185b
-0.0094494682005733,0.183441903878312,0.1299398604541834,0.8727359504731866,0.0236326520722189,-0.82837675305413,-0.4571757770723303,-0.4910731246321156,-13.977962641420968,28.01999253195105,20.5017614626679,-3.641701651176784,0.506504879562046,0.4790996314428626,4665.9912109375,11.904555555555554,0.1155555555555555,178.91144588671528,-4.172797446577247,97.3459483656375,1553.0,1088.0,1200.0,1528.0,1471.0,995.0,110.0,294.54999999999995,1649343525.6119034,1649343526.73228,6e04cffa-d598-48a2-84cf-ef2771f1185b
0.0168479247436278,0.1590773705733062,0.0571223815652607,-0.0905243321474224,-0.1215289596970778,0.1257322777767404,-0.230952419469551,-0.2564082986755643,-13.160422064246877,23.31144616332145,27.285641384460643,0.641841505035046,0.4631132229717842,0.4546575724180804,4660.072591145833,11.96,0.1266666666666666,178.9289493848283,-3.8714650580493934,97.32347021307898,1553.0,1435.0,1200.0,1528.0,1471.0,995.0,110.0,294.54999999999995,1649343527.6434162,1649343528.7803128,22a18fc7-e7d8-4a06-b644-59ae9f3b9ff7
0.0028445630593086,0.1538310409247237,0.0515473343567752,-0.0882233101932656,-0.1249476209488621,0.1290326004560726,-0.2357253967606391,-0.2583148596309647,-13.272801495893326,23.29570024573166,27.28621026788788,0.6436287690057537,0.443589648680531,0.4730230626145733,4667.96826171875,11.962222222222222,0.1311111111111111,178.93970769168098,-3.845747213958311,97.31217991038092,1553.0,1435.0,1200.0,1528.0,1471.0,995.0,110.0,294.54999999999995,1649343528.8887663,1649343530.0106018,22a18fc7-e7d8-4a06-b644-59ae9f3b9ff7
0.047116223733904,0.1635610758529425,0.0577929650702309,-0.091957540115406,-0.1225808554673793,0.1227475237918399,-0.2322146944580233,-0.2448768905912268,-13.15449782516088,23.384118949485547,27.29506630948837,0.6388869620979565,0.4800245831382467,0.4574909960070467,4669.946017795139,11.961,0.1244444444444444,178.9381701402078,-3.84123511510161,97.3342148595533,1553.0,1435.0,1200.0,1528.0,1471.0,995.0,110.0,294.54999999999995,1649343530.1198795,1649343531.2447236,22a18fc7-e7d8-4a06-b644-59ae9f3b9ff7
0.065274573186124,0.1749741438105322,0.1983525248313406,-0.1004384496492512,0.0062106293393774,0.1119918904753427,-0.084778351605937,-0.1135082549204932,-12.14165232805955,23.328470427613244,27.34964785388071,0.640997040123699,0.5251320650763627,-0.1173290022238574,4660.072591145833,11.97,0.13,178.92970070563698,-3.8530581251230336,97.28400765678435,1553.0,1435.0,1200.0,1424.0,1471.0,995.0,110.0,294.54999999999995,1649343533.5828712,1649343534.7262037,87eca371-1399-4580-be20-dac3b473f235
0.0679306098267001,0.1764862438196978,0.1982210378699712,-0.1014640480336493,0.0056978301715006,0.1117026191586358,-0.0854883812399861,-0.1090114002168474,-12.172398898160292,23.34393920192931,27.381609063072503,0.6427461224954275,0.5308559046149548,-0.1152491894116649,4658.3837890625,11.964666666666666,0.13,178.92684568656392,-3.858447428969389,97.30196650084204,1553.0,1435.0,1200.0,1424.0,1471.0,995.0,110.0,294.54999999999995,1649343534.8410769,1649343535.94637,87eca371-1399-4580-be20-dac3b473f235
0.0711125943029538,0.181653681261346,0.2030071631120822,-0.1031865273187307,0.0090244503853019,0.1077054155773971,-0.0813465417202374,-0.1042910180764625,-12.086347976101536,23.3085943805454,27.342029774533053,0.6376903822577746,0.5504935692219672,-0.1315722607552076,4660.9169921875,11.968,0.13,178.91116357222958,-3.853679672337504,97.2991342490662,1553.0,1435.0,1200.0,1424.0,1471.0,995.0,110.0,294.54999999999995,1649343536.0546217,1649343537.1782627,87eca371-1399-4580-be20-dac3b473f235
0.1437065450762533,0.2129344283536037,0.4046029612513587,-0.1148494215879742,0.1893982630411941,0.0740841996531994,0.1231156872672635,0.1068770476063846,-10.551270161417143,23.350752859211195,26.94777681813655,0.5994751243080562,0.6746615054727783,-0.938972959432212,4663.45263671875,11.962,0.13,178.87240907887892,-3.8473499368198025,97.27648306504872,1553.0,1435.0,1200.0,1304.0,1471.0,995.0,110.0,294.54999999999995,1649343539.0019886,1649343539.940951,5bf96711-cadc-41fa-887b-ed41b32f9d3b
0.1459418234011656,0.2175364718327242,0.4057600464370143,-0.1167165365766845,0.1885698952182142,0.0744918092454229,0.12156414114695,0.1052992039142055,-10.658407393155723,23.51506479484213,27.399129467159664,0.6057677083147444,0.6889859518588365,-0.9361781464007296,4665.9912109375,11.965444444444444,0.13,178.8784044671504,-3.848199678757169,97.29862122596856,1553.0,1435.0,1200.0,1304.0,1471.0,995.0,110.0,294.54999999999995,1649343540.0497274,1649343541.281304,5bf96711-cadc-41fa-887b-ed41b32f9d3b
0.1476117077680352,0.2139074318294705,0.4008818805179613,-0.1155725999437956,0.1860453456336493,0.0755831510169647,0.118829212381506,0.0964106853285059,-10.65787621358462,23.355639451329147,27.171272330858702,0.6043038538943156,0.6769377813597456,-0.9228808395446818,4665.9912109375,11.961444444444444,0.13,178.8611756944239,-3.8518489444805946,97.31607387711772,1553.0,1435.0,1200.0,1304.0,1471.0,995.0,110.0,294.54999999999995,1649343541.3954608,1649343542.503455,5bf96711-cadc-41fa-887b-ed41b32f9d3b
0.1841519334126133,0.2315661300621109,0.5780473979469692,-0.0913395513738042,0.3464199847683302,0.0260651609123599,0.2872508555743241,0.2707492425370069,-9.529698247571408,23.997363693706703,27.080656870581947,0.4519956768626236,0.744245417721884,-1.619862568366375,4671.07666015625,11.940666666666669,0.12,178.84647257387067,-3.858237305788672,97.30378105443154,1553.0,1435.0,1200.0,1166.0,1471.0,995.0,110.0,294.54999999999995,1649343544.6422603,1649343545.7857869,e39e9959-a7e5-413b-b0df-6327ea9f2d1d
0.1984971604654916,0.2404020534995928,0.5814660586484686,-0.0932198150318166,0.348010976915205,0.0191357979323852,0.2886577659973192,0.2615977505411645,-9.482856717862267,23.951023347564888,27.099088478132582,0.4405554348318133,0.7773380507624119,-1.6275622748820513,4668.53271484375,11.943,0.12,178.83980175578128,-3.876528078067274,97.27125797033366,1553.0,1435.0,1200.0,1166.0,1471.0,995.0,110.0,294.54999999999995,1649343545.9181983,1649343546.96902,e39e9959-a7e5-413b-b0df-6327ea9f2d1d
0.2008902230942581,0.2392581169887684,0.5754571050373503,-0.0927201645419662,0.3432774466000968,0.0208977232461239,0.2817678495808078,0.2682115445208495,-9.672708763918791,23.970419407274807,27.20668118239226,0.4431385844432665,0.7729956036842498,-1.6032374113642325,4661.48046875,11.93988888888889,0.12,178.84949758876306,-3.867522189055396,97.25135328127244,1553.0,1435.0,1200.0,1166.0,1471.0,995.0,110.0,294.54999999999995,1649343547.095537,1649343548.054639,e39e9959-a7e5-413b-b0df-6327ea9f2d1d
-0.0234659787024616,0.1292692769818064,-0.13683404317245,-0.0601245450499816,-0.2973138979686677,0.1331349935842612,-0.4369530775337844,-0.4604235057261608,-14.49070738878535,23.67892344447197,26.62870167379255,0.5819058886863077,0.3505201860415056,1.2464201043078,4662.6083984375,11.96866666666667,0.13,178.96815011720471,-3.8542837171922266,97.34109437786732,1553.0,1435.0,1200.0,1623.0,1471.0,995.0,110.0,294.54999999999995,1649343550.1718986,1649343551.3102806,4d0b3ece-6ede-4387-9866-0d3c2510caa9
-0.0323676463230367,0.1338713205653024,-0.1328236905281157,-0.0594802588991794,-0.2948813888007907,0.1286907343614014,-0.4352700440375305,-0.463329368287335,-14.49015729997614,23.755744653250908,26.743197276787274,0.5711931671241469,0.3669381948596755,1.2359369443960675,4668.53271484375,11.968,0.13,178.97535369004936,-3.8510378120847855,97.30796340693333,1553.0,1435.0,1200.0,1623.0,1471.0,995.0,110.0,294.54999999999995,1649343551.4183867,1649343552.537913,4d0b3ece-6ede-4387-9866-0d3c2510caa9
-0.0651190269694938,0.1237544104709518,-0.1365392089369502,-0.0570780931420108,-0.2949557295432217,0.1342860102085606,-0.4355203750729162,-0.4685059108818477,-14.545054153593838,23.63532505991365,26.430543071199285,0.5772870450212743,0.3316198794339077,1.239826253618047,4665.3565673828125,11.9655,0.1275,178.961679651331,-3.857400987070299,97.28585920723184,1553.0,1435.0,1200.0,1623.0,1471.0,995.0,110.0,294.54999999999995,1649343552.6464777,1649343553.7666583,4d0b3ece-6ede-4387-9866-0d3c2510caa9
-0.0987159703945657,0.1008943910244052,-0.2929353815120539,-0.0219275811969877,-0.438359988364202,0.1332270344664314,-0.6080176624540371,-0.6256106246691199,-15.725215801096716,24.307689669304946,26.42913311605542,0.4916918550153436,0.2400152372543401,1.8903715031909485,4632.090928819444,11.967555555555556,0.13,178.97380551383748,-3.870439154149684,97.2789396564202,1553.0,1435.0,1200.0,1712.0,1471.0,995.0,110.0,294.54999999999995,1649343555.7018511,1649343556.8393357,2c0be489-24fc-4cf8-8766-ded0165ba436
-0.1006356801383012,0.1036293197970105,-0.2914627273069646,-0.02317670737748,-0.4377814455822142,0.1321619900921648,-0.6078598780301914,-0.6306202790907341,-15.774442085384068,24.35814411401152,26.501049786824023,0.4925107623577876,0.2502319071420021,1.8877177395878664,4630.70068359375,11.966888888888889,0.13,178.96816225976323,-3.86866524967212,97.2522586607924,1553.0,1435.0,1200.0,1712.0,1471.0,995.0,110.0,294.54999999999995,1649343556.9480083,1649343558.067961,2c0be489-24fc-4cf8-8766-ded0165ba436
-0.0924440419532917,0.1090860286544217,-0.2954336341429358,-0.0238604395943942,-0.4419758806144244,0.1282831247909365,-0.6126854511294909,-0.6455309063884564,-15.7630088230496,24.2640454698747,26.58735123983541,0.4845347627105401,0.2696829254876437,1.9065366860332853,4627.370171440973,11.968444444444446,0.1244444444444444,178.98500854189615,-3.868373211653232,97.25210991445049,1553.0,1435.0,1200.0,1712.0,1471.0,995.0,110.0,294.54999999999995,1649343558.1799476,1649343559.3004262,2c0be489-24fc-4cf8-8766-ded0165ba436
-0.1296417058290299,0.0958584404213565,-0.4278278804194979,0.0283004392874704,-0.5633778247534356,0.103852847628672,-0.768168844274024,-0.8036440436241006,-16.820493493384387,25.04891689535482,26.98762927711149,0.3101166583985791,0.2092064907221396,2.472093395039161,4692.401692708333,11.933,0.1166666666666666,178.99694164128604,-3.8829333725526687,97.24830625799272,1553.0,1435.0,1200.0,1801.0,1471.0,995.0,110.0,294.54999999999995,1649343560.207446,1649343561.3491666,f8c4a0a6-7831-41dc-b244-ec3ce7893a73
-0.1410416263069707,0.0890342671561517,-0.4424492339022514,0.0337702969749655,-0.5749092348701705,0.1059829363720061,-0.7819092380365035,-0.8140578152935902,-16.88727788635849,25.005025882596147,26.947642924278647,0.3015055971662932,0.1828376567018566,2.5264306468537,4723.127658420139,11.93288888888889,0.1111111111111111,178.98316742645986,-3.891936605379868,97.17004139702324,1553.0,1435.0,1200.0,1801.0,1471.0,995.0,110.0,294.54999999999995,1649343561.4578483,1649343562.5797613,f8c4a0a6-7831-41dc-b244-ec3ce7893a73
-0.1328762853379991,0.0908356385116395,-0.4339157280986798,0.0332969439067581,-0.5664151744880779,0.1034452380338313,-0.772810336087635,-0.798095291054608,-16.84645226088667,24.91391853327349,26.84466521208808,0.2966959040392686,0.1908153431712803,2.490408941368542,4735.5947265625,11.935,0.11,178.9897653891981,-3.8823076987655742,97.10456720363952,1553.0,1435.0,1200.0,1801.0,1471.0,995.0,110.0,294.54999999999995,1649343562.7115686,1649343564.0042946,f8c4a0a6-7831-41dc-b244-ec3ce7893a73
0.0249874735474918,0.1479909970927503,-0.0287451804318805,-0.0773321435055724,-0.1756186544485092,0.1302908295079538,-0.2878124464306222,-0.3027943768804251,-12.958332326553744,20.309227053999603,27.601720304171465,0.598301241088613,0.4101821389753362,0.7269267062531747,7571.93115234375,11.662555555555556,7.423333333333334,179.88313591879796,-4.125038060283972,84.47468834227033,1553.0,1435.0,1350.0,1528.0,1471.0,995.0,110.0,294.54999999999995,1649343568.149072,1649343569.1269386,80f40abd-d3e1-442d-9298-980eb04781b8
-0.0152348946372848,0.1510961121938003,-0.0330382299003838,-0.083095318464343,-0.1789098745646874,0.126284522998087,-0.2894115304107401,-0.3209684064154723,-12.829132697466882,19.977794655622475,26.69143909137681,0.5998079072502994,0.4294133575791678,0.7388058151022479,7565.248046875,11.663222222222222,7.503333333333334,-179.8747848741728,-4.118802998777266,79.36882520391185,1553.0,1435.0,1350.0,1528.0,1471.0,995.0,110.0,294.54999999999995,1649343569.2349026,1649343570.3584309,80f40abd-d3e1-442d-9298-980eb04781b8
0.0024501021502132,0.1490054695508039,-0.0216251612560926,-0.0689867667524412,-0.1659715563495674,0.1253772629816563,-0.2827977352752041,-0.3005747751791581,-13.19799613095818,20.24574085663224,28.18538528927698,0.5683407463735733,0.4099331010035692,0.697819345386483,7565.248046875,11.664666666666667,7.510000000000001,-179.70955652687087,-4.101944099767167,74.32470090437103,1553.0,1435.0,1350.0,1528.0,1471.0,995.0,110.0,294.54999999999995,1649343570.4661014,1649343571.5844986,80f40abd-d3e1-442d-9298-980eb04781b8
0.2214679318017108,0.5337494444958182,-0.0005215033448663,-0.2662435245787871,-0.2375136197634637,-0.0739306767071649,-0.3444914275618063,-0.365332115374798,-12.607887849420823,19.332251661781232,27.47330116851096,0.5606108375246454,1.880700367836432,0.8989420388248539,7557.842176649306,11.630777777777777,7.543333333333333,179.9612429265066,-4.037353182652341,67.8610925405723,1658.0,1435.0,1350.0,1528.0,1551.0,995.0,110.0,294.54999999999995,1649343572.7001753,1649343573.8371794,dd61e0f4-1c11-4884-be3b-2d21cb0af5cd
0.2315661300554917,0.5364317782789434,-0.0014024659985453,-0.2645867886405014,-0.2385786642781115,-0.0750351672269175,-0.34655577322025,-0.3640172452062133,-12.647327063003871,19.34955471339307,27.89519395196096,0.5545099468934073,1.8870411317904832,0.905432154757352,7540.109320746527,11.627333333333333,7.577777777777778,179.88474936126192,-4.002482647914095,65.18952551842433,1658.0,1435.0,1350.0,1528.0,1551.0,995.0,110.0,294.54999999999995,1649343573.9448688,1649343575.0625205,dd61e0f4-1c11-4884-be3b-2d21cb0af5cd
0.2211129170341521,0.5275564091398818,-0.0036245956749,-0.2613916550332051,-0.2373032405568405,-0.0726421044057813,-0.3473578438031858,-0.3696448880431047,-12.81490822372966,19.28942278775102,27.40766441890046,0.552008699836046,1.8587248812442425,0.9060399294559832,7529.805013020833,11.632666666666664,7.576666666666666,179.77926695535987,-3.990433435308284,62.8022484244602,1658.0,1435.0,1350.0,1528.0,1551.0,995.0,110.0,294.54999999999995,1649343575.1709287,1649343576.294979,dd61e0f4-1c11-4884-be3b-2d21cb0af5cd
0.4282706125539204,0.915377168741755,0.0324422786051537,-0.4551903235225655,-0.2998384480872197,-0.270253877407883,-0.400412842999898,-0.4138376648195236,-12.273325592622443,19.02367871945927,27.90055590355664,0.5454964041848034,3.331229554092455,1.0640011324591263,7541.582736545139,11.59388888888889,7.604444444444444,179.15932104079414,-3.9477032501101226,58.3972180953683,1767.0,1435.0,1350.0,1528.0,1630.0,995.0,110.0,294.54999999999995,1649343578.2298005,1649343579.1829903,6f0987d5-b8e1-456a-a854-646e2d1202f1
0.4436019910823346,0.9163896182741196,0.0316533567941599,-0.4536256282479272,-0.3009034926667794,-0.270569446114068,-0.4014121441489861,-0.4168092706904045,-12.228910341503344,19.03426108368509,28.19411893779906,0.5413577318627929,3.331868171963176,1.0685269289845318,7548.965440538194,11.59911111111111,7.602222222222222,179.0307025074435,-3.9380349276124926,57.148997229998926,1767.0,1435.0,1350.0,1528.0,1630.0,995.0,110.0,294.54999999999995,1649343579.290912,1649343580.342082,6f0987d5-b8e1-456a-a854-646e2d1202f1
0.4403674120844122,0.9161792391514884,0.0292734427640317,-0.4491682192561669,-0.3016398197448028,-0.2755659513494157,-0.4054356459908429,-0.4231074975556479,-12.357803080742956,18.99631502551013,28.01461799650365,0.5196115471964657,3.332881985928148,1.078188420010126,7551.91748046875,11.596,7.528888888888888,178.92984338069968,-3.908245437002436,56.231326025697015,1767.0,1435.0,1350.0,1528.0,1630.0,995.0,110.0,294.54999999999995,1649343580.4765322,1649343581.616634,6f0987d5-b8e1-456a-a854-646e2d1202f1
0.5524863348830646,1.1167757364126496,0.0868910296219413,-0.6027581824032882,-0.3101075814166415,-0.3650165460220935,-0.3897492483032738,-0.4073422075966703,-11.641951639858258,19.38696720665036,23.410408530577307,0.6701504998685961,4.143550668989977,1.0056205717615925,7558.5771484375,11.522666666666668,7.563333333333334,178.43881045652876,-3.8329417950612688,54.13638785839857,1886.0,1435.0,1350.0,1528.0,1710.0,995.0,110.0,294.54999999999995,1649343583.5549,1649343584.6947105,220289f7-ac30-4c9e-8805-6dc8968fbdba
0.553091174850298,1.1129363172725195,0.0846426025586175,-0.5891361287280111,-0.3105283397742575,-0.3639383527390519,-0.3946931590890662,-0.422805077726156,-11.815467761681369,19.57572360378888,24.78221747071057,0.6431159914557463,4.116403805821311,1.0176884607491232,7558.5771484375,11.520125,7.5725,178.3744438921554,-3.8310945134819954,53.54501528131567,1886.0,1435.0,1350.0,1528.0,1710.0,995.0,110.0,294.54999999999995,1649343584.8043652,1649343585.9213,220289f7-ac30-4c9e-8805-6dc8968fbdba
0.5667526689539314,1.1312130043232078,0.0896391070930064,-0.5975512971503664,-0.3114093025408911,-0.3777313376209442,-0.394850943387835,-0.4247642335857213,-11.686444069245294,19.63355400669309,24.283154520942897,0.6317214220060323,4.189816298610221,1.0138025358747116,7554.879828559027,11.526,7.553333333333332,178.24184297906373,-3.8197449209474192,52.93756785402114,1886.0,1435.0,1350.0,1528.0,1710.0,995.0,110.0,294.54999999999995,1649343586.0299509,1649343587.1496992,220289f7-ac30-4c9e-8805-6dc8968fbdba
-0.2767756315452666,-0.3268721716541982,-0.0613605225972877,0.180799015973299,-0.0919706888740413,0.3561500193050875,-0.2254168177550322,-0.2595113913670185,-13.879227496604578,21.54265562360113,27.461137472079304,0.5296229003075131,-1.3969077978872806,0.5120716942375155,7598.7822265625,11.643111111111113,7.504444444444443,179.10440783768703,-3.815380951818343,52.25326751764058,1449.0,1435.0,1350.0,1528.0,1386.0,995.0,110.0,294.54999999999995,1649343588.058468,1649343589.1984053,76b272d8-e775-4014-9f8a-dbf6799d78b8
-0.2473882917223196,-0.3266617924603268,-0.0570608987675381,0.1783139124847829,-0.088328499824622,0.3614357948119008,-0.2200127030125787,-0.2471253183411566,-13.873847237295957,21.56798886266312,27.95327404269434,0.5475697156204251,-1.3999396498730745,0.4942468794314304,7598.7822265625,11.649,7.399999999999999,179.0163894665828,-3.788031451425534,51.90962552229908,1449.0,1435.0,1350.0,1528.0,1386.0,995.0,110.0,294.54999999999995,1649343589.3063898,1649343590.6289723,76b272d8-e775-4014-9f8a-dbf6799d78b8
-0.2532394622852249,-0.3253337739172605,-0.0616760913646179,0.1831789299304881,-0.091510484509774,0.3537569567679645,-0.2258375761047365,-0.2471384670688538,-13.880183177238347,21.45934020803294,27.644832207987456,0.5183376462185733,-1.3930736254726628,0.5129737291445678,7598.7822265625,11.64433333333333,7.456666666666665,178.92081235279707,-3.763618505489009,51.69039694050918,1449.0,1435.0,1350.0,1528.0,1386.0,995.0,110.0,294.54999999999995,1649343590.742154,1649343591.8598452,76b272d8-e775-4014-9f8a-dbf6799d78b8
-0.4970031876665797,-0.745986984000851,-0.0959021493045425,0.371415654501211,-0.0348527500528172,0.5871857409696966,-0.1708234256409125,-0.1937942002372439,-14.338586324129317,23.154245920714526,26.93941070453776,0.6274556686927466,-2.9865992954073697,0.352869570240777,7598.7822265625,11.594333333333331,7.543333333333333,178.9441989205152,-3.696260270827335,51.16020426509685,1342.0,1435.0,1350.0,1528.0,1293.0,995.0,110.0,294.54999999999995,1649343593.522867,1649343594.523157,76fdb4d2-7f47-43ec-a8be-217beebe7f6d
-0.4925326298643949,-0.7385053726566819,-0.0947582126159867,0.367904952856781,-0.0355890770321369,0.5817027351605266,-0.1710469534779662,-0.1948066501126861,-14.26833506388334,23.110701048396365,26.746312876880385,0.6228267832947542,-2.9568204805515887,0.3533005647334737,7598.7822265625,11.595666666666666,7.583333333333333,178.89383310557554,-3.6756258898897727,50.94883078030743,1342.0,1435.0,1350.0,1528.0,1293.0,995.0,110.0,294.54999999999995,1649343594.631223,1649343595.9539406,76fdb4d2-7f47-43ec-a8be-217beebe7f6d
-0.480370082688071,-0.7376244096708227,-0.0865008309760388,0.3722440222992479,-0.0277261564506266,0.5777712753582639,-0.1637362777473816,-0.1836828518643073,-14.216206274555317,23.142404095084213,26.93730264782129,0.6048824015806892,-2.955588246704896,0.3213638776022718,7598.7822265625,11.589,7.609999999999999,178.84725121543605,-3.650819496597933,50.7339803497755,1342.0,1435.0,1350.0,1528.0,1293.0,995.0,110.0,294.54999999999995,1649343596.0627391,1649343597.1919696,76fdb4d2-7f47-43ec-a8be-217beebe7f6d
-0.7367697441098163,-1.1553587354820054,-0.135663809152615,0.5491334176521278,0.0103656173950514,0.8104768791795891,-0.1307198990072344,-0.1560574386904849,-15.08214292827688,25.29503734399133,24.90549179768264,0.7398461318991977,-4.523068207888976,0.2361381122998176,7598.7822265625,11.491666666666667,7.601111111111111,178.9776638118086,-3.644914703196719,50.41898151162835,1227.0,1435.0,1350.0,1528.0,1189.0,995.0,110.0,294.54999999999995,1649343599.1173875,1649343600.2565072,10b34b90-f760-4960-9ebe-959eebddaa4d
-0.7477752074880596,-1.1609074896111278,-0.1427904031168851,0.5466877603660606,0.0045801908989893,0.8118706408553404,-0.1343620881250723,-0.1660110029531439,-14.917986935823375,25.142364837414192,23.9706559080686,0.7470615765371997,-4.536909102866594,0.2570842163242431,7598.7822265625,11.504444444444443,7.62,178.9510943759373,-3.64337387892458,50.28939460923544,1227.0,1435.0,1350.0,1528.0,1189.0,995.0,110.0,294.54999999999995,1649343600.3651235,1649343601.485835,10b34b90-f760-4960-9ebe-959eebddaa4d
-0.7202549747825852,-1.1549774230123149,-0.1316008617517913,0.5496856628406994,0.0144943080445194,0.8071108132441295,-0.1269330742330863,-0.1518630045290511,-15.068988309056822,25.2632503359332,24.58311277247843,0.7309832228109879,-4.518684885375452,0.2192033493408724,7598.7822265625,11.499333333333333,7.621111111111111,178.9502352899217,-3.641532716056439,50.20536734533621,1227.0,1435.0,1350.0,1528.0,1189.0,995.0,110.0,294.54999999999995,1649343601.5949352,1649343602.7156894,10b34b90-f760-4960-9ebe-959eebddaa4d
-0.0025201051358599,0.1332927779493532,-0.0319468880395865,-0.0408485557083004,-0.1660635971911535,0.1095725303991248,-0.2941319130166769,-0.3234272130698524,-13.420852970447813,19.96991754370184,27.35505646168484,0.4667655329400396,0.3558140273663047,0.7252835416416056,7598.7822265625,11.65222222222222,7.639999999999999,178.55161634304085,-3.653248956940211,50.118106745774895,1553.0,1435.0,1350.0,1528.0,1471.0,995.0,110.0,294.54999999999995,1649343604.5029027,1649343605.5503235,17d12308-ec0e-4d33-8bb7-b3eb21501c3a
-0.0010868972369064,0.1374872119413714,-0.0343005047994414,-0.0460685883190128,-0.1695348533596922,0.1111240765364187,-0.2945132252915949,-0.3105677858286529,-13.248329033801108,19.84144848402069,27.46656415960308,0.4811629667388635,0.369827645345828,0.7345550693984656,7598.7822265625,11.652555555555557,7.633333333333332,178.54043456445962,-3.663695826139483,50.163086577099065,1553.0,1435.0,1350.0,1528.0,1471.0,995.0,110.0,294.54999999999995,1649343605.6598918,1649343606.810789,17d12308-ec0e-4d33-8bb7-b3eb21501c3a
-0.0182985409399342,0.1384733641427503,-0.0340638282346844,-0.0424789941045564,-0.1704289647740132,0.1077185642636321,-0.2982474555734895,-0.3331309523117035,-13.378640365056578,20.073518633228783,27.57407177805094,0.4669148287597136,0.3730727738454352,0.74088306620522,7598.7822265625,11.653,7.67,178.52462950672023,-3.659092847821325,50.20416826768192,1553.0,1435.0,1350.0,1528.0,1471.0,995.0,110.0,294.54999999999995,1649343606.9193618,1649343608.035228,17d12308-ec0e-4d33-8bb7-b3eb21501c3a
0.009576695602509,0.1301239422308848,-0.0568505196083111,-0.4137456237536533,-0.2310050143516201,0.4765000262545051,-0.2184348593119139,-0.2384603261011308,-13.301730642609204,19.473917854750727,30.46032881013801,2.128491919359611,0.3598883390271502,0.740919574843081,7598.7822265625,11.652777777777777,7.6755555555555555,178.52880806467243,-3.5340510568660872,50.242217733728246,1553.0,1522.0,1350.0,1528.0,1471.0,995.0,110.0,294.54999999999995,1649343609.153073,1649343610.2925174,a3a6a2d1-b42c-42a5-bfec-180cc5febc64
0.0030645508463538,0.1351457326376073,-0.0535759884009573,-0.4179339901431081,-0.2275180808612318,0.4732568500382529,-0.2127005099698309,-0.2386565450405584,-13.145143129451846,19.180843505988967,30.188034004983308,2.1289076391095505,0.3807464553579664,0.7239588611780121,7598.7822265625,11.653555555555556,7.652222222222223,178.55914624714583,-3.5410765230417454,50.23967159098764,1553.0,1522.0,1350.0,1528.0,1471.0,995.0,110.0,294.54999999999995,1649343610.4009488,1649343611.438174,a3a6a2d1-b42c-42a5-bfec-180cc5febc64
0.0268586341842418,0.1283943829918805,-0.0588481100884143,-0.4131423008268032,-0.2298191029635672,0.4791737628255313,-0.2168853358580613,-0.2389220474771974,-13.308864226904044,19.17526739738166,30.680263839127385,2.13109142514629,0.35129666799411,0.740044860251416,7598.7822265625,11.655666666666669,7.653333333333332,178.55524696803965,-3.532951704716865,50.286839739030896,1553.0,1522.0,1350.0,1528.0,1471.0,995.0,110.0,294.54999999999995,1649343611.5471208,1649343612.5895665,a3a6a2d1-b42c-42a5-bfec-180cc5febc64
0.0287343462449062,0.1328851683726769,-0.0814254340505126,-0.7803708398851186,-0.2925935155286818,0.8239411428988749,-0.1418305481771482,-0.1659321107626284,-12.987956731549165,18.46937697260936,32.4529825048394,3.728847860231683,0.393927418287904,0.7497971154106097,7598.7822265625,11.636666666666668,7.643333333333333,178.62554782843688,-3.436560517759452,50.43520283145219,1553.0,1613.0,1350.0,1528.0,1471.0,995.0,110.0,294.54999999999995,1649343614.6849658,1649343615.8228471,a18268c6-c4c5-48bf-8fd0-f22e78bd51aa
0.0287606436395918,0.130531551804319,-0.0748116394432434,-0.7747957901688171,-0.2872419953035425,0.8244539420051501,-0.1376492624060886,-0.1686933367437263,-13.026137155613192,18.74597663956208,32.96597419887609,3.719649732244912,0.3805610866957579,0.7278869634457155,7598.7822265625,11.634,7.610000000000001,178.63089358982728,-3.427829686157276,50.4675437771722,1553.0,1613.0,1350.0,1528.0,1471.0,995.0,110.0,294.54999999999995,1649343615.9311428,1649343617.047775,a18268c6-c4c5-48bf-8fd0-f22e78bd51aa
0.0299966211181336,0.1359882606120894,-0.070209595522174,-0.7737964888456852,-0.284112605116857,0.8144346363793358,-0.1355454708361052,-0.1606857800600667,-12.95477420691302,18.74651527126454,32.45826569180392,3.695068548085776,0.4051904994549379,0.7143588084762075,7598.7822265625,11.632666666666667,7.654444444444445,178.63505089830207,-3.422150715885495,50.52474433474133,1553.0,1613.0,1350.0,1528.0,1471.0,995.0,110.0,294.54999999999995,1649343617.155734,1649343618.2865868,a18268c6-c4c5-48bf-8fd0-f22e78bd51aa
0.045183365323409,0.1299530091839761,-0.0907741574914229,-1.1294294868405317,-0.3443204945565768,1.1689234638301795,-0.0625439052855056,-0.0755479665422252,-13.005896818902327,18.59144089328029,35.65904559181302,5.292305692712964,0.3970277594540237,0.721151040010334,7598.7822265625,11.607,7.653333333333332,178.6814005620098,-3.3080968257459715,50.57836928827996,1553.0,1710.0,1350.0,1528.0,1471.0,995.0,110.0,294.54999999999995,1649343620.2136357,1649343621.351146,05a64e18-237f-4aea-82df-2258927c3df3
0.0395162772616193,0.1267315786733813,-0.0950869300510992,-1.131546428642825,-0.3483834423622556,1.16968608820513,-0.0647265889340029,-0.08360811788346,-12.860740328436725,18.522437659144448,35.017062374186175,5.298093267749672,0.3895939993449826,0.7344873979196698,7598.7822265625,11.60475,7.68125,178.67563132889086,-3.3139153909734063,50.57081794497008,1553.0,1710.0,1350.0,1528.0,1471.0,995.0,110.0,294.54999999999995,1649343621.4596195,1649343622.5763817,05a64e18-237f-4aea-82df-2258927c3df3
0.0488387028964335,0.1271917830336374,-0.0989000521572769,-1.1327298121220144,-0.351841550042367,1.1728286265055603,-0.0686974953619028,-0.0963755024797747,-12.96413475782931,18.5330676303194,35.34324833335209,5.307704943253254,0.3890650164293046,0.7504775917678208,7598.7822265625,11.604333333333331,7.654444444444445,178.70134016092678,-3.325047220831828,50.58979657421634,1553.0,1710.0,1350.0,1528.0,1471.0,995.0,110.0,294.54999999999995,1649343622.68662,1649343623.8088796,05a64e18-237f-4aea-82df-2258927c3df3
0.0536379770492985,0.1278623665268206,-0.1010432897961419,-1.3262787854091087,-0.3812683376476268,1.3640238189116618,-0.0260168258931981,-0.0469627000499543,-13.018241542824107,18.9966333692748,37.42960280816057,6.177216788714218,0.3971737729503135,0.7338098399634819,7598.7822265625,11.541999999999998,7.63,178.74699314533916,-3.246326587030884,50.62048195797254,1553.0,1814.0,1350.0,1528.0,1471.0,995.0,110.0,294.54999999999995,1649343624.5155325,1649343625.652383,c97a4bbf-628c-4470-bab2-4c42d0b0128a
0.0508504534550376,0.1315308526937784,-0.0981374277709646,-1.3230705004621257,-0.3802953339545673,1.3520716536832535,-0.0258721902576311,-0.0497765208710873,-12.841652134339345,19.056843766427725,36.672005296707056,6.143633532472964,0.4161877664442071,0.727819908631667,7598.7822265625,11.552666666666664,7.616666666666668,178.71237774662552,-3.24638521282126,50.65404892264856,1553.0,1814.0,1350.0,1528.0,1471.0,995.0,110.0,294.54999999999995,1649343625.761037,1649343626.880941,c97a4bbf-628c-4470-bab2-4c42d0b0128a
0.0489690941303943,0.1287104574122264,-0.1071031955086212,-1.3313980161058236,-0.389389302684043,1.3619074266925792,-0.0321830167131452,-0.0519197584686839,-12.854598420386344,19.05007487408271,36.5286943380306,6.183999994151154,0.4074281601491239,0.760790135756357,7598.7822265625,11.56411111111111,7.612222222222223,178.7307145278173,-3.272184141692802,50.65983447233052,1553.0,1814.0,1350.0,1528.0,1471.0,995.0,110.0,294.54999999999995,1649343626.9887908,1649343628.1059806,c97a4bbf-628c-4470-bab2-4c42d0b0128a
0.0003463107315244,0.1463757303757426,-0.0065567550066089,0.2946141250207442,-0.1143497711712211,-0.2251801411865526,-0.370946609067606,-0.3855942596731984,-13.60332652058235,21.32888156084748,25.29118080074339,-1.0323378864018853,0.3847966441343846,0.7305337948196129,7598.7822265625,11.656666666666666,7.63,178.7872776010639,-3.7928114454796815,50.74663669030753,1553.0,1349.0,1350.0,1528.0,1471.0,995.0,110.0,294.54999999999995,1649343629.225582,1649343630.3663232,cbda4fe9-e21b-4171-b5ad-d0229e4148c7
-0.0349528823488513,0.1426177319475919,-0.0074164774832127,0.2930944392611127,-0.1150587893953796,-0.2210828046979382,-0.3704722444854156,-0.3940640443296725,-13.584284524340216,21.36072392462918,25.14938099818892,-1.0195473254935703,0.3719570027383065,0.7313282143184654,7598.7822265625,11.656222222222222,7.63,178.78776633904448,-3.783161004796753,50.85818620146732,1553.0,1349.0,1350.0,1528.0,1471.0,995.0,110.0,294.54999999999995,1649343630.4748335,1649343631.5930357,cbda4fe9-e21b-4171-b5ad-d0229e4148c7
-0.0277969570646198,0.1466381985744197,-0.010880653279182,0.2900221960011476,-0.1184597504296428,-0.2220310280926374,-0.3746317847277319,-0.396579997272768,-13.680121756502071,21.292990982519942,25.14440061192088,-1.0154184205874142,0.3879161503434757,0.747018090490955,7598.7822265625,11.656333333333334,7.645555555555556,178.78868613785275,-3.796739278571131,50.95603131751242,1553.0,1349.0,1350.0,1528.0,1471.0,995.0,110.0,294.54999999999995,1649343631.7018788,1649343632.817089,cbda4fe9-e21b-4171-b5ad-d0229e4148c7
-0.0289489852264147,0.1497549452152597,0.0153095272190432,0.6100907676140617,-0.06594941777766,-0.5336354651931683,-0.4436852115307725,-0.4690490526830569,-13.894529790309,22.66949252113276,23.000844409055944,-2.427652008824339,0.3823980275661639,0.7375597248170287,7598.7822265625,11.63,7.63,178.79905740065246,-3.9125223212195945,51.11843234595287,1553.0,1264.0,1350.0,1528.0,1471.0,995.0,110.0,294.54999999999995,1649343633.7314532,1649343634.872697,d2a2abba-709b-48e3-a6cc-27427e6ea141
-0.0335247316493042,0.1475065182226561,0.0172818316203281,0.6172305089844085,-0.0636878420152158,-0.5383032537179961,-0.4430277766500004,-0.466563948594825,-13.840125073713054,22.74399250090875,22.967681959665533,-2.45363248355686,0.3731211561257017,0.7306061013401195,7598.7822265625,11.633222222222225,7.612222222222223,178.80946660894753,-3.925778912056813,51.23312374413086,1553.0,1264.0,1350.0,1528.0,1471.0,995.0,110.0,294.54999999999995,1649343634.980867,1649343636.09418,d2a2abba-709b-48e3-a6cc-27427e6ea141
-0.0243074953232136,0.1568815383684584,0.0196748943959035,0.6026749036483525,-0.0653577264652971,-0.534582171587514,-0.4401876575804475,-0.4613570635633408,-13.760919043835951,22.746652853480608,22.91683517211992,-2.412268276293653,0.4101170937254438,0.7265641493530143,7598.7822265625,11.631777777777778,7.627777777777778,178.83088304654507,-3.9473917175929794,51.34979172316367,1553.0,1264.0,1350.0,1528.0,1471.0,995.0,110.0,294.54999999999995,1649343636.202445,1649343637.332898,d2a2abba-709b-48e3-a6cc-27427e6ea141
-0.032196713263788,0.1516220600271759,0.0396609128732843,0.9442648521629352,-0.0144854189924708,-0.8647197670283496,-0.5197372894580885,-0.5456796748519303,-14.054839060232773,24.13594467271141,19.725775209977296,-3.915126439428008,0.3799869642057781,0.7403750601783528,7598.7822265625,11.613333333333332,7.613333333333334,178.8353074913074,-4.063273987711884,51.49348372510258,1553.0,1178.0,1350.0,1528.0,1471.0,995.0,110.0,294.54999999999995,1649343639.2604818,1649343640.3992178,c814d3fb-89de-4a1a-ae9d-ddd5a659e7f5
-0.0406513252338646,0.1549355313813978,0.0430269791202252,0.9446067182335512,-0.0124868171301018,-0.8625107849394691,-0.5183303785841492,-0.5418797005273457,-14.154139709886756,24.282151815898565,20.562726864100995,-3.909713465864961,0.3858732197484814,0.7325163570076705,7598.7822265625,11.604444444444445,7.665555555555555,178.85307964352782,-4.061738855264055,51.57411676443925,1553.0,1178.0,1350.0,1528.0,1471.0,995.0,110.0,294.54999999999995,1649343640.5085068,1649343641.639014,c814d3fb-89de-4a1a-ae9d-ddd5a659e7f5
-0.0536290888515279,0.1541860557259359,0.0484573906692781,0.9426344139660802,-0.0074245689986909,-0.8608671970777457,-0.512137341002867,-0.5301116144952281,-14.141562622230913,24.287742675252336,20.478465409447644,-3.901270709329173,0.384307206798294,0.7091812549318961,7598.7822265625,11.616,7.646666666666666,178.85573886384464,-4.076507621524392,51.62023609898996,1553.0,1178.0,1350.0,1528.0,1471.0,995.0,110.0,294.54999999999995,1649343641.7765875,1649343642.863354,c814d3fb-89de-4a1a-ae9d-ddd5a659e7f5
-0.0527218288037828,0.1596822105857772,0.0690482488836133,1.1063356721318414,0.0210686561446805,-1.0208869234848943,-0.5472969646415301,-0.5599328656396848,-14.38532203949609,25.59481627695063,19.8550866392268,-4.620658368503333,0.3933437776922166,0.6928789067546528,7598.7822265625,11.605777777777778,7.63111111111111,178.88640944885765,-4.14560252664628,51.69248659894025,1553.0,1088.0,1350.0,1528.0,1471.0,995.0,110.0,294.54999999999995,1649343643.5217345,1649343644.496413,d9553334-6e4d-413a-82aa-761dfa3c403e
-0.0516830817786633,0.154199204412466,0.0644988000743854,1.1080975974278906,0.0170057090450785,-1.0162191334122952,-0.5509786005888516,-0.5650871564903109,-14.36853085141089,25.68579991798877,19.95263251874384,-4.613743081745122,0.3712919818434694,0.7093200376138704,7598.7822265625,11.589333333333334,7.656666666666666,178.90605003727094,-4.143350840949899,51.696365387478906,1553.0,1088.0,1350.0,1528.0,1471.0,995.0,110.0,294.54999999999995,1649343644.604554,1649343645.7211523,d9553334-6e4d-413a-82aa-761dfa3c403e
