raw_voltage_G-,raw_voltage_G0,raw_voltage_G1,raw_voltage_G2,raw_voltage_G3,raw_voltage_G4,raw_voltage_G5,raw_voltage_G6,load_x,load_y,load_z,load_l,load_m,load_n,rpm,voltage,current,roll,pitch,yaw,aileron1_pwm,elevator_pwm,throttle_pwm,rudder_pwm,aileron2_pwm,pbaro,pdiff,Tt,sample_start_time,sample_end_time,uid
-0.0687763875213839,0.081763038214449,-0.0990578364932254,-0.0903928451942735,-0.2403537383899719,0.2076749500857913,-0.3743784194098477,-0.392720854195403,-16.050524823085816,22.938473490486498,27.04908872530052,0.813939303473722,0.18576595976219,1.0220445399686178,4586.656412760417,11.961555555555556,0.1555555555555555,179.6499805812904,-4.317059484720641,102.30336341366498,1553.0,1435.0,1200.0,1528.0,1471.0,995.0,110.0,294.54999999999995,1649345995.0622032,1649345996.24475,950625e0-87de-49e0-9a2a-bbde28550812
-0.0628857713767091,0.0857602418357776,-0.099570635680287,-0.0934696403279315,-0.2425364222273602,0.2061759987484067,-0.3745887985847864,-0.402240512162235,-15.89503244173448,22.90768966707743,26.98679750552096,0.8173501933410585,0.2005552408093975,1.0265061730828768,4597.856825086806,11.960888888888888,0.15,179.68782893621116,-4.300689465986759,101.8810437103642,1553.0,1435.0,1200.0,1528.0,1471.0,995.0,110.0,294.54999999999995,1649345996.367123,1649345997.4799497,950625e0-87de-49e0-9a2a-bbde28550812
-0.066698893427646,0.0832751382680347,-0.1039885978481551,-0.092365149726438,-0.2454028383359597,0.2080562622610474,-0.3781389472287109,-0.401398995602592,-15.9507412345075,22.848264496974068,27.02283774877812,0.8184477172985001,0.1908923913849277,1.0412324081933075,4604.443142361111,11.963333333333331,0.1544444444444444,179.7049818179468,-4.292324666119478,101.4798915222112,1553.0,1435.0,1200.0,1528.0,1471.0,995.0,110.0,294.54999999999995,1649345997.5934677,1649345998.7031555,950625e0-87de-49e0-9a2a-bbde28550812
0.1735277872519189,0.484297202435503,-0.0654103211706635,-0.3256361940500528,-0.3068992989603875,0.0369128353897341,-0.416967054967925,-0.4495495320326331,-15.403730256758529,21.923675399236703,28.022139806408827,0.9562942836458276,1.7133911883157216,1.1763391279731947,4600.873046875,11.942,0.15,179.4747589083229,-4.251412544469139,101.02306722104332,1658.0,1435.0,1200.0,1528.0,1551.0,995.0,110.0,294.54999999999995,1649345999.4891489,1649346000.5466716,1539ac71-ec63-49fd-99ba-a518ce67369e
0.1645209306158573,0.4729630272768182,-0.0714587217295457,-0.3229012647592613,-0.3098709047883304,0.0467480602247178,-0.4193995643337123,-0.4354278285834113,-15.441835862055,21.899608058151053,28.167326416189265,0.9717692635670307,1.6691434843536153,1.1909351195039335,4599.776041666667,11.945444444444442,0.1544444444444444,179.46706204403822,-4.236515996753081,100.80580421591458,1658.0,1435.0,1200.0,1528.0,1551.0,995.0,110.0,294.54999999999995,1649346000.6833582,1649346001.7738163,1539ac71-ec63-49fd-99ba-a518ce67369e
0.171489739412515,0.477354691435535,-0.0663044325416133,-0.3238216736300036,-0.3061629718489754,0.041975083481995,-0.415389211067613,-0.439543371410479,-15.375560921167716,21.89938440954984,28.01506439041604,0.9633842207053098,1.6869353845013646,1.1735040375831327,4579.84326171875,11.945444444444444,0.1588888888888889,179.40261845030923,-4.210143640298408,100.59619254047604,1658.0,1435.0,1200.0,1528.0,1551.0,995.0,110.0,294.54999999999995,1649346001.882778,1649346003.0021374,1539ac71-ec63-49fd-99ba-a518ce67369e
0.3679181015659928,0.8294767435153603,-0.0356153743797782,-0.5399336924684102,-0.3685009510794355,-0.1049747501241156,-0.455466446036443,-0.4869707302632339,-14.895731985664902,21.50770164960828,27.84806002473998,1.1198106003610884,3.034238107577205,1.3146121767880083,4565.475911458333,11.905888888888889,0.1455555555555555,179.09569555194574,-4.133805224697984,100.1287078318336,1767.0,1435.0,1200.0,1528.0,1630.0,995.0,110.0,294.54999999999995,1649346005.1418607,1649346006.2805302,ba9d65ed-ef9f-452f-94b0-11e4c8ca79d6
0.3663008120372932,0.8266366253836225,-0.0374298945423174,-0.5379350900756659,-0.3693030217214958,-0.1034626499559581,-0.4563474089299069,-0.4810012204879157,-14.884428594525934,21.481587305112303,27.918876976588308,1.1184536463363093,3.0225167418071424,1.319224693124086,4562.235622829861,11.912333333333336,0.1477777777777777,179.07357332813393,-4.112372849992391,99.95409252788242,1767.0,1435.0,1200.0,1528.0,1630.0,995.0,110.0,294.54999999999995,1649346006.3893404,1649346007.457248,ba9d65ed-ef9f-452f-94b0-11e4c8ca79d6
0.3710474910479258,0.8348940058848734,-0.0328541480957185,-0.5420637818661812,-0.3681853823175597,-0.108616939192194,-0.4538754534314907,-0.4844856258355046,-14.764883524096522,21.55173502720659,27.82156925633633,1.116922111234376,3.0543028622953097,1.3088261538316803,4561.69580078125,11.911666666666669,0.1455555555555555,179.0324176438351,-4.088880129750915,99.78756644463824,1767.0,1435.0,1200.0,1528.0,1630.0,995.0,110.0,294.54999999999995,1649346007.566167,1649346008.6091454,ba9d65ed-ef9f-452f-94b0-11e4c8ca79d6
0.4704384778068376,1.0013170410582626,0.0070521459096434,-0.6619010384034741,-0.3837008467791462,-0.1854184797984855,-0.4560975836165747,-0.4848274921505274,-14.554289177240832,22.301950242821444,24.534328991040173,1.221204622283501,3.7234317217474766,1.293015414803785,4566.556640625,11.848,0.13,178.75320406402443,-4.046755459795425,99.55496587027328,1886.0,1435.0,1200.0,1528.0,1710.0,995.0,110.0,294.54999999999995,1649346009.6473153,1649346010.786596,a86b98ed-5cb9-4811-a7ca-dce99a7dafa5
0.4599852652042997,1.0002388480306923,0.0041068379017531,-0.6655695259176255,-0.3850814601545738,-0.1799354728980978,-0.4562422193082552,-0.4775168155141388,-14.59388222768272,22.133393809898607,24.67363714338644,1.2405391186970038,3.7186954815007214,1.2991919146366897,4553.886664496527,11.83788888888889,0.1211111111111111,178.7201201455047,-4.0227019525639705,99.36308840155974,1886.0,1435.0,1200.0,1528.0,1710.0,995.0,110.0,294.54999999999995,1649346010.8967907,1649346012.014428,a86b98ed-5cb9-4811-a7ca-dce99a7dafa5
0.4705962621395088,1.0087066078556828,0.0146126463423341,-0.6688435525713927,-0.3771527948358566,-0.1848530857664048,-0.4466305201661694,-0.4773590305450335,-14.47055199076252,22.09495836201257,24.802628650517683,1.237224957146718,3.74950704277998,1.26166704731749,4549.58935546875,11.851,0.13,178.67737302712922,-4.005161457592947,99.16664229520136,1886.0,1435.0,1200.0,1528.0,1710.0,995.0,110.0,294.54999999999995,1649346012.1227882,1649346013.2450554,a86b98ed-5cb9-4811-a7ca-dce99a7dafa5
-0.2909367793632183,-0.3599411482748222,-0.1372942475928065,0.1771831246775931,-0.1714808605059133,0.3880224566020863,-0.3346693498053457,-0.3654636021297008,-16.705776284108495,24.47249708838909,26.180159644001662,0.6234153600153092,-1.4938965857981872,0.8704068797958054,4549.324544270833,11.95711111111111,0.1577777777777777,179.539020363674,-4.029719782208682,98.84721256155764,1449.0,1435.0,1200.0,1528.0,1386.0,995.0,110.0,294.54999999999995,1649346014.9736216,1649346016.1108987,aae92216-c076-4c25-912e-4e582b39ad77
-0.289898032211346,-0.3584290479548412,-0.1291683527323108,0.1757499168456652,-0.1635784933688671,0.3890612035237362,-0.3253600713481531,-0.3488830928435253,-16.66655615281978,24.40143756435993,26.41846181097528,0.6289738110768391,-1.4899245549488649,0.8358757456598379,4557.922688802083,11.955444444444444,0.1555555555555555,179.55255324514954,-4.024992295233779,98.71021490391529,1449.0,1435.0,1200.0,1528.0,1386.0,995.0,110.0,294.54999999999995,1649346016.219651,1649346017.3399773,aae92216-c076-4c25-912e-4e582b39ad77
-0.2948682401115264,-0.3567854606203325,-0.1326659061837478,0.1732253672480408,-0.1670628981904018,0.3899290174114773,-0.3285552050585887,-0.3578768027205249,-16.68443253058036,24.351497247989982,26.415218867680046,0.6361039394696083,-1.4835165835227426,0.8501185308689927,4556.84521484375,11.956,0.1444444444444445,179.53094859789488,-4.003105570652774,98.57529590051028,1449.0,1435.0,1200.0,1528.0,1386.0,995.0,110.0,294.54999999999995,1649346017.45597,1649346018.5752096,aae92216-c076-4c25-912e-4e582b39ad77
-0.5497486491971512,-0.7901644314653189,-0.1674228437564223,0.4337601927934629,-0.1011725852474041,0.5726980705452531,-0.2914862853921578,-0.3116202296365298,-17.469512316091016,26.40944821715262,26.12570093810878,0.470578072714209,-3.135074541074728,0.7030163388094057,4580.9326171875,11.910333333333334,0.14,179.64110892446848,-3.9908616027918793,98.37901903106136,1342.0,1435.0,1200.0,1528.0,1293.0,995.0,110.0,294.54999999999995,1649346019.4797883,1649346020.624056,d870f972-ea21-4217-9d9a-d346e8326c99
-0.5459426483989601,-0.7828559444783696,-0.1644200100151461,0.4315577863563964,-0.1001228809562786,0.566660628093216,-0.2908447385098043,-0.3154196555521102,-17.45892333213907,26.426174769626904,26.010966706154413,0.4622266670561031,-3.106259520281996,0.6972837191207784,4602.520182291667,11.909,0.14,179.63432578771275,-3.979823021023885,98.15670092703688,1342.0,1435.0,1200.0,1528.0,1293.0,995.0,110.0,294.54999999999995,1649346020.7332048,1649346021.847229,d870f972-ea21-4217-9d9a-d346e8326c99
-0.5527405263609251,-0.7902849612462485,-0.1682331322589785,0.432307261979122,-0.1019242524482694,0.5744841016135313,-0.29148902473826,-0.3187988709427343,-17.454130065127742,26.379512909445392,26.169736529677657,0.4776449497784718,-3.135898747934495,0.7052063773326245,4608.29638671875,11.912333333333336,0.14,179.60157275391282,-3.963780045028386,97.921095828347,1342.0,1435.0,1200.0,1528.0,1293.0,995.0,110.0,294.54999999999995,1649346021.9557788,1649346023.274367,d870f972-ea21-4217-9d9a-d346e8326c99
-0.7800947171759155,-1.201629034423275,-0.2105324920634941,0.6597533885082563,-0.0525245983676636,0.7516627663730564,-0.2675189482302518,-0.2845465126433263,-18.3760805597854,28.596324069821254,23.74390848416887,0.3744648358231716,-4.681311170342516,0.6086982790726515,4609.670952690973,11.82311111111111,0.1144444444444444,179.72040438509268,-3.946899849109,97.6000769373564,1227.0,1435.0,1200.0,1528.0,1189.0,995.0,110.0,294.54999999999995,1649346024.1878574,1649346025.3224592,63c2985e-a4c1-412e-b16c-0992f01d8777
-0.7752822921825796,-1.1954622908947428,-0.2096515293031663,0.6586883442162601,-0.0529322079541908,0.7483624439257736,-0.2672296768578069,-0.2912129025617677,-18.281791786109075,28.54000966377452,23.998813599519348,0.3692096965822682,-4.66092268009463,0.6088261583200059,4606.092502170139,11.833222222222222,0.12,179.74524047073467,-3.9473664838385454,97.3140126778082,1227.0,1435.0,1200.0,1528.0,1189.0,995.0,110.0,294.54999999999995,1649346025.4350045,1649346026.5573337,63c2985e-a4c1-412e-b16c-0992f01d8777
-0.7907188684464144,-1.2021681314350396,-0.2157656736646006,0.6579914633832195,-0.056745329985079,0.7546475201320456,-0.2721867359693654,-0.2937243035683066,-18.476300926567948,28.54600635192113,23.82545131244343,0.3845148577397106,-4.683462167284429,0.6282113001193252,4593.203776041667,11.829888888888888,0.12,179.7279950019903,-3.9303653366526063,96.98636622659298,1227.0,1435.0,1200.0,1528.0,1189.0,995.0,110.0,294.54999999999995,1649346026.665951,1649346027.7857912,63c2985e-a4c1-412e-b16c-0992f01d8777
-0.0548256202782579,0.0793305294327598,-0.1062107276408388,-0.0917997557855724,-0.2449426339039864,0.2153932344356936,-0.3785334081930246,-0.4013595497305185,-16.14081130697664,22.764942402465024,27.58202097323732,0.8329899443615462,0.1722750560247146,1.044413843344985,4586.1025390625,11.960222222222225,0.1577777777777777,179.28310076457268,-3.883969094849311,96.67159012850377,1553.0,1435.0,1200.0,1528.0,1471.0,995.0,110.0,294.54999999999995,1649346028.4892657,1649346029.630565,d144e15a-b166-4036-bf9b-f770c9c24155
-0.0553647168436546,0.0766876415049935,-0.1099844036953816,-0.093364450685394,-0.2495052320620301,0.220087318786931,-0.3825043152137121,-0.4056460253003819,-16.16647832940065,22.915263859643524,27.644840890863783,0.8478734359654694,0.1619434788102029,1.061101376910572,4592.929307725694,11.959444444444443,0.1522222222222222,179.24850813315632,-3.8579282871605978,96.82781325083994,1553.0,1435.0,1200.0,1528.0,1471.0,995.0,110.0,294.54999999999995,1649346029.739064,1649346030.780874,d144e15a-b166-4036-bf9b-f770c9c24155
-0.0597958276449921,0.0814211721043024,-0.1068944599225795,-0.0935090863678709,-0.2469675333948565,0.2141178109608719,-0.3811499992770605,-0.3984799844357568,-16.195182008680682,22.87986893269216,27.45443295389932,0.8346598379785282,0.1818009282792487,1.0518021382330174,4603.34375,11.964,0.15,179.21143234852167,-3.8586637182931054,96.93905805967177,1553.0,1435.0,1200.0,1528.0,1471.0,995.0,110.0,294.54999999999995,1649346030.8893845,1649346032.0810645,d144e15a-b166-4036-bf9b-f770c9c24155
-0.0679348709231911,0.0660371976063852,-0.1373336936611187,-0.3392976916376177,-0.2984972808054355,0.4679796718355128,-0.3380748626693882,-0.3542346133721523,-16.085006370872687,22.26242501408966,29.279560446076548,1.954297825023066,0.1354674971449186,1.101037807287176,4602.521158854167,11.954333333333333,0.1533333333333333,179.16284238276623,-3.776692483629666,97.13678520595448,1553.0,1522.0,1200.0,1528.0,1471.0,995.0,110.0,294.54999999999995,1649346034.019106,1649346035.171023,52edcd61-d3eb-433c-af04-814a0b5754b1
-0.0442672168165414,0.0773845224028774,-0.1305621146354087,-0.3425980149426192,-0.2946841583485882,0.4608925251770284,-0.3348139854764469,-0.3635701892240107,-16.109554939106363,22.30401150978607,29.458755373372554,1.946445849897296,0.1774487405794432,1.0835335880290913,4603.34375,11.964333333333334,0.16,179.1591950617494,-3.751816650081265,97.1477931941668,1553.0,1522.0,1200.0,1528.0,1471.0,995.0,110.0,294.54999999999995,1649346035.2787173,1649346036.3858984,52edcd61-d3eb-433c-af04-814a0b5754b1
-0.030842397496595,0.0774897119670269,-0.129589111055676,-0.3430450707283662,-0.2932509502612564,0.4600773060770535,-0.3323946249876458,-0.3584816427742884,-16.022624209769482,22.18821621919822,29.313073939060168,1.944923756415755,0.1786339235066776,1.0767221965699991,4598.40478515625,11.96577777777778,0.1577777777777777,179.15157864191497,-3.757993465252549,97.17583415634932,1553.0,1522.0,1200.0,1528.0,1471.0,995.0,110.0,294.54999999999995,1649346036.4941227,1649346037.614209,52edcd61-d3eb-433c-af04-814a0b5754b1
-0.0399149982117896,0.0665236993664045,-0.1544270000473875,-0.6477267386896165,-0.34950108164065,0.7690979359365275,-0.2732649291844352,-0.2929616789736783,-16.011002764611966,21.880564154300213,31.965128016954164,3.323773947247178,0.1498503942850096,1.1028821136351328,4611.324381510417,11.949222222222222,0.15,179.16571409785723,-3.6805662985256777,97.21165849854604,1553.0,1613.0,1200.0,1528.0,1471.0,995.0,110.0,294.54999999999995,1649346039.4793403,1649346040.6925538,77296e7f-2752-496d-9f8e-55356b10c6aa
-0.039809808641028,0.0702053342971836,-0.154150877403806,-0.6494360697890877,-0.3510526280671848,0.7664813456305497,-0.2733438213783767,-0.3044010469063608,-15.85986362600362,21.892777541501456,31.88206957688148,3.3219075043095985,0.1635533499600185,1.105145342732429,4617.948838975694,11.94788888888889,0.15,179.14731812169268,-3.641441694299374,97.1907596375056,1553.0,1613.0,1200.0,1528.0,1471.0,995.0,110.0,294.54999999999995,1649346040.807244,1649346041.919631,77296e7f-2752-496d-9f8e-55356b10c6aa
-0.0311579662333049,0.0687984238067147,-0.1513239074990085,-0.6473980211685155,-0.3464242861995042,0.7684667985789624,-0.2695569963630372,-0.2948419435998154,-15.956757132390072,21.802110608305025,32.26198247983967,3.321323252586899,0.1555219599297191,1.0899491892458182,4622.5850830078125,11.951,0.14625,179.1347600599937,-3.642287967781303,97.15923176888803,1553.0,1613.0,1200.0,1528.0,1471.0,995.0,110.0,294.54999999999995,1649346042.0276804,1649346043.151003,77296e7f-2752-496d-9f8e-55356b10c6aa
-0.0370222849478649,0.0503376543152706,-0.182381130644783,-0.9301345665070554,-0.4063823523007538,1.0574225245017097,-0.2221822381170176,-0.2422077050751986,-15.90625809837838,21.65413284088488,33.819756606691215,4.606176059438163,0.1049584662169182,1.1440774308030732,4625.7021484375,11.923111111111114,0.14,179.14673376106373,-3.540622860928435,97.07756518912072,1553.0,1710.0,1200.0,1528.0,1471.0,995.0,110.0,294.54999999999995,1649346044.2581422,1649346045.3929884,bc5357f7-6fc7-4455-a503-25603e75bd02
-0.0318022523875161,0.0629472540006108,-0.177332030818233,-0.9371033794650124,-0.4051858206789896,1.0516108010671068,-0.2196839855598356,-0.2454817309856946,-15.8382193883839,21.66790144264186,33.86621496083568,4.60922061542187,0.1525371406725039,1.133580368583187,4622.376302083333,11.921,0.14,179.13963339996653,-3.53087475802675,97.01809245528769,1553.0,1710.0,1200.0,1528.0,1471.0,995.0,110.0,294.54999999999995,1649346045.5010674,1649346046.6342056,bc5357f7-6fc7-4455-a503-25603e75bd02
-0.0217566481566428,0.0598704590861977,-0.1765299602726857,-0.933684716524312,-0.4026349730845942,1.0534910645380775,-0.2171331382160019,-0.2433384929900066,-15.818310338276078,21.57369963289216,34.166217507703394,4.605207458910517,0.1378258015152469,1.1255142432432088,4615.73876953125,11.925333333333334,0.14,179.13779228453024,-3.5433242718929794,96.95486691196068,1553.0,1710.0,1200.0,1528.0,1471.0,995.0,110.0,294.54999999999995,1649346046.745684,1649346047.8020823,bc5357f7-6fc7-4455-a503-25603e75bd02
-0.0315392784404552,0.0462089636767283,-0.1717569831472664,-1.0480652970778628,-0.4153629137032805,1.1761552467263665,-0.1848530857671186,-0.2080736856818451,-15.802418282456683,22.24781856084276,34.86206856657592,5.1436902215591,0.0947038087443022,1.088444085974502,4618.22509765625,11.895888888888887,0.13,179.14672010068534,-3.4663415654967853,96.769245137617,1553.0,1814.0,1200.0,1528.0,1471.0,995.0,110.0,294.54999999999995,1649346049.9937642,1649346051.3397725,f076b87f-e9fc-4586-93aa-5adc400ba303
-0.0338140029657652,0.0457356106198081,-0.1649591066010068,-1.0339567371594662,-0.4076709248159142,1.1631643353565615,-0.1821050079976773,-0.1988827464298254,-15.814991676676378,22.337078111330044,34.832016343422865,5.08359153616473,0.0919791876764852,1.0647670045516475,4611.600965711806,11.887444444444444,0.1288888888888889,179.13054773055055,-3.477209771990483,96.62806816311246,1553.0,1814.0,1200.0,1528.0,1471.0,995.0,110.0,294.54999999999995,1649346051.4476311,1649346052.5670254,f076b87f-e9fc-4586-93aa-5adc400ba303
-0.0314866836637889,0.0511265760732302,-0.1686670393483872,-1.0411885241948882,-0.4132065271586894,1.1640058517393752,-0.1862074016338506,-0.2148978601969565,-15.807463923643828,22.33378622991804,34.725869240955205,5.101576091834014,0.1137413540926426,1.0836477526316963,4605.8173828125,11.890555555555556,0.13,179.12320755392253,-3.468341103376306,96.51432729959396,1553.0,1814.0,1200.0,1528.0,1471.0,995.0,110.0,294.54999999999995,1649346052.6756818,1649346053.8008158,f076b87f-e9fc-4586-93aa-5adc400ba303
-0.0509730521073456,0.0927816455505139,-0.0795188728709844,0.2315792787539056,-0.1945962705734782,-0.1087615748512224,-0.4518899998643854,-0.4824344290347245,-16.2770807374582,24.218886264050926,25.511130063880017,-0.6143243284297786,0.2039455535428266,1.0447506693944306,4605.8173828125,11.967666666666666,0.1588888888888888,179.1267455919126,-3.822663973043953,96.33202044372742,1553.0,1349.0,1200.0,1528.0,1471.0,995.0,110.0,294.54999999999995,1649346055.4809606,1649346056.4596765,bd45e78a-8788-42b3-bdc3-d4ca452af3a6
-0.0855146786200184,0.0838931269828346,-0.0823852887885531,0.2326048770164246,-0.1949644341058618,-0.102660579446362,-0.4515349849634079,-0.4674580604317326,-16.283521907592487,24.151324109809547,25.26593543149629,-0.6035610093665024,0.1725178132070661,1.0472647760455494,4605.8173828125,11.967555555555556,0.15,179.10207039517107,-3.909703445230887,96.50173091294464,1553.0,1349.0,1200.0,1528.0,1471.0,995.0,110.0,294.54999999999995,1649346056.5721505,1649346057.693416,bd45e78a-8788-42b3-bdc3-d4ca452af3a6
-0.0693023354301217,0.0852342939907624,-0.0777043526837368,0.2331439735266568,-0.1904938769503941,-0.103252270811627,-0.4477876056689281,-0.4702850307492316,-16.35512633650795,24.184505280379263,25.471512206908063,-0.605656920879329,0.1764637164814262,1.0298528780053713,4606.092502170139,11.96811111111111,0.15,179.0811093035182,-3.901607157175353,96.68631601635433,1553.0,1349.0,1200.0,1528.0,1471.0,995.0,110.0,294.54999999999995,1649346057.8139553,1649346058.919077,bd45e78a-8788-42b3-bdc3-d4ca452af3a6
-0.0823326940162964,0.0901650550187639,-0.0580470509685417,0.5168928174668391,-0.1474976366006951,-0.3811762966476502,-0.5125712480837447,-0.5356735139218864,-16.501420129716504,25.343401295454186,23.607514420286847,-1.8619666975296587,0.1788433312630607,1.0366110966296318,4608.29345703125,11.961555555555556,0.15,179.03312646568895,-3.964480044554575,96.92535290564716,1553.0,1264.0,1200.0,1528.0,1471.0,995.0,110.0,294.54999999999995,1649346060.0372798,1649346061.375332,24b22c79-13c6-4833-98ca-2bf4ad03e5bb
-0.0705120155372571,0.1010258779880357,-0.0592698797621773,0.5080831917860168,-0.1508768517849341,-0.383635103318462,-0.5160950996078513,-0.5406568711918786,-16.628746986161673,25.3123907264264,23.60033928747869,-1.8479513056317145,0.2215494086714273,1.0490482556242484,4606.6435546875,11.95,0.15,179.0181744226859,-3.959899643806173,97.07050277351892,1553.0,1264.0,1200.0,1528.0,1471.0,995.0,110.0,294.54999999999995,1649346061.4879627,1649346062.599954,24b22c79-13c6-4833-98ca-2bf4ad03e5bb
-0.0821354635556036,0.0944909760405686,-0.0581653892495965,0.5115938933696977,-0.1493647516141417,-0.3823333821170426,-0.5132286830631775,-0.5423267564859926,-16.463534853348595,25.349813828892383,23.34881822709012,-1.8525992987398767,0.1977378581041026,1.0403874997276312,4600.873046875,11.952666666666666,0.1466666666666666,178.99732868533903,-3.9590578229909688,97.18730811524505,1553.0,1264.0,1200.0,1528.0,1471.0,995.0,110.0,294.54999999999995,1649346062.7082975,1649346063.839838,24b22c79-13c6-4833-98ca-2bf4ad03e5bb
-0.0851333664611389,0.1083891477630127,-0.0281074686152127,0.7846133960573347,-0.101897955034001,-0.6595342722482367,-0.5713590857699613,-0.5872427157836736,-16.652782291379435,26.830191210838112,21.49418209630003,-3.080452437005887,0.2359575658009785,1.0182488800866707,4599.501790364583,11.951666666666666,0.1444444444444445,178.99350985068307,-4.0399451920104905,97.37857921494226,1553.0,1178.0,1200.0,1528.0,1471.0,995.0,110.0,294.54999999999995,1649346065.024313,1649346066.2823746,58c1b41e-039a-4f13-90e7-eb5609726d99
-0.0835423741328335,0.1080604303651399,-0.0298956913690349,0.7735947896341605,-0.1041989770134795,-0.6496858951494754,-0.5689923197285328,-0.5838897977333642,-16.583986411715173,26.7079654138454,21.409413812168296,-3.0343447157624737,0.236230244175667,1.0202930582608414,4600.324544270833,11.931333333333336,0.14,178.97782621852892,-4.038674919120477,97.44052827180435,1553.0,1178.0,1200.0,1528.0,1471.0,995.0,110.0,294.54999999999995,1649346066.3973246,1649346067.5212944,58c1b41e-039a-4f13-90e7-eb5609726d99
-0.0913527000840236,0.1049967841826041,-0.0278181972966261,0.7718854592860693,-0.1018322115506595,-0.642901165537636,-0.5651266018821527,-0.5847050167195866,-16.602911536169948,26.726470383812803,21.745979488906364,-3.0149724508297298,0.2222331536176748,1.008801804063877,4598.953287760417,11.926444444444444,0.14,178.9564978144807,-4.043737749410878,97.5095427799079,1553.0,1178.0,1200.0,1528.0,1471.0,995.0,110.0,294.54999999999995,1649346067.6296155,1649346068.9493172,58c1b41e-039a-4f13-90e7-eb5609726d99
-0.0924703393487094,0.1017622049639006,-0.0117373414138952,0.8769566815203805,-0.081478028732625,-0.7420949684404781,-0.5836005257411442,-0.6024557622281093,-16.63664678952134,27.71258201288247,20.92816807509346,-3.4676986782326487,0.2056881746219696,0.9844097544186484,4595.93896484375,11.922,0.1366666666666666,178.97384194151306,-4.108913596337126,97.57421784115874,1553.0,1088.0,1200.0,1528.0,1471.0,995.0,110.0,294.54999999999995,1649346071.053054,1649346072.105736,8c48b84d-b56b-411f-a188-c6a31cd6eafe
-0.0894724364462991,0.1083628503669285,-0.0108826761273653,0.8926430749616112,-0.0797161033472893,-0.7631986358097662,-0.5897278201052693,-0.6166826568632346,-16.727663996855373,27.735282628308987,20.88088337079798,-3.550366408486026,0.2296311240279651,0.9903654674539868,4582.834635416667,11.911,0.13,178.96381522381148,-4.091167626508571,97.59040083603225,1553.0,1088.0,1200.0,1528.0,1471.0,995.0,110.0,294.54999999999995,1649346072.215196,1649346073.4549322,8c48b84d-b56b-411f-a188-c6a31cd6eafe
-0.0902350608665254,0.1040763754560932,-0.0146432033945065,0.878968431911697,-0.0848440951628737,-0.7458160512350621,-0.5893991026680081,-0.6128563845252127,-16.74221928427777,27.81353698047044,20.950697216998705,-3.4801234651986515,0.2144850683633642,1.001425572630927,4575.223307291667,11.90922222222222,0.13,178.9582736636649,-4.100770066139832,97.56883489318288,1553.0,1088.0,1200.0,1528.0,1471.0,995.0,110.0,294.54999999999995,1649346073.5631588,1649346074.6798885,8c48b84d-b56b-411f-a188-c6a31cd6eafe
-0.0519066095927466,0.0746758909887111,-0.105684779789849,-0.0738254871036994,-0.2440222250749905,0.2029282709389026,-0.3823070847532508,-0.3978882929558203,-16.026574161043953,22.99513245018462,27.498766734455536,0.7660303398016372,0.152570898611306,1.0472785798708564,4572.242838541667,11.96711111111111,0.15,178.97492111140193,-3.773218099208116,97.55004580168608,1553.0,1435.0,1200.0,1528.0,1471.0,995.0,110.0,294.54999999999995,1649346075.593912,1649346076.7337873,a94e2bb1-67d3-4d9b-8a65-b7b47ccc62eb
-0.0714061268962345,0.070639241268638,-0.1074072590723783,-0.0713798295162663,-0.2447585521451522,0.206175998777554,-0.3833195345243058,-0.4074210996957642,-16.053113577746977,23.02722183736184,27.707440258960727,0.7679584745271594,0.1353596146004808,1.0518665201718411,4581.20068359375,11.967,0.15,178.97115691825937,-3.777354158205512,97.56937371921738,1553.0,1435.0,1200.0,1528.0,1471.0,995.0,110.0,294.54999999999995,1649346076.8420582,1649346078.166334,a94e2bb1-67d3-4d9b-8a65-b7b47ccc62eb
-0.0530111001225219,0.0771346971771333,-0.105369211024122,-0.072116156530981,-0.2429571805295829,0.1998777735434886,-0.3821755977259265,-0.4005574788966449,-16.037900648322687,22.88967854272349,27.63433001035778,0.7546521884904986,0.1604793507259016,1.04574964899882,4583.106011284723,11.968555555555556,0.1577777777777777,178.96970588251568,-3.779616231481256,97.5674043480067,1553.0,1435.0,1200.0,1528.0,1471.0,995.0,110.0,294.54999999999995,1649346078.2742643,1649346079.3910177,a94e2bb1-67d3-4d9b-8a65-b7b47ccc62eb
-0.0076875428687838,0.0999082388257888,0.059436552105695,-0.0831479131909659,-0.094048182934976,0.1794841464548865,-0.2133331646026716,-0.2381316087254003,-14.913368453701077,22.88268154801341,27.741829058363543,0.7424529652804389,0.2487879876088742,0.38148594105861,4588.55810546875,11.967,0.15,178.96607829315647,-3.775883106213021,97.53724602718148,1553.0,1435.0,1200.0,1424.0,1471.0,995.0,110.0,294.54999999999995,1649346080.9736378,1649346082.0699112,8d201477-c0fc-4fc5-ad50-98a4a549180b
0.0030943882703116,0.1016701640920639,0.0599624999518968,-0.0833056975833821,-0.0943900490591822,0.1782613177438435,-0.2130570419408442,-0.2331219547190026,-14.839529201189794,22.89586074413977,27.795260962749545,0.7402202701522863,0.254453089336467,0.38117490967209,4589.650336371527,11.969444444444443,0.1544444444444444,178.94858238414255,-3.78210493422821,97.54719533607243,1553.0,1435.0,1200.0,1424.0,1471.0,995.0,110.0,294.54999999999995,1649346082.1783,1649346083.2885802,8d201477-c0fc-4fc5-ad50-98a4a549180b
-0.0045055583131305,0.1029455876081918,0.061882209599861,-0.0847520542333476,-0.0936142759385965,0.1766571768544189,-0.2127546219017534,-0.2347523932710061,-14.886974179596589,22.996477665534133,27.563276167501414,0.7405799057691748,0.2619300654676557,0.3768108973945142,4598.130805121527,11.968,0.15,178.95244675339296,-3.7873194516364297,97.5551881752212,1553.0,1435.0,1200.0,1424.0,1471.0,995.0,110.0,294.54999999999995,1649346083.397114,1649346084.5234463,8d201477-c0fc-4fc5-ad50-98a4a549180b
0.0624213061268864,0.135186190158895,0.2637541367792084,-0.0948371047496791,0.0867332453351174,0.1435619094495185,-0.0085290594216831,-0.0368119059989064,-13.352060959720207,23.07804347494021,27.58346496000238,0.7003282623333139,0.3858499285654252,-0.4298952008354751,4600.051106770833,11.964333333333334,0.1433333333333333,178.91839901929038,-3.795043494382198,97.52917729704194,1553.0,1435.0,1200.0,1304.0,1471.0,995.0,110.0,294.54999999999995,1649346086.6537793,1649346087.798247,1f9afaca-2f4c-475f-93b8-5807b452768f
0.0627368748301409,0.1421944450827583,0.2599410150738409,-0.0998336095956757,0.0804876146678345,0.1405903041751139,-0.0141435528537057,-0.0343268024415162,-13.309945854690014,23.118178111968472,27.44621841890084,0.7049970704218174,0.4134276035495184,-0.4075732834014398,4603.34375,11.961666666666666,0.15,178.9307889824448,-3.79040764577866,97.54458165035004,1553.0,1435.0,1200.0,1304.0,1471.0,995.0,110.0,294.54999999999995,1649346087.9202316,1649346089.129708,1f9afaca-2f4c-475f-93b8-5807b452768f
0.0502719108274666,0.1362906806212847,0.2562199342511627,-0.0979533459426046,0.0781077006847268,0.1428518798660392,-0.0154584224873388,-0.0353524006344406,-13.197276445156806,23.06045252141065,27.172388994040794,0.7052828288567374,0.3924460178898972,-0.3983690155206137,4593.203776041667,11.961777777777778,0.1444444444444445,178.9514556170534,-3.788566814933604,97.54022778420912,1553.0,1435.0,1200.0,1304.0,1471.0,995.0,110.0,294.54999999999995,1649346089.241391,1649346090.248331,1f9afaca-2f4c-475f-93b8-5807b452768f
0.1235495942168205,0.1687416620051069,0.4473625179044899,-0.0940218855366198,0.2492905716892106,0.0990009787968541,0.1700959776577199,0.1500573649840217,-12.038363054477191,23.409872540173343,27.41316698140935,0.6103313085813965,0.5154597143733187,-1.1512968981603484,4570.885687934027,11.94588888888889,0.1422222222222222,178.8857750001747,-3.804512033846605,97.52142427342407,1553.0,1435.0,1200.0,1166.0,1471.0,995.0,110.0,294.54999999999995,1649346092.5908906,1649346093.9343443,e5da9ef2-a766-4023-b38f-84a21a8821c7
0.1166596775474649,0.1640212802032387,0.446060797083107,-0.0895776259842866,0.2495140995092837,0.0980937187586322,0.1684523906759138,0.1500705138418227,-12.106991031884156,23.441684384727104,27.19723992143828,0.5983445153927027,0.4995257345598015,-1.1483846391531225,4566.556640625,11.946444444444444,0.14,178.89674276616196,-3.804775849903297,97.5129973378081,1553.0,1435.0,1200.0,1166.0,1471.0,995.0,110.0,294.54999999999995,1649346094.0431592,1649346095.1605277,e5da9ef2-a766-4023-b38f-84a21a8821c7
0.113346206145645,0.1563555905368119,0.4430497458985937,-0.0866980613836969,0.2482123786483669,0.1043656467604504,0.1680316324068546,0.1456131059375748,-12.06433154637476,23.438648439991944,27.384522161412296,0.6058240544922664,0.4682674543779795,-1.142515260998164,4564.665364583333,11.947555555555557,0.1422222222222222,178.90985217590892,-3.8131028940026654,97.51425105697577,1553.0,1435.0,1200.0,1166.0,1471.0,995.0,110.0,294.54999999999995,1649346095.268296,1649346096.317643,e5da9ef2-a766-4023-b38f-84a21a8821c7
-0.1205559561381348,0.042606220905198,-0.3154328041500225,-0.0427288192673325,-0.4351648545040967,0.2146963535763472,-0.6063477775129925,-0.634249321019312,-17.575435386092224,23.5507463034993,27.107095764489785,0.7147254170477879,0.0296078176725861,1.9070462238242103,4566.556640625,11.967,0.14,179.01305633426784,-3.815437158583388,97.65521705452596,1553.0,1435.0,1200.0,1623.0,1471.0,995.0,110.0,294.54999999999995,1649346096.972567,1649346098.040666,396913a9-3215-4902-9a12-7c4e1e1f787a
-0.1181628932403634,0.0578981546529021,-0.3076619234827593,-0.0505654425332991,-0.4316015570298253,0.2052161439892468,-0.600220483076515,-0.6262943564596387,-17.36285956140809,23.43922778896872,26.917401382480328,0.7108240575367446,0.0885941609115299,1.8845848511563008,4572.511447482639,11.968,0.15,179.02167603300038,-3.8231507663179247,97.61540767640346,1553.0,1435.0,1200.0,1623.0,1471.0,995.0,110.0,294.54999999999995,1649346098.1527798,1649346099.2629535,396913a9-3215-4902-9a12-7c4e1e1f787a
-0.1345330211530021,0.0529016500811807,-0.3135788376850209,-0.0460817369623442,-0.4360589660303189,0.2073856787595855,-0.6070183612338965,-0.6257552598053725,-17.500041925108857,23.54348857877767,27.06722741816133,0.7059365141692316,0.0685718968513877,1.9079074656853552,4578.75390625,11.968444444444446,0.15,179.0471905840999,-3.8121310624338856,97.58892551517152,1553.0,1435.0,1200.0,1623.0,1471.0,995.0,110.0,294.54999999999995,1649346099.3705723,1649346100.6925845,396913a9-3215-4902-9a12-7c4e1e1f787a
-0.1827229967846236,0.0245136147463485,-0.4917568565137353,-0.0005083545659771,-0.5970516462201749,0.203401623976587,-0.80203990115133,-0.8262992574712267,-18.787956154472248,24.13454335587412,27.07536538428225,0.5885805177391843,-0.0457536529231424,2.6435635532267674,4574.681477864583,11.947,0.14,179.04590043725668,-3.83152396162606,97.59779793090335,1553.0,1435.0,1200.0,1712.0,1471.0,995.0,110.0,294.54999999999995,1649346101.6035006,1649346102.7417328,a7d02e27-e27e-4e70-8ab8-32ebc8a1a716
-0.187824691401471,0.0255786591609362,-0.4938474997547096,0.0004646489891117,-0.5985768954784901,0.2017580370307057,-0.8051429949445361,-0.8277061689191609,-18.878982790244844,24.122010908059107,27.098064028218445,0.5824629194020169,-0.0415685479237203,2.6530198218411134,4568.990234375,11.949,0.1411111111111111,179.03873480990745,-3.835922982906502,97.5325658297802,1553.0,1435.0,1200.0,1712.0,1471.0,995.0,110.0,294.54999999999995,1649346102.8495586,1649346103.974715,a7d02e27-e27e-4e70-8ab8-32ebc8a1a716
-0.1824600228338437,0.0264727705136493,-0.4878385440395942,0.0023975073735849,-0.5940931886083433,0.1993781231071671,-0.7991077405380236,-0.8217498065840219,-18.687316593608283,24.170407111390187,27.18201656586537,0.5734847726402373,-0.0401719419010825,2.630486783362342,4568.990234375,11.945333333333332,0.14,179.06305028335268,-3.84010988886772,97.4891364513976,1553.0,1435.0,1200.0,1712.0,1471.0,995.0,110.0,294.54999999999995,1649346104.0835934,1649346105.2048342,a7d02e27-e27e-4e70-8ab8-32ebc8a1a716
-0.2245884498036729,0.0010694890235638,-0.6307386173226084,0.0588974555375165,-0.7204259080364344,0.178905603822054,-0.9636374642834176,-0.9810463487475346,-20.0659992487292,24.86159341479471,26.94492347435672,0.3967649479372804,-0.1395940990815595,3.2274396905525737,4588.55810546875,11.915,0.13,179.07160471583316,-3.8447920309756327,97.45985315369606,1553.0,1435.0,1200.0,1801.0,1471.0,995.0,110.0,294.54999999999995,1649346105.953107,1649346107.059229,5773c8f1-52c0-4df7-973c-df75022ea5ab
-0.2360015194332231,0.005750424970706,-0.6326977737078071,0.058082236372596,-0.7239497600163746,0.1767755151207563,-0.9669377890028424,-0.9880940551232084,-20.010886749692656,24.90232667159536,27.166238135678302,0.3940527827553361,-0.1244124606044405,3.240502023783829,4600.873046875,11.917333333333334,0.13,179.05726131857617,-3.8631594057230494,97.3733943424523,1553.0,1435.0,1200.0,1801.0,1471.0,995.0,110.0,294.54999999999995,1649346107.173481,1649346108.2701452,5773c8f1-52c0-4df7-973c-df75022ea5ab
-0.2234576618326166,0.0090901938572756,-0.6371157371407454,0.0531909213868852,-0.7289988613994981,0.176394202945842,-0.9726574753089434,-0.995049719370039,-20.131316908148484,24.916075789840114,26.89853937086884,0.4039973968904383,-0.1083389308417841,3.2614386642314006,4608.29345703125,11.914111111111112,0.13,179.06041231251325,-3.867099997987325,97.2890361938333,1553.0,1435.0,1200.0,1801.0,1471.0,995.0,110.0,294.54999999999995,1649346108.378329,1649346109.707279,5773c8f1-52c0-4df7-973c-df75022ea5ab
-0.0755479663931479,0.0777658345895144,-0.165011701488415,-0.0528533158540676,-0.270937609752202,0.1947497822033621,-0.4187158319620859,-0.4359011817707937,-16.243074173179,19.91118266744375,29.180549320924744,0.6771052484214395,0.1443913675948114,1.2206898119791798,7545.26953125,11.664,7.484444444444445,179.86489172461495,-4.041032994499554,84.8884725858383,1553.0,1435.0,1350.0,1528.0,1471.0,995.0,110.0,294.54999999999995,1649346113.456786,1649346114.6214802,cfcf5a63-a733-47fc-9735-e3bf8f5db754
-0.0557328803154593,0.0768585745511213,-0.173860774770593,-0.0620574035843245,-0.2803783748759051,0.2033884752730219,-0.4257635346062771,-0.4534809926409165,-16.287564470119783,19.921672415197936,29.01638257643013,0.7168600607350616,0.1433309019836584,1.2551877213234492,7556.357259114583,11.661666666666669,7.593333333333334,-179.86746746484198,-4.02536487256663,79.43314205968623,1553.0,1435.0,1350.0,1528.0,1471.0,995.0,110.0,294.54999999999995,1649346114.7295606,1649346115.8545618,cfcf5a63-a733-47fc-9735-e3bf8f5db754
-0.0828191957744001,0.0741939407050796,-0.1733302754362643,-0.0659913925204514,-0.2816173868685074,0.2087025712170085,-0.4239014765730806,-0.4456853309903523,-16.156767510821755,20.042613765240056,28.89282084649249,0.7385499526283864,0.1340263209040832,1.25301164298108,7558.5771484375,11.658,7.610000000000001,-179.75185057603144,-3.9959774144802185,75.04092516547728,1553.0,1435.0,1350.0,1528.0,1471.0,995.0,110.0,294.54999999999995,1649346115.966861,1649346117.0735662,cfcf5a63-a733-47fc-9735-e3bf8f5db754
0.1574732296688811,0.4760003758404651,-0.1439869345236602,-0.2981159687160152,-0.3497246096546872,0.0314824237923621,-0.4700877997738875,-0.4915464774940347,-15.520534799028445,18.78987212990907,29.227590474789345,0.8574589459759429,1.663993064811872,1.4195519964933478,7548.962836371527,11.624666666666664,7.605555555555556,179.95928038548507,-3.865573498139696,66.02604079446313,1658.0,1435.0,1350.0,1528.0,1551.0,995.0,110.0,294.54999999999995,1649346119.0121968,1649346120.3583324,7482a5c2-c4ae-40a9-8203-1b771c6cb6dc
0.1601161175242681,0.4762239036585059,-0.1455121834170951,-0.2994176897960136,-0.3524200928442484,0.0314429777100495,-0.4728227292607332,-0.4986467752277515,-15.532263998745696,18.907858518551585,29.065055104454046,0.8609810547502323,1.66642057136419,1.4289261461811944,7551.91748046875,11.631666666666668,7.598888888888889,179.86136431136362,-3.837200275713164,63.37431850749369,1658.0,1435.0,1350.0,1528.0,1551.0,995.0,110.0,294.54999999999995,1649346120.4669418,1649346121.512366,7482a5c2-c4ae-40a9-8203-1b771c6cb6dc
0.1537614623867575,0.4672345791157075,-0.147165632059737,-0.2931161762293569,-0.352586642994031,0.0353410182965404,-0.4750339021790895,-0.4917300115159906,-15.656576168473288,19.097938824699856,29.17539836226882,0.8566585500807632,1.6317295729457209,1.4335132906316443,7551.91748046875,11.625444444444446,7.610000000000001,179.78342122819504,-3.817093858912069,61.50308345480143,1658.0,1435.0,1350.0,1528.0,1551.0,995.0,110.0,294.54999999999995,1649346121.620098,1649346122.811834,7482a5c2-c4ae-40a9-8203-1b771c6cb6dc
0.3570835766765344,0.8478191731447597,-0.1179525142120507,-0.5234320743121115,-0.4216085458258587,-0.121647298008702,-0.5204604679831856,-0.5505578423137776,-15.144063713841978,18.48394076911776,29.66236332148609,1.0211410419711855,3.081408158357679,1.5977092461776616,7557.837185329861,11.586777777777776,7.571111111111112,179.3094379740123,-3.796660399372592,59.21244063612452,1767.0,1435.0,1350.0,1528.0,1630.0,995.0,110.0,294.54999999999995,1649346123.470537,1649346124.451273,f73d0f57-47bf-43cb-913c-3d8d36d75f38
0.3698509597819878,0.8387202761500285,-0.1271171560687777,-0.511677136697632,-0.4257766834117105,-0.120792632674602,-0.529993275365438,-0.5539239096329439,-15.39863897884517,18.459505155956457,29.984724947321823,0.9958502448032176,3.044197812472133,1.6287402642381388,7554.137369791667,11.584333333333332,7.596666666666668,179.21239768192436,-3.7720246185143935,57.99152534923706,1767.0,1435.0,1350.0,1528.0,1630.0,995.0,110.0,294.54999999999995,1649346124.5593712,1649346125.6784525,f73d0f57-47bf-43cb-913c-3d8d36d75f38
0.3651042807885507,0.8455050028103736,-0.1145601503667535,-0.5150957986588658,-0.41968883576316,-0.1202798335100605,-0.5201186017948415,-0.5356340677706986,-15.164661567455967,18.82589614267091,30.6354614497948,1.007989851403159,3.0634443381396284,1.5909944198230344,7558.5771484375,11.586555555555556,7.6,179.065483348517,-3.766790701471656,56.87496738431335,1767.0,1435.0,1350.0,1528.0,1630.0,995.0,110.0,294.54999999999995,1649346125.786868,1649346126.9176655,f73d0f57-47bf-43cb-913c-3d8d36d75f38
0.4726606072811523,1.040618491657134,-0.0615446044194675,-0.6913278319020567,-0.4318776798163286,-0.1889949255238537,-0.5023021136595992,-0.5214071748091617,-14.655229419622124,19.050979272289023,25.245336384080883,1.2546432961319822,3.864468111812907,1.5246882753127706,7558.5771484375,11.521,7.56,178.5360734886746,-3.693643573181247,54.67767366222853,1886.0,1435.0,1350.0,1528.0,1710.0,995.0,110.0,294.54999999999995,1649346129.0472794,1649346130.1822703,99fd6718-b532-43b7-9060-ce44da4978f2
0.4910161855825111,1.0506509463033298,-0.0498422643392239,-0.7051208196375548,-0.4240410551883086,-0.1843139891905723,-0.4897056594316875,-0.5106778353878301,-14.60811263062237,19.024095726255027,25.596034242511355,1.296759690903504,3.901093831143936,1.4817598663857958,7551.91748046875,11.522333333333332,7.571111111111112,178.40259679354935,-3.672671121595704,54.06509472329694,1886.0,1435.0,1350.0,1528.0,1710.0,995.0,110.0,294.54999999999995,1649346130.290849,1649346131.4092643,99fd6718-b532-43b7-9060-ce44da4978f2
0.4932383150637695,1.0433797177214696,-0.0509862008965472,-0.7071588684301837,-0.426000211297224,-0.1719673623169245,-0.4891534140359513,-0.5089159102374344,-14.605684625200436,19.24991882857985,26.06631288791373,1.3306177843459974,3.869819288260061,1.4848759528303426,7551.91748046875,11.518,7.571111111111112,178.2928144041098,-3.6655765471865687,53.51992306357981,1886.0,1435.0,1350.0,1528.0,1710.0,995.0,110.0,294.54999999999995,1649346131.5218155,1649346132.6413238,99fd6718-b532-43b7-9060-ce44da4978f2
-0.3324295195646544,-0.3823945741279245,-0.2064422357082395,0.1815328143699014,-0.2014988311349027,0.4105097597109585,-0.3638726092184879,-0.376932807154904,-16.762405248489273,20.870185587134788,26.483576260696417,0.6368320928424432,-1.5853791987163186,1.0463160468579862,7555.617296006944,11.639555555555557,7.664444444444445,179.05004256753335,-3.691528088097377,52.49602989567072,1449.0,1435.0,1350.0,1528.0,1386.0,995.0,110.0,294.54999999999995,1649346134.5760262,1649346135.9261084,a4f0b1cc-7bed-41fa-957a-90e3602eb84d
-0.318812019553622,-0.385620556791257,-0.2136881795871398,0.1708848993312831,-0.2142535735609568,0.4239052457601096,-0.3723666685837098,-0.4004654384389131,-16.72058400981855,21.40725256308325,26.47735654964305,0.6941721686936003,-1.5968587300401795,1.084975562780122,7562.283203125,11.638777777777776,7.654444444444445,178.9686054631494,-3.68141499696192,52.10424796814905,1449.0,1435.0,1350.0,1528.0,1386.0,995.0,110.0,294.54999999999995,1649346136.0411198,1649346137.3533676,a4f0b1cc-7bed-41fa-957a-90e3602eb84d
-0.3129739975317371,-0.3805714564738678,-0.2071664255290213,0.1740931811093773,-0.2103878564355229,0.4215121832513674,-0.3689611555790694,-0.3970993714597285,-16.689476439209987,21.61353422335482,27.295510919515568,0.6833958232081191,-1.5853710526225444,1.0677018219617067,7565.248046875,11.641,7.66,178.8555187799714,-3.646896169534061,51.83189379553985,1449.0,1435.0,1350.0,1528.0,1386.0,995.0,110.0,294.54999999999995,1649346137.4617631,1649346138.588848,a4f0b1cc-7bed-41fa-957a-90e3602eb84d
-0.5642456389324731,-0.8039464629790545,-0.2350679621189807,0.428717668158432,-0.137267950355116,0.5974285743557891,-0.3231905362322977,-0.3423087442187534,-17.38563398591593,23.25986359368171,26.716143704297902,0.5134146069248641,-3.1963132001738863,0.8899996043415996,7565.248046875,11.596,7.646666666666666,178.8834375576588,-3.595768029592022,51.29458975483666,1342.0,1435.0,1350.0,1528.0,1293.0,995.0,110.0,294.54999999999995,1649346140.516121,1649346141.6559083,69561e45-4ce0-4ba9-9bf9-6dee8f0347a7
-0.5546470878579219,-0.7954524012547318,-0.2305316612289317,0.4223405510222386,-0.1348222925634159,0.5937206423728302,-0.3178784620090381,-0.3457011081144036,-17.202713673057843,23.10340096084221,26.576282274424766,0.5187260530325938,-3.16344029764577,0.8738885314387204,7558.5771484375,11.594666666666669,7.646666666666666,178.8229038677747,-3.588746595125249,51.14150814006376,1342.0,1435.0,1350.0,1528.0,1293.0,995.0,110.0,294.54999999999995,1649346141.764766,1649346142.883962,69561e45-4ce0-4ba9-9bf9-6dee8f0347a7
-0.5642982337829623,-0.8029997564258788,-0.2362118987002704,0.4223799970986019,-0.1382015077723484,0.6024776732261352,-0.3214286106006462,-0.3473972902554799,-17.33859212992068,23.105671580243925,26.740117746553786,0.5380052228080827,-3.1926027385470594,0.8905108244294149,7558.5771484375,11.593666666666667,7.637777777777777,178.7838245609835,-3.5820764885139087,50.94964509063847,1342.0,1435.0,1350.0,1528.0,1293.0,995.0,110.0,294.54999999999995,1649346142.9917862,1649346144.1139843,69561e45-4ce0-4ba9-9bf9-6dee8f0347a7
-0.8070627054975441,-1.2170393191795037,-0.2773541744707253,0.6463811657262906,-0.0889201912592095,0.7848895186515787,-0.2959201360426067,-0.3263593725140719,-18.25674783663424,25.468987434938644,24.24045065165733,0.4553746977683524,-4.746997325020844,0.7898783441185754,7558.5771484375,11.494444444444447,7.583333333333333,178.93421470176847,-3.568327080555327,50.70466783404248,1227.0,1435.0,1350.0,1528.0,1189.0,995.0,110.0,294.54999999999995,1649346146.0456722,1649346147.1830432,6b6183a2-5452-4f83-9e48-2f0c6881dfee
-0.7988184691114333,-1.233107039560355,-0.2816275012888408,0.658451667706247,-0.0901430200745136,0.7879531645894644,-0.2992073105721074,-0.3209289606205003,-18.24913172604365,25.638730906329627,23.98694701445351,0.4359069147232208,-4.806822318704565,0.7997888873352997,7558.5771484375,11.504444444444443,7.601111111111111,178.94523255580958,-3.5625174591997344,50.65576595631492,1227.0,1435.0,1350.0,1528.0,1189.0,995.0,110.0,294.54999999999995,1649346147.2910943,1649346148.624636,6b6183a2-5452-4f83-9e48-2f0c6881dfee
-0.8089692673987074,-1.2368412724658169,-0.2802994827368258,0.6670903602977082,-0.0875395780132671,0.7936728469241083,-0.2984315373404198,-0.3172867706770533,-18.363853686840127,25.77449534557796,25.41696582160933,0.4304093611214268,-4.833667325456422,0.7948330035442714,7569.703450520833,11.512333333333332,7.606666666666667,178.95599238048212,-3.5705025195219102,50.64475531191791,1227.0,1435.0,1350.0,1528.0,1189.0,995.0,110.0,294.54999999999995,1649346148.7329242,1649346149.845929,6b6183a2-5452-4f83-9e48-2f0c6881dfee
-0.0815700695939312,0.0608171652129331,-0.1917035572522611,-0.0823195454341499,-0.2940398722476679,0.2370228387099764,-0.4314306239397867,-0.4500360338070732,-16.40838637466089,19.63979991991052,28.82459260981025,0.835298984700881,0.0870796269577635,1.303827595591728,7574.906629774306,11.656666666666666,7.627777777777778,178.5059208596737,-3.530091895025007,50.71890308663765,1553.0,1435.0,1350.0,1528.0,1471.0,995.0,110.0,294.54999999999995,1649346151.4718971,1649346152.6189334,5cce4f31-54e7-45d3-b941-9838da3dfc51
-0.0730760114178479,0.0708233230141822,-0.1920322746846446,-0.0898406000741795,-0.29618311005191,0.2341301256767323,-0.4321143562944381,-0.4644864544607209,-16.365095274152523,19.50310698240488,28.82010449587465,0.8448628831475896,0.125245022330322,1.309393176747316,7578.6259765625,11.657666666666668,7.628888888888889,178.4783769834807,-3.535588608339248,50.773981352649685,1553.0,1435.0,1350.0,1528.0,1471.0,995.0,110.0,294.54999999999995,1649346152.7270176,1649346153.6779978,5cce4f31-54e7-45d3-b941-9838da3dfc51
-0.0775465683571729,0.0698240221107508,-0.1902834979118,-0.0908793470959459,-0.2953284446734243,0.2312637100526469,-0.4316147057320132,-0.4460782748912449,-16.37052567213025,19.59993401090872,28.14537876321606,0.8413834900679197,0.1277559457768484,1.3040087187086875,7594.299153645833,11.653,7.706666666666667,178.51233061275474,-3.526066589442277,50.80679813488186,1553.0,1435.0,1350.0,1528.0,1471.0,995.0,110.0,294.54999999999995,1649346153.7869842,1649346154.7638834,5cce4f31-54e7-45d3-b941-9838da3dfc51
-0.0467867093519435,0.0646864219293265,-0.2100834135124757,-0.3818509262092525,-0.3433277678333196,0.524941335981869,-0.3695872359305773,-0.3996522416416593,-16.388803639153913,19.00400026853759,31.25676448810149,2.153227273874601,0.1155995688560439,1.309508315076394,7598.7822265625,11.646444444444445,7.763333333333334,178.57681215197914,-3.416138702743872,50.82265328067519,1553.0,1522.0,1350.0,1528.0,1471.0,995.0,110.0,294.54999999999995,1649346156.4907196,1649346157.833421,30847072-0e4c-4d88-b09f-1da668ecd03f
-0.0721161565343894,0.0617375739483627,-0.2160680938232883,-0.3807818358900111,-0.3468450446778462,0.5264913648320179,-0.3741285941544294,-0.4024377426787392,-16.466806360951317,18.867640291469737,31.167902268893364,2.153043416210244,0.1053659264429872,1.3284513239347324,7598.7822265625,11.649,7.79,178.58596460546693,-3.4165754553957988,50.832170010918745,1553.0,1522.0,1350.0,1528.0,1471.0,995.0,110.0,294.54999999999995,1649346157.9417503,1649346159.0622337,30847072-0e4c-4d88-b09f-1da668ecd03f
-0.0650290089753572,0.0645645436300242,-0.2164757035150117,-0.3877243487946006,-0.3498166506128765,0.5282138438842632,-0.3750490031247533,-0.3994924342051791,-16.4228856280473,18.971861006189105,30.891291690333784,2.1732232755383065,0.1189402131307909,1.3342438386808482,7598.7822265625,11.648333333333332,7.726666666666666,178.63449841188924,-3.441570342935984,50.84619618383432,1553.0,1522.0,1350.0,1528.0,1471.0,995.0,110.0,294.54999999999995,1649346159.1700544,1649346160.4918654,30847072-0e4c-4d88-b09f-1da668ecd03f
-0.0461343317499106,0.0658399671626389,-0.2525425813587996,-0.765394468405209,-0.4253164789294269,0.8925641826467451,-0.3103442578962836,-0.32954135759266,-16.335768552521607,18.29503990017532,33.54174628897146,3.838082127424951,0.1438176705294798,1.3950345035215326,7598.7822265625,11.631333333333332,7.723333333333334,178.6596532396925,-3.35990494896538,50.96282925301136,1553.0,1613.0,1350.0,1528.0,1471.0,995.0,110.0,294.54999999999995,1649346161.6090212,1649346162.7478268,27326251-8cd2-402b-ba70-2f7dee360179
-0.0484090562848476,0.0618164661192533,-0.2531605702186938,-0.7529952423805476,-0.4237780812411498,0.8878438010877506,-0.3122113731015484,-0.3391925028559996,-16.342630974183816,18.31890600315241,33.92334257770027,3.7996899975496814,0.1238282050417224,1.3965853986208372,7598.7822265625,11.633444444444445,7.735555555555556,178.68178608824294,-3.345569567694254,51.0053092350993,1553.0,1613.0,1350.0,1528.0,1471.0,995.0,110.0,294.54999999999995,1649346162.8558772,1649346163.984378,27326251-8cd2-402b-ba70-2f7dee360179
-0.0516699330525949,0.0638413653453361,-0.2528581500717474,-0.7556907262791768,-0.4262631852634772,0.8867261619953507,-0.3129477001517722,-0.3406520078900608,-16.202007367988152,18.4646192451989,33.68962355665981,3.8042734039266297,0.1328524695273509,1.40053661775541,7598.7822265625,11.633333333333333,7.73,178.6862682101583,-3.325030097927033,51.03918962956724,1553.0,1613.0,1350.0,1528.0,1471.0,995.0,110.0,294.54999999999995,1649346164.0960944,1649346165.207042,27326251-8cd2-402b-ba70-2f7dee360179
-0.0446222316140449,0.0611853287039313,-0.2821928952432507,-1.1174904619873864,-0.4966744702453927,1.2410572100839738,-0.2499522878171366,-0.2808648768187291,-16.293628362908304,18.35873812110773,36.459002556441376,5.414866904481439,0.1416780812563825,1.447125448673483,7598.7822265625,11.59122222222222,7.702222222222222,178.72896903502942,-3.203746405119182,51.12815056677694,1553.0,1710.0,1350.0,1528.0,1471.0,995.0,110.0,294.54999999999995,1649346167.1452472,1649346168.278672,ebf6a566-9ff6-41bf-9416-00f9a487f3e7
-0.0448983542504609,0.0643936105842086,-0.2808517280362999,-1.116951365100607,-0.4945575295998735,1.2380724560775418,-0.2488346484726666,-0.2693334685831493,-16.3400936858625,18.23569201566036,36.56328074608157,5.406188019960857,0.1531323057983437,1.441380670732681,7598.7822265625,11.599555555555558,7.722222222222222,178.75120661314713,-3.207466249464032,51.10964834322528,1553.0,1710.0,1350.0,1528.0,1471.0,995.0,110.0,294.54999999999995,1649346168.3872645,1649346169.505905,ebf6a566-9ff6-41bf-9416-00f9a487f3e7
-0.0385343850663379,0.0650641940823505,-0.2931063146922801,-1.1270364225909115,-0.5073117683351667,1.2397028943935802,-0.2577494656563491,-0.2869395752414735,-16.135108917933323,18.042231312520823,35.48866122420466,5.430640463971432,0.1641824255637725,1.486849364188204,7598.7822265625,11.602,7.725555555555555,178.76739112584042,-3.222440277138488,51.13966095334823,1553.0,1710.0,1350.0,1528.0,1471.0,995.0,110.0,294.54999999999995,1649346169.6144087,1649346170.7361815,ebf6a566-9ff6-41bf-9416-00f9a487f3e7
-0.0229794769680961,0.0676413385383484,-0.2799576165746195,-1.3021509063293024,-0.5226431522456774,1.4079273179640126,-0.2076397785648681,-0.2240756506302039,-16.146842659807042,18.77410564872596,37.07259272136471,6.209431559603797,0.1822992983554956,1.419164452841427,7598.7822265625,11.566555555555556,7.680000000000001,178.7704783713453,-3.180212893470165,51.20637672334109,1553.0,1814.0,1350.0,1528.0,1471.0,995.0,110.0,294.54999999999995,1649346172.4671545,1649346173.5990832,2a27c785-811d-4999-9611-160ded7d2447
-0.0226507595342107,0.0661423871694691,-0.2766046987391196,-1.3042546997886513,-0.5176860926396464,1.4152774394283856,-0.2031166266412263,-0.2275337582179373,-16.374682927487402,18.729155178018168,37.66500915087938,6.230542622989313,0.1735101616895432,1.4018972037323332,7598.7822265625,11.552,7.699999999999999,178.78192425057443,-3.180846559527226,51.21810377869105,1553.0,1814.0,1350.0,1528.0,1471.0,995.0,110.0,294.54999999999995,1649346173.7088263,1649346175.0432518,2a27c785-811d-4999-9611-160ded7d2447
-0.0313420479929804,0.0696136429676754,-0.2783666242661801,-1.3065294266898195,-0.5250099183999776,1.4094131204934697,-0.2059961913929086,-0.2361593041981249,-15.875788161164389,18.95026157770656,36.99429753023458,6.224018166421079,0.1891150478038248,1.4180863448937204,7598.7822265625,11.557666666666668,7.713333333333334,178.81240359029064,-3.190234085358978,51.22722132232311,1553.0,1814.0,1350.0,1528.0,1471.0,995.0,110.0,294.54999999999995,1649346175.176079,1649346176.2646823,2a27c785-811d-4999-9611-160ded7d2447
-0.0955208369953348,0.0707575795336499,-0.1357164040205028,0.3140741941928368,-0.2069297489668868,-0.1512187179388621,-0.4909153397568359,-0.5120058543469986,-16.40229670726292,21.158832621347663,26.876812498923776,-0.9187485758074097,0.0963527442225273,1.194869422383415,7598.7822265625,11.651444444444444,7.745555555555557,178.85281554287985,-3.718246602333737,51.32300068559925,1553.0,1349.0,1350.0,1528.0,1471.0,995.0,110.0,294.54999999999995,1649346178.6075776,1649346179.764644,618fddd7-995b-4f11-ba50-2f36a07fe5f3
-0.0738932535046051,0.0760018864269871,-0.1430503427179514,0.2983665603767336,-0.2157221819178258,-0.1552002446202599,-0.4948033090874201,-0.5269038369999515,-16.135362461850647,20.837026273121275,24.94548913027257,-0.8949349949450472,0.1327136146023109,1.2204692627442906,7598.7822265625,11.652888888888889,7.745555555555557,178.86335983713855,-3.73372973997664,51.42195267174485,1553.0,1349.0,1350.0,1528.0,1471.0,995.0,110.0,294.54999999999995,1649346179.873916,1649346180.984475,618fddd7-995b-4f11-ba50-2f36a07fe5f3
-0.0869787354579922,0.0704136905546142,-0.1400413139150813,0.3051558386852335,-0.2103994879545922,-0.1507246303786486,-0.492603430504755,-0.5117954749226217,-16.39305117321461,20.941673706739763,25.711811643697857,-0.8993566482996003,0.1061430683910942,1.2062267952240755,7598.7822265625,11.651111111111112,7.754444444444443,178.8403982589688,-3.716107425031185,51.53995974730993,1553.0,1349.0,1350.0,1528.0,1471.0,995.0,110.0,294.54999999999995,1649346181.0981555,1649346182.2142112,618fddd7-995b-4f11-ba50-2f36a07fe5f3
-0.0925229341236982,0.0810793060132234,-0.0973222085314811,0.6342317715774719,-0.14342154051439,-0.4778455324146335,-0.551228425808417,-0.5661653498670143,-16.63407328410993,22.47947671256553,23.69496873988364,-2.3648770862622768,0.1279446867770668,1.14077070292904,7598.7822265625,11.63,7.760000000000001,178.84777030981297,-3.8413537422065698,51.63868557830302,1553.0,1264.0,1350.0,1528.0,1471.0,995.0,110.0,294.54999999999995,1649346183.1172378,1649346184.0716202,5d17cbdb-db2d-4adf-9a18-d73ff2252494
-0.0895513285808457,0.0716516908706951,-0.0987422678463204,0.6458946640131609,-0.1412125594172098,-0.4747555880277225,-0.5520699426414569,-0.5759742800114492,-16.75156416209957,22.51403740140608,24.33890061711648,-2.38404029450089,0.0861844278680588,1.140669208164341,7598.7822265625,11.621666666666666,7.739999999999999,178.8443370013902,-3.844325870564779,51.710441268993456,1553.0,1264.0,1350.0,1528.0,1471.0,995.0,110.0,294.54999999999995,1649346184.1802757,1649346185.3787177,5d17cbdb-db2d-4adf-9a18-d73ff2252494
-0.0982820634019855,0.073676590086245,-0.1011616281416885,0.6326670768760759,-0.1464588896850908,-0.4688255246398531,-0.5520830914331648,-0.5735023240398767,-16.59141371456318,22.51229086377353,23.72257205814732,-2.3410261311486376,0.0995832249624459,1.1505039441984346,7598.7822265625,11.625999999999998,7.736666666666666,178.86531478906102,-3.846399686751525,51.76568156227079,1553.0,1264.0,1350.0,1528.0,1471.0,995.0,110.0,294.54999999999995,1649346185.4868991,1649346186.608413,5d17cbdb-db2d-4adf-9a18-d73ff2252494
-0.1075913408450693,0.0860626618314344,-0.0722870896980667,0.9530876266931247,-0.093561681239103,-0.7983845619427962,-0.6233096013252759,-0.6399295593552049,-16.740948973956204,23.892653305361986,20.366134270067008,-3.794401507510535,0.1392481957758065,1.1394113670753123,7598.7822265625,11.606111111111112,7.775555555555554,178.8691123742395,-3.964301273839423,51.83755867854647,1553.0,1178.0,1350.0,1528.0,1471.0,995.0,110.0,294.54999999999995,1649346187.5253518,1649346188.6550636,e9338a4e-e266-4c89-aee4-7db9b2819fab
-0.0950080378340382,0.0921636568279303,-0.0596906381881605,0.9606875725384192,-0.0826877089078948,-0.8025658492730315,-0.616104113420539,-0.6405344000031328,-16.930267781818625,24.149966680714844,21.68976305654986,-3.8184923578074166,0.1516064955496061,1.0996049125689915,7598.7822265625,11.600444444444443,7.737777777777778,178.88796521416856,-3.996953467485361,51.88957246635088,1553.0,1178.0,1350.0,1528.0,1471.0,995.0,110.0,294.54999999999995,1649346188.7670033,1649346189.891978,e9338a4e-e266-4c89-aee4-7db9b2819fab
-0.0967305171212732,0.0887318471526979,-0.066304432624376,0.9640141924667708,-0.0876579163090003,-0.8055243073629361,-0.6214293371286042,-0.6428485709830849,-16.821125144682405,24.03338378402587,21.18180879316442,-3.833772643825491,0.1416337892245586,1.121993496409677,7598.7822265625,11.606666666666667,7.713333333333334,178.89823174740104,-3.999621320402421,51.97051438202003,1553.0,1178.0,1350.0,1528.0,1471.0,995.0,110.0,294.54999999999995,1649346190.009128,1649346191.1179016,e9338a4e-e266-4c89-aee4-7db9b2819fab
-0.1236064538470556,0.0745312553245294,-0.0426630758923213,1.134842044442914,-0.0545363490432717,-0.9537627875640976,-0.6492914342556284,-0.6733272600233217,-16.891670372268162,25.56727851245613,20.458819934634526,-4.541035287026907,0.0757722546049589,1.0824056190862574,7598.7822265625,11.587333333333332,7.625555555555555,178.9130562935396,-4.0491241124813415,52.09597053778491,1553.0,1088.0,1350.0,1528.0,1471.0,995.0,110.0,294.54999999999995,1649346192.015138,1649346192.9604435,a5a9afcc-1244-4125-9025-dc12b31784ec
-0.1097345784645207,0.0838931269763142,-0.0429786447577234,1.1360122784269435,-0.0550097022443195,-0.9642160075426444,-0.6531308551281337,-0.6780476446094755,-17.008593649088525,25.471238597966497,20.41582491341628,-4.567882912488333,0.1119278682594343,1.089987072378925,7598.7822265625,11.57822222222222,7.639999999999999,178.90844819257953,-4.055137762022453,52.16280507717835,1553.0,1088.0,1350.0,1528.0,1471.0,995.0,110.0,294.54999999999995,1649346193.075753,1649346194.121705,a5a9afcc-1244-4125-9025-dc12b31784ec
