raw_voltage_G-,raw_voltage_G0,raw_voltage_G1,raw_voltage_G2,raw_voltage_G3,raw_voltage_G4,raw_voltage_G5,raw_voltage_G6,load_x,load_y,load_z,load_l,load_m,load_n,rpm,voltage,current,roll,pitch,yaw,aileron1_pwm,elevator_pwm,throttle_pwm,rudder_pwm,aileron2_pwm,pbaro,pdiff,Tt,sample_start_time,sample_end_time,uid
0.2039867409468595,0.3368138514241569,0.4073110867070841,-0.3409129592278376,0.1486357888247742,0.1599386098529381,0.1823798936839494,0.1615189821338261,-6.978370466215055,20.389145901365616,27.070114288935464,1.2846654067610972,1.1408669943474148,-0.9546301352930324,3022.2100694444443,11.95688888888889,0.2211111111111111,179.39231852504088,-9.03342463492492,104.42902225403031,1553.0,1435.0,1200.0,1528.0,1471.0,998.0,60.0,292.7,1649241725.2560596,1649241726.445563,94b1d95d-d901-4733-9b09-c9e8a1b43f58
0.2066230544364907,0.3416207110088636,0.41583194691342,-0.3417433499631444,0.1560005756637872,0.1584330842709602,0.1923304221310113,0.1765519871633789,-6.779158490047487,20.267517918425725,27.48820183735777,1.2829403669740014,1.1544205207907998,-0.9890902866503064,3227.2509765625,11.95877777777778,0.22,179.2930789120402,-8.989445710905377,104.02862290450584,1553.0,1435.0,1200.0,1528.0,1471.0,998.0,60.0,292.7,1649241726.5532322,1649241727.6727085,94b1d95d-d901-4733-9b09-c9e8a1b43f58
0.206414192460859,0.3395826632259165,0.4149853732459745,-0.345628790091431,0.1557411418285496,0.166399171164642,0.1939229314837086,0.1723919422157819,-6.813102466342458,20.21881717380605,27.83157400347231,1.3092784810035316,1.1443974374113528,-0.9896504751666816,3266.1388888888887,11.961777777777778,0.22,179.1577834893209,-8.95623401092993,103.60444766648054,1553.0,1435.0,1200.0,1528.0,1471.0,998.0,60.0,292.7,1649241727.7819517,1649241728.8990085,94b1d95d-d901-4733-9b09-c9e8a1b43f58
0.3305429351893521,0.4932580381202144,0.4435079273319825,-0.3608256515884391,0.1513540288442184,0.0240518929724869,0.1694208426488265,0.1475232069124079,-6.669499791176291,20.2512031988248,27.02668522048558,1.0252644423179949,1.730570637659917,-0.9702552987719986,3281.556640625,11.94922222222222,0.22,178.85140397045143,-8.947818838417518,103.02667968785944,1647.0,1435.0,1200.0,1528.0,1543.0,998.0,60.0,292.7,1649241729.8072608,1649241730.9605217,2d8d514d-060e-40a1-b81c-905ab043c81c
0.3314026575699803,0.4964187821227549,0.4477812532026081,-0.3682091513284712,0.1538320522167914,0.0292987286578596,0.1741998877297426,0.1437176708019546,-6.700970491927962,20.293243159751228,27.28065047784434,1.054226262178014,1.7415778894983494,-0.9856231671132656,3282.534505208333,11.955,0.22,178.77400426677684,-8.908207440917245,102.79290128531758,1647.0,1435.0,1200.0,1528.0,1543.0,998.0,60.0,292.7,1649241731.0967052,1649241732.187993,2d8d514d-060e-40a1-b81c-905ab043c81c
0.3317819468589436,0.4939154728693786,0.4436849289571445,-0.3627473842127917,0.1514678155737817,0.0266942753533471,0.1684094044045867,0.1456267603421937,-6.852803820520295,20.32816884946912,27.239042600057463,1.0359977948287464,1.7327008131119552,-0.9690090465045972,3280.30078125,11.950666666666669,0.2133333333333333,178.68571268810578,-8.883648262527863,102.61814861867308,1647.0,1435.0,1200.0,1528.0,1543.0,998.0,60.0,292.7,1649241732.296551,1649241733.4038346,2d8d514d-060e-40a1-b81c-905ab043c81c
0.4119004870835376,0.6410670700878238,0.4739395706871478,-0.372912339697935,0.1501023740838192,-0.1146542141950685,0.1473841339950407,0.1224901126751992,-6.601329371853254,20.353658396007265,26.345758532325284,0.742958158442783,2.293915988764201,-0.9618324342027988,3278.62890625,11.934111111111111,0.2155555555555555,178.46717395542208,-8.874952483077054,102.26753527691874,1745.0,1435.0,1200.0,1528.0,1614.0,998.0,60.0,292.7,1649241734.314702,1649241735.369695,e48df9d3-9fef-4365-a12a-88018c2a84cb
0.4177794709881884,0.652572178182141,0.4743062170201359,-0.3780833183493388,0.1471312745869272,-0.118333320820533,0.1463094810207358,0.1210614563177734,-6.458896630078663,20.33228825578103,26.74491451210605,0.7463670916376616,2.3331808650050267,-0.9547372604332912,3285.330078125,11.930777777777775,0.21,178.40290794661152,-8.868983277197417,102.10056978483794,1745.0,1435.0,1200.0,1528.0,1614.0,998.0,60.0,292.7,1649241735.4783504,1649241736.689228,e48df9d3-9fef-4365-a12a-88018c2a84cb
0.4162243849273827,0.6460610455793812,0.4709305424198554,-0.3817877113781578,0.145816405013414,-0.1112279671895263,0.145639403323372,0.1193040825523316,-6.573576146018705,20.26204990254322,26.349258428192552,0.7699354718571636,2.313319421425469,-0.9488206338325704,3282.394856770833,11.932333333333332,0.21,178.34600184608655,-8.856607828195,101.9759469121518,1745.0,1435.0,1200.0,1528.0,1614.0,998.0,60.0,292.7,1649241736.8186388,1649241737.769574,e48df9d3-9fef-4365-a12a-88018c2a84cb
0.4706903258873565,0.7914805548832295,0.504472357785882,-0.3932928228813426,0.1457405470577084,-0.2529178251865809,0.1227809009996807,0.0904780950243305,-6.627557966514336,20.694197887426903,24.993364721577045,0.4817837642871299,2.874680544069541,-0.9465254454172034,3278.4190673828125,11.912,0.2,178.1150845338971,-8.818735994498965,101.69150368416663,1849.0,1435.0,1200.0,1528.0,1686.0,998.0,60.0,292.7,1649241739.8443878,1649241740.9807098,cdce9ea9-33b4-483d-a991-1a181a23ad5d
0.4946740514345661,0.7883830257702779,0.5015391873844093,-0.3901826497407855,0.1427694475821322,-0.252209818268951,0.1203281636267901,0.090237878333137,-6.515528520595729,20.75015261915807,25.04765454905841,0.476648887013161,2.861220913073974,-0.9352038709989844,3283.512478298612,11.918666666666669,0.21,178.07628981832133,-8.806808065182791,101.60482023559015,1849.0,1435.0,1200.0,1528.0,1686.0,998.0,60.0,292.7,1649241741.095782,1649241742.4117508,cdce9ea9-33b4-483d-a991-1a181a23ad5d
0.4966210697402276,0.7898243250341603,0.501931119636845,-0.3891079971208765,0.1435785980771118,-0.2555096363224166,0.1206948100049536,0.0931963351256039,-6.486747057205037,20.667805253647312,24.923827678935545,0.4662779763398323,2.867411565037546,-0.9372991387597212,3279.046142578125,11.919111111111112,0.2011111111111111,178.05915059696406,-8.789405027768813,101.53385153447412,1849.0,1435.0,1200.0,1528.0,1686.0,998.0,60.0,292.7,1649241742.5206864,1649241743.6505897,cdce9ea9-33b4-483d-a991-1a181a23ad5d
0.5325903364491688,0.867325768058972,0.5279756501659754,-0.386718473899642,0.15101266837345,-0.3438334875076305,0.112489517735426,0.0900861626949623,-6.500478117716436,21.050742905256445,23.54084831333121,0.2660203275084282,3.171806970434268,-0.963962288868137,3274.0361328125,11.852555555555556,0.19,177.9897133760419,-8.806026957160208,101.43768398878017,1962.0,1435.0,1200.0,1528.0,1760.0,998.0,60.0,292.7,1649241744.7598858,1649241745.8976593,e0402115-72ca-4aaa-84ff-f0100da4291e
0.5131191419892552,0.8677394462342539,0.5224547154255297,-0.3852260962001582,0.1459418232669062,-0.3461350151778787,0.1054832857240595,0.0847872381763422,-6.58320291389013,21.075603684810584,23.418633772208103,0.2573108252333977,3.1744938854334084,-0.9397318783830062,3272.785888671875,11.863111111111111,0.1988888888888889,178.00202441256587,-8.789203916643253,101.24246579865256,1962.0,1435.0,1200.0,1528.0,1760.0,998.0,60.0,292.7,1649241746.0065277,1649241747.1275606,e0402115-72ca-4aaa-84ff-f0100da4291e
0.4947751952356677,0.8648098158199427,0.5216415192004589,-0.3839370178460145,0.146461196713215,-0.3442127763540067,0.1062944590936074,0.0834991717010695,-6.565374011985164,20.99857891736593,23.45337669816694,0.2581859221971843,3.1628603041875305,-0.9407358462786826,3264.480360243056,11.857,0.1955555555555555,177.98660032760017,-8.791324310925587,101.09079461794327,1962.0,1435.0,1200.0,1528.0,1760.0,998.0,60.0,292.7,1649241747.2366924,1649241748.3549678,e0402115-72ca-4aaa-84ff-f0100da4291e
0.1341090085272447,0.1611649788932566,0.3903821416285031,-0.3333271712616988,0.1659313810403627,0.3346266164637361,0.2301577023869017,0.2142907668078308,-6.909034652223776,20.42093324013864,28.547415872534163,1.6597391691792287,0.4664862616070309,-1.042204734035687,3267.2455783420137,11.956555555555555,0.22,178.48167520593995,-8.720164649103978,100.91346696998168,1459.0,1435.0,1200.0,1528.0,1394.0,998.0,60.0,292.7,1649241749.265272,1649241750.4090817,e13ac099-64f1-4c20-9cac-a69670a1d1b5
0.1154859035713418,0.1702932081052837,0.3903694986696258,-0.3345156112271354,0.1643257230236346,0.3281407696689496,0.2284003286708296,0.2119138872570219,-6.837367960363939,20.34924456452661,28.734851866661792,1.6474355259612918,0.4986984964627672,-1.036060411432337,3283.512478298612,11.954666666666668,0.22,178.45787427341216,-8.691101150684451,100.96083129623608,1459.0,1435.0,1200.0,1528.0,1394.0,998.0,60.0,292.7,1649241750.5427144,1649241751.4886365,e13ac099-64f1-4c20-9cac-a69670a1d1b5
0.1295069649228341,0.1718862231695108,0.3912165780854114,-0.3369051344723952,0.1638958618416892,0.3271166885464615,0.2289186907195056,0.1989295502593406,-6.776734855311854,20.38466263916535,28.503008570922,1.6507949915406823,0.5066474490094344,-1.0374949497084092,3289.112060546875,11.954444444444444,0.22,178.43808797429654,-8.659782361746482,101.02213527967656,1459.0,1435.0,1200.0,1528.0,1394.0,998.0,60.0,292.7,1649241751.5961585,1649241752.6588104,e13ac099-64f1-4c20-9cac-a69670a1d1b5
0.0226738086886062,-0.0066705417590997,0.3730359783144066,-0.3222266356096961,0.1790295049614987,0.4922971718961886,0.2697555048127344,0.2490463093815195,-6.834421757690498,20.7449024831529,29.117873030695144,1.99041827149573,-0.1710438965935782,-1.1122659454095831,3292.903076171875,11.938333333333333,0.21,178.52105504105458,-8.64059598091296,101.12664248634714,1364.0,1435.0,1200.0,1528.0,1312.0,998.0,60.0,292.7,1649241754.804747,1649241755.9344904,2ce70a50-a53c-46dc-845e-83cef817d775
0.0318526101760756,-0.0063671102797318,0.3755013586646459,-0.3200014712033823,0.1809891663118736,0.4865066888938779,0.270653156115252,0.2453292742775357,-6.802868449524289,20.79361488598857,28.64074084083529,1.9727723626866305,-0.1660172073262024,-1.120188377683302,3294.16845703125,11.935222222222222,0.2111111111111111,178.56205438991245,-8.635115228422718,101.091010907267,1364.0,1435.0,1200.0,1528.0,1312.0,998.0,60.0,292.7,1649241756.04271,1649241757.1610498,2ce70a50-a53c-46dc-845e-83cef817d775
0.0398050428744381,-0.002232856671729,0.3747933520274718,-0.3192808213523025,0.1796742967978989,0.486772191401529,0.2682130616983635,0.2491853820750441,-6.894353718355729,20.84815912460908,29.33597271277616,1.9721344717385665,-0.1561582412208071,-1.112557449078542,3293.6060655381943,11.937333333333337,0.21,178.55249667853386,-8.642136283434537,101.0632689555881,1364.0,1435.0,1200.0,1528.0,1312.0,998.0,60.0,292.7,1649241757.2699978,1649241758.389197,2ce70a50-a53c-46dc-845e-83cef817d775
-0.061768637872051,-0.1982875145418271,0.3391148730474529,-0.2892411037470728,0.1784352850091846,0.6494114341920807,0.2863304468865835,0.2537368536343828,-7.092981978246429,21.78743646002776,29.00267044205172,2.274141241258062,-0.8930669448514267,-1.112485210804859,3292.903076171875,11.910666666666666,0.2022222222222222,178.75706995109465,-8.627928351596047,101.01173745503009,1273.3333333333333,1435.0,1200.0,1528.0,1232.0,998.0,60.0,292.7,1649241760.1433296,1649241761.256669,ef04b403-2e6b-41da-bdb3-ba7c4ed71270
-0.0784826544073064,-0.1967830001089968,0.3388620135434698,-0.2798726558265125,0.1799397992728376,0.6355420896035883,0.284800646752086,0.2595146938791592,-6.973644336080407,21.6102777323997,28.46192939816196,2.220628925831927,-0.8846486601575967,-1.1123539416772723,3292.903727213541,11.908,0.2066666666666666,178.81030444548574,-8.634519389281374,100.87356804049008,1262.0,1435.0,1200.0,1528.0,1222.0,998.0,60.0,292.7,1649241761.365638,1649241762.486065,ef04b403-2e6b-41da-bdb3-ba7c4ed71270
-0.053297842836769,-0.2023206246502064,0.3325278823694576,-0.2878250896132623,0.1748320366151551,0.6486654986167194,0.2795790974184044,0.2575929614509845,-7.316812619395156,21.70326260006228,28.47139575353143,2.2681874977124794,-0.9024940167205636,-1.0903330704851586,3292.42919921875,11.908625,0.20875,178.838112991509,-8.624014558337894,100.7693598443232,1262.0,1435.0,1200.0,1528.0,1222.0,998.0,60.0,292.7,1649241762.597807,1649241763.715001,ef04b403-2e6b-41da-bdb3-ba7c4ed71270
-0.203597565464539,-0.3958719903991017,0.3011100862578516,-0.2325626294394032,0.1782203544342833,0.7812903162671436,0.2905279150378964,0.2679349162174673,-7.645677167430875,22.94876706017097,27.50796087655319,2.4479276844803457,-1.6263373845759614,-1.09274614055893,3293.3250325520835,11.867,0.19,178.95094259395574,-8.613346656627979,100.50079452942856,1153.0,1435.0,1200.0,1528.0,1121.0,998.0,60.0,292.7,1649241765.8528616,1649241766.9997928,b106a833-2212-4250-a333-c8806485d640
-0.2038757110132527,-0.3924836718556519,0.3020709524488482,-0.2239906898725799,0.1782329974128224,0.770480571797733,0.2879487478160745,0.2709818734725268,-7.545465949685796,23.03865726466281,27.55745928503971,2.405002621645914,-1.6157700544297595,-1.0898127954601136,3294.16845703125,11.864,0.19,178.9718156520593,-8.601775462400331,100.30208611263512,1153.0,1435.0,1200.0,1528.0,1121.0,998.0,60.0,292.7,1649241767.1299086,1649241768.221377,b106a833-2212-4250-a333-c8806485d640
-0.2093880495967793,-0.4004866780203043,0.2977723404800149,-0.2166324764861491,0.1770192716379436,0.7725793058417685,0.2827524845342417,0.2661648994563486,-7.79235572131119,23.123340831164533,27.66797397990728,2.3933611047179904,-1.6461952836378602,-1.075857191552805,3290.7969563802085,11.87022222222222,0.1944444444444444,178.98929486505529,-8.600527150465773,100.12449056947608,1153.0,1435.0,1200.0,1528.0,1121.0,998.0,60.0,292.7,1649241768.3296196,1649241769.4496405,b106a833-2212-4250-a333-c8806485d640
0.2564677365858114,0.3599378549965765,0.4167553899111646,-0.3489159648496898,0.1509873825567209,0.148989792129614,0.187980732459672,0.1626694930937606,-6.684153648152939,20.389593457007184,27.74290617238332,1.2788433496791258,1.221134802561916,-0.9747987983048628,3292.481852213541,11.943777777777775,0.2177777777777777,178.68066745503884,-8.685370432243333,99.85011959378694,1508.5555555555557,1435.0,1200.0,1528.0,1432.111111111111,998.0,60.0,292.7,1649241771.1434867,1649241772.1189225,9d4040ce-6921-4b87-9db5-5fa27c74ad12
0.2303094181790891,0.3581804812946085,0.415225589772121,-0.3498894743030047,0.150228803899212,0.1496472268552327,0.1863750743841873,0.1607224745217488,-6.783845009801789,20.386988975376315,27.45281101289274,1.2823268279099211,1.2178431142444237,-0.9700931652921688,3293.6061740451387,11.960666666666665,0.22,178.5547157311042,-8.715276510387973,100.09744377927277,1553.0,1435.0,1200.0,1528.0,1471.0,998.0,60.0,292.7,1649241772.2522624,1649241773.3413994,9d4040ce-6921-4b87-9db5-5fa27c74ad12
0.2263521665252159,0.3619986601117062,0.413784290515771,-0.3514192747609319,0.1476243507248335,0.1489771491336178,0.184541842796964,0.1574732296500557,-6.720848113731113,20.38517057337211,27.67607340393365,1.284255407691184,1.2298359104129235,-0.961162745141801,3302.206841362847,11.955444444444444,0.22,178.5060817485741,-8.686230372032586,100.34898674493589,1553.0,1435.0,1200.0,1528.0,1471.0,998.0,60.0,292.7,1649241773.449895,1649241774.5707977,9d4040ce-6921-4b87-9db5-5fa27c74ad12
0.2535770464163883,0.3699824467379528,0.4065226707112981,-0.5328859895520879,0.1200257436296837,0.3184264123405689,0.2257807039124132,0.2062548908924299,-6.506588857111954,19.93115383854549,29.25601136408303,2.0713633682492385,1.2661349286325525,-0.9704499501395166,3302.064751519097,11.948,0.2122222222222222,178.49111452737284,-8.628763342222085,100.6694622564325,1553.0,1537.0,1200.0,1528.0,1471.0,998.0,60.0,292.7,1649241775.1622355,1649241776.4120648,552e61e4-6d55-4d0f-814c-63afe96ad548
0.2726128175194494,0.374654279302636,0.4061226469676764,-0.5301025111161158,0.1189374361985222,0.3114393978633459,0.22197769659677,0.1939608603271777,-6.5837538804507805,19.99365384245849,29.261336454533343,2.049740175910292,1.2837890949379047,-0.962490093505084,3308.0119900173613,11.95188888888889,0.22,178.48980616669186,-8.619984557000107,100.81897054390464,1553.0,1537.0,1200.0,1528.0,1471.0,998.0,60.0,292.7,1649241776.5205562,1649241777.574789,552e61e4-6d55-4d0f-814c-63afe96ad548
0.2724105298947153,0.3722268278748457,0.4095994653947276,-0.5383963062564628,0.1221740382833008,0.3215158500166014,0.2292347651225245,0.2034178069167403,-6.55510586009032,19.932321653633217,29.31184823151377,2.090881095582629,1.2752747432517293,-0.9822202621977586,3305.3189832899307,11.95111111111111,0.21,178.4825661661717,-8.622213001080564,100.92728671940232,1553.0,1537.0,1200.0,1528.0,1471.0,998.0,60.0,292.7,1649241777.6829898,1649241778.6849124,552e61e4-6d55-4d0f-814c-63afe96ad548
0.2852305079772901,0.3830618584756966,0.4022918251959307,-0.7283065318525144,0.0906677397378774,0.4966084267366126,0.2678969872559918,0.2443810508445246,-6.450233627207059,19.800512356939667,30.97244170269696,2.911808281657287,1.3233691505061551,-0.9822777464881852,3304.32763671875,11.94125,0.21,178.49278033462048,-8.555043841707633,101.1201865346254,1553.0,1645.0,1200.0,1528.0,1471.0,998.0,60.0,292.7,1649241779.7801983,1649241780.9299335,6992a956-f799-468d-9487-53ef35eac81d
0.2724737447664846,0.3759438628806262,0.395616333774866,-0.7292421129908191,0.0871024201753884,0.5051677214552134,0.265418963893834,0.2443304789839437,-6.486457141588236,19.63282529764661,31.04220321559392,2.931701475287532,1.295999581561328,-0.965521644557467,3305.60205078125,11.942,0.21,178.50956210941118,-8.581872291158913,101.20449753596635,1553.0,1645.0,1200.0,1528.0,1471.0,998.0,60.0,292.7,1649241781.0389173,1649241782.1475136,6992a956-f799-468d-9487-53ef35eac81d
0.2480348712770522,0.3749956396653369,0.4000793043783602,-0.7317327800869603,0.0901999496022002,0.5063308752859539,0.2698440056620463,0.2516381195546412,-6.445915325208124,19.731490717191985,30.782409209811338,2.9407888581820365,1.295050026966535,-0.9826395607388696,3303.054443359375,11.945777777777776,0.21,178.50670405469847,-8.577806431327987,101.27117156591434,1553.0,1645.0,1200.0,1528.0,1471.0,998.0,60.0,292.7,1649241782.2562215,1649241783.3763895,6992a956-f799-468d-9487-53ef35eac81d
0.2633075868575792,0.3835549345471912,0.3854893098721588,-0.8460253464167411,0.0579097861136703,0.6097630616629766,0.276797642670955,0.254419574348382,-6.549560127121621,20.087560862641144,31.683217476384947,3.4327561888531823,1.3330552903628663,-0.9275864804755464,3307.162787543403,11.937222222222225,0.21,178.52106718361313,-8.536059461347223,101.3387464219228,1553.0,1761.0,1200.0,1528.0,1471.0,998.0,60.0,292.7,1649241784.2864544,1649241785.4248266,7b4d7a9f-8fbe-4ce3-a7c4-884ea10a20d3
0.2493750267893425,0.3779414531210043,0.3845031577346194,-0.8567339534578081,0.0575304968203335,0.6263380031142141,0.281159469506334,0.2611709237834414,-6.586238312702919,20.01959593282195,31.869665206974805,3.493669895735528,1.311863229000919,-0.9324438665387706,3293.46568467882,11.939888888888891,0.2177777777777777,178.54650129026243,-8.519781697599006,101.35369087582676,1553.0,1761.0,1200.0,1528.0,1471.0,998.0,60.0,292.7,1649241785.5332537,1649241786.649827,7b4d7a9f-8fbe-4ce3-a7c4-884ea10a20d3
0.2741679036116273,0.372517616326498,0.3814182715146454,-0.8432438901770869,0.0567972040926935,0.6179304241181774,0.2765321401059503,0.2538759262094445,-6.541045164280136,20.035561732979435,31.654892240094576,3.4442874109629646,1.291247994650696,-0.921467593750575,3291.63818359375,11.938555555555558,0.21,178.56430379887908,-8.513292258977584,101.3802193305631,1553.0,1761.0,1200.0,1528.0,1471.0,998.0,60.0,292.7,1649241786.762287,1649241787.8818803,7b4d7a9f-8fbe-4ce3-a7c4-884ea10a20d3
0.2376549875622487,0.3661834852487272,0.3556898149188665,-0.8650151088086925,0.0265172736540186,0.6462633331813716,0.2509427557914562,0.2338115226286621,-6.817572970721932,20.623542566745463,31.747166956143992,3.5595579786406617,1.2696899471632508,-0.8099825625682964,3290.7958984375,11.883,0.1833333333333333,178.57860621500112,-8.517631800694007,101.38965485744652,1553.0,1887.0,1200.0,1528.0,1471.0,998.0,60.0,292.7,1649241788.791955,1649241789.9303074,b2a5787f-661a-4137-ac21-4f2bf0ff86de
0.2528771312681449,0.3729854064468657,0.3570426134140394,-0.8686183582456444,0.0257839810487578,0.6447082471471405,0.252017408818928,0.2332552316267495,-6.697010207089796,20.591621141088577,32.01078322803875,3.5641500001406503,1.2925404051938416,-0.8110972210904835,3294.16845703125,11.889333333333331,0.19,178.6277729522865,-8.502553968373725,101.22670627550762,1553.0,1887.0,1200.0,1528.0,1471.0,998.0,60.0,292.7,1649241790.0382671,1649241791.1647618,b2a5787f-661a-4137-ac21-4f2bf0ff86de
0.2406260870403733,0.3717084658518444,0.3592045623322377,-0.8770638718606278,0.0272505663911716,0.6543927667111039,0.2574791746175164,0.2326230828670492,-6.658502991885923,20.55374690192429,32.13361949303838,3.6048589603292536,1.2875660994728333,-0.8238309664065309,3289.8135579427085,11.89,0.1855555555555555,178.6429390078835,-8.54321598177758,101.11026748726698,1553.0,1887.0,1200.0,1528.0,1471.0,998.0,60.0,292.7,1649241791.2774322,1649241792.3870192,b2a5787f-661a-4137-ac21-4f2bf0ff86de
0.2022420101619707,0.3378505754765757,0.4352141350113613,-0.128207486785554,0.1920896998701877,-0.0427535998791337,0.1483197143578108,0.1338182199988291,-6.942136397979197,21.41359532043101,26.20867189562945,0.3574390197915855,1.1277315083056634,-1.0029760583724103,3289.9566514756943,11.958555555555554,0.22,178.6660857600708,-8.750183425369922,100.9622208602772,1553.0,1335.0,1200.0,1528.0,1471.0,998.0,60.0,292.7,1649241794.1426356,1649241795.2552118,72caeb5b-081a-4e36-b752-74512125ac09
0.2338620946041205,0.3388493706045529,0.4318511033659186,-0.1295349992379043,0.1885243804231837,-0.0425386690417441,0.143515383213915,0.1164720556072915,-7.064311561922825,21.478468077652767,26.17301830021582,0.3611119504983521,1.1326096671135957,-0.9867485749006116,3286.58984375,11.956888888888887,0.2155555555555555,178.65332696670123,-8.742929005561463,101.10591513894585,1553.0,1335.0,1200.0,1528.0,1471.0,998.0,60.0,292.7,1649241795.363866,1649241796.4844244,72caeb5b-081a-4e36-b752-74512125ac09
0.1925827760159898,0.333969181763703,0.4336084770429059,-0.1286373477193181,0.1912173344688203,-0.0391882798606157,0.1474599919590638,0.1271933001245165,-6.9996632902599965,21.44554638585917,26.10909106215076,0.3665074559654383,1.114415342428783,-0.999042326425132,3285.190212673612,11.95977777777778,0.2188888888888888,178.60174993154874,-8.747507509035094,101.2700491381607,1553.0,1335.0,1200.0,1528.0,1471.0,998.0,60.0,292.7,1649241796.5935128,1649241797.708084,72caeb5b-081a-4e36-b752-74512125ac09
0.216136641455974,0.331946305558171,0.4466433854033608,0.0603498806206429,0.220789256792854,-0.2190346423958727,0.1052956640946188,0.0745100150437611,-7.180187833647199,22.2683343677648,24.87972407868127,-0.4581236464422564,1.0965738084027563,-0.9978409067274844,3290.374755859375,11.947777777777777,0.21,178.57835729255137,-8.809369670712762,101.4458551717572,1553.0,1236.0,1200.0,1528.0,1471.0,998.0,60.0,292.7,1649241798.827386,1649241799.8765647,03bf265b-a5b1-4500-afe2-e760b533c771
0.2267188128580645,0.3393803756041329,0.4449365836275779,0.0555961212152675,0.2169710778421348,-0.2215505951425849,0.10284292658356,0.0800855679997928,-7.0886357982439625,22.233547522507457,24.919154265990908,-0.4533172348295166,1.1239351368348096,-0.9858299183170792,3287.9907497829863,11.949444444444444,0.2011111111111111,178.59512464805383,-8.806367517981323,101.54576110765692,1553.0,1236.0,1200.0,1528.0,1471.0,998.0,60.0,292.7,1649241799.98607,1649241801.19503,03bf265b-a5b1-4500-afe2-e760b533c771
0.2057061857592755,0.3331473883025264,0.4434067835317882,0.0626888314131673,0.2179319440972776,-0.2208931602275573,0.1030957861088059,0.0832842410272071,-7.032787451708388,22.15740696881668,25.0685026111801,-0.468368306412061,1.0978671564462603,-0.9858244393539022,3291.63818359375,11.949,0.21,178.58116981266957,-8.78879173369959,101.63808477466794,1553.0,1236.0,1200.0,1528.0,1471.0,998.0,60.0,292.7,1649241801.3037355,1649241802.4239197,03bf265b-a5b1-4500-afe2-e760b533c771
0.1811155961687713,0.3341841123656384,0.4492984103923675,0.2314599289030942,0.2359608286802174,-0.3869460471087711,0.0547869707898111,0.0392108228889115,-7.265214182109487,23.179983998028263,23.52667254358708,-1.2155081857292471,1.0966772677484606,-0.9507815052406244,3285.330078125,11.941444444444445,0.2022222222222222,178.58269066812477,-8.853027575841313,101.7838561897542,1553.0,1133.0,1200.0,1528.0,1471.0,998.0,60.0,292.7,1649241804.1625698,1649241805.2967775,43b1d4a9-8465-4b48-88cc-5ada4b35462e
0.202456940761082,0.3295188541087481,0.4512833576059775,0.2278566805812416,0.2388687132137438,-0.3784752509424519,0.0594522292791153,0.0335973409652672,-7.324930747634832,23.157201493895816,23.635488674516907,-1.1884100350219875,1.0792070230642568,-0.9645652103528042,3284.630750868056,11.938,0.2044444444444444,178.57991609350196,-8.883449522995766,101.86584046818166,1553.0,1133.0,1200.0,1528.0,1471.0,998.0,60.0,292.7,1649241805.426398,1649241806.5255954,43b1d4a9-8465-4b48-88cc-5ada4b35462e
0.1818868177434899,0.3336278214060168,0.4516626469157098,0.2317001454267929,0.2385147099323904,-0.3882482741373225,0.0569994917785799,0.0403739768025271,-7.282929495664709,23.174593044516925,23.31341960163441,-1.2189372586399878,1.0967264912723436,-0.9610090126121338,3286.58984375,11.938777777777778,0.2022222222222222,178.5825555821612,-8.879450447236723,101.91334671058884,1553.0,1133.0,1200.0,1528.0,1471.0,998.0,60.0,292.7,1649241806.6573975,1649241807.7438283,43b1d4a9-8465-4b48-88cc-5ada4b35462e
0.1990306941090815,0.331276227812851,0.4158071666690022,0.2695026451533496,0.206237190704573,-0.421132664286692,0.0040001310554904,-0.0198065953719053,-7.7402442588260545,23.71126138202885,22.91374068199677,-1.376627687840879,1.08776744964465,-0.7937679701358046,3291.07666015625,11.928444444444445,0.2,178.5864078088531,-8.900288026302091,101.96470062622842,1553.0,1026.0,1200.0,1528.0,1471.0,998.0,60.0,292.7,1649241808.8629596,1649241809.8110092,c0fccee4-5c20-42aa-a802-802cdb0c92fe
0.1889795276700455,0.3283809862368186,0.4104971167188228,0.2650649603601478,0.2014707885541614,-0.4141410967292075,0.0010796033786312,-0.0193388051681595,-7.74276861981176,23.66840003883941,22.89230868959884,-1.3514595974966546,1.0773253696867435,-0.7762832031304617,3272.78955078125,11.924333333333331,0.2,178.60940581469842,-8.89307904622436,101.95214597962404,1553.0,1026.0,1200.0,1528.0,1471.0,998.0,60.0,292.7,1649241809.9200847,1649241811.0244548,c0fccee4-5c20-42aa-a802-802cdb0c92fe
0.1602546845700772,0.3321106642540674,0.4104591877842766,0.2470234330910782,0.1992076957342338,-0.3997913142822931,0.0051379990778136,-0.0177710759571322,-7.733006831789554,23.58908666740896,23.106280972377306,-1.2790050992792248,1.091565955968862,-0.7782931093247646,3255.1094021267363,11.934444444444445,0.21,178.6095636679592,-8.904432433308475,101.94901851189408,1553.0,1026.0,1200.0,1528.0,1471.0,998.0,60.0,292.7,1649241811.133249,1649241812.2526407,c0fccee4-5c20-42aa-a802-802cdb0c92fe
0.2348356037920015,0.3277867663547464,0.403277977319721,-0.3218599892477202,0.1469542729140157,0.1512528849742791,0.1734792381513082,0.1491920798309266,-7.118584640662846,20.67171497022263,27.019694166152497,1.223762336023308,1.1058524967930778,-0.9353800006725908,3251.542751736112,11.95588888888889,0.2155555555555555,178.61485782347592,-8.753065765199668,101.9594595944053,1553.0,1435.0,1200.0,1528.0,1471.0,998.0,60.0,292.7,1649241813.1634638,1649241814.506356,fba2db5e-23ad-4912-9865-93160af71c4a
0.2010156414375044,0.3339691817652384,0.4096753232775986,-0.3213921988345681,0.1515183875835246,0.1454497586962319,0.1788398603386393,0.1573847288156011,-6.971545904901339,20.648061681545503,27.161801524398204,1.209925128766909,1.1270876769676086,-0.9568840204773568,3255.384033203125,11.960222222222225,0.21,178.62239228104033,-8.732554707122121,102.01505657533929,1553.0,1435.0,1200.0,1528.0,1471.0,998.0,60.0,292.7,1649241814.615163,1649241815.7303245,fba2db5e-23ad-4912-9865-93160af71c4a
0.2361125444292511,0.3337921800990461,0.4139360062236856,-0.3210508385197176,0.1551974938161362,0.146486482757039,0.1830120425880596,0.162833851783157,-6.957483795571093,20.70308588795094,27.36082130553848,1.2121004800098805,1.1247893866439034,-0.973393647842548,3270.708767361112,11.961555555555556,0.21,178.6249164153936,-8.728305665412202,102.0434269044218,1553.0,1435.0,1200.0,1528.0,1471.0,998.0,60.0,292.7,1649241815.8391278,1649241816.88684,fba2db5e-23ad-4912-9865-93160af71c4a
0.2435971865280052,0.3568656117596474,0.5374452392192651,-0.3203934037317437,0.2641925951759507,0.1170030605992057,0.3048018353440954,0.2829168432716933,-5.89852795455991,20.85545834765212,27.406391729660207,1.152064628178423,1.2111813318810951,-1.4600683691038614,3280.30078125,11.955,0.21,178.62047072115385,-8.720877739826076,102.02569801006618,1553.0,1435.0,1200.0,1435.0,1471.0,998.0,60.0,292.7,1649241817.668657,1649241818.8074782,bc7ba909-0167-4095-b6a2-4727285e473f
0.2424593186415906,0.3539324412861451,0.5482929126056241,-0.3298882810953035,0.2756850607586284,0.1281541662681558,0.3202262664838073,0.3037524682964407,-5.962490174780614,20.721771652071464,27.44320255259432,1.1981683559717895,1.2021610547703885,-1.512845309307417,3291.0768229166665,11.955555555555556,0.2,178.6071609591912,-8.715692298153696,102.03883549947972,1553.0,1435.0,1200.0,1435.0,1471.0,998.0,60.0,292.7,1649241818.9319232,1649241820.0353076,bc7ba909-0167-4095-b6a2-4727285e473f
0.2710071595036485,0.3605573608310233,0.5353212192526801,-0.3260068862487477,0.2625742941755603,0.1210993852593957,0.303259392214121,0.2778849386277719,-6.0598790187506335,20.74945476477084,27.7559187777019,1.1730982819318343,1.223626479779956,-1.4519516725319914,3289.5336642795137,11.94922222222222,0.2022222222222222,178.6136997269566,-8.705420547415645,102.0578856559848,1553.0,1435.0,1200.0,1435.0,1471.0,998.0,60.0,292.7,1649241820.1440933,1649241821.270036,bc7ba909-0167-4095-b6a2-4727285e473f
0.3225288053761945,0.3770038499992014,0.6761892572138727,-0.312250819213752,0.3904549652069235,0.086391379151878,0.440919657278451,0.4203025032915814,-5.041088687995476,21.024536330399364,27.97694860031051,1.073460344233515,1.283382365654442,-2.01112534687087,3319.684814453125,11.940333333333331,0.2,178.58499471860478,-8.737864135700683,102.03022187202644,1553.0,1435.0,1200.0,1330.0,1471.0,998.0,60.0,292.7,1649241823.1997864,1649241824.3364935,33d37636-7dc1-4983-a810-d2327915c8e1
0.3238548007335073,0.3814056285919892,0.6705378469754227,-0.3145017753492672,0.3838330799839805,0.0844726809078857,0.4347337019123389,0.4126717086179373,-4.97968516905127,20.98962778324029,27.977169990066656,1.0737445074268277,1.29937343003202,-1.98502466379006,3318.685248480903,11.943111111111111,0.2077777777777777,178.5747054180751,-8.730640451743486,102.008434327484,1553.0,1435.0,1200.0,1330.0,1471.0,998.0,60.0,292.7,1649241824.4450529,1649241825.5657463,33d37636-7dc1-4983-a810-d2327915c8e1
0.319714984568562,0.3732696205483936,0.6789636318516679,-0.3083719534037006,0.3928743251010298,0.0853526320932265,0.4433521658517742,0.4161212181967982,-4.9594248322730365,21.13846660731156,27.835229240675886,1.063288289481763,1.2697550345715736,-2.0222731185958134,3322.831000434028,11.941666666666668,0.1977777777777777,178.59143786372184,-8.71628386842681,101.99180054012533,1553.0,1435.0,1200.0,1330.0,1471.0,998.0,60.0,292.7,1649241825.674362,1649241826.7900248,33d37636-7dc1-4983-a810-d2327915c8e1
0.3170275935263076,0.3793827524052576,0.7634510771608723,-0.2834759048927728,0.4701972498181944,0.0503998576187264,0.5194542843963196,0.4929040347801722,-4.446819837860506,21.59367317922635,27.5871476278805,0.9360283691270814,1.2935521818014997,-2.350328891935212,3321.972357855903,11.94611111111111,0.2,178.58614067256556,-8.731518795098003,101.936806892568,1553.0,1435.0,1200.0,1210.0,1471.0,998.0,60.0,292.7,1649241827.7043304,1649241828.842068,48eb4eb0-e7d1-4185-ba57-fb2c1a1e4a95
0.3042834733682315,0.3813929856026975,0.7575973792992586,-0.2810484530088676,0.4649504147436833,0.0476057595093583,0.5126017913923844,0.4914248065791027,-4.4755130376136965,21.552364247298065,27.73935307019908,0.9237184229085496,1.2992752038356516,-2.324970705373555,3317.115478515625,11.947444444444448,0.1922222222222222,178.58368939356342,-8.725621685659602,101.9340270055758,1553.0,1435.0,1200.0,1210.0,1471.0,998.0,60.0,292.7,1649241828.9502037,1649241830.2763164,48eb4eb0-e7d1-4185-ba57-fb2c1a1e4a95
0.3104785317759557,0.3765633687157524,0.7568261577608458,-0.2763073358746945,0.4660503536706709,0.0470621116385808,0.5117041400968207,0.4857733963004405,-4.561499275990211,21.561451253912807,27.60399308506652,0.9117589516136656,1.2823370154961968,-2.3249371265540457,3317.5435384114585,11.938333333333333,0.2,178.59194785117984,-8.70980458022541,101.9013931206314,1553.0,1435.0,1200.0,1210.0,1471.0,998.0,60.0,292.7,1649241830.3853922,1649241831.5090375,48eb4eb0-e7d1-4185-ba57-fb2c1a1e4a95
0.2927530789324976,0.3700269500154981,0.7562192949135869,-0.2176692009323791,0.4688570943572228,-0.0040408027960239,0.4922718859498359,0.4708926134953132,-4.651988657817654,22.166357951081046,27.02126569741119,0.6684919551976202,1.2563788084486436,-2.301675593184212,3316.9742567274307,11.937666666666663,0.2077777777777777,178.59039056804912,-8.764058385486374,101.86091286615044,1553.0,1435.0,1200.0,1071.0,1471.0,998.0,60.0,292.7,1649241832.1418784,1649241833.3473303,55fbfd77-d185-48bd-bd3f-3b27f3f145cb
0.3407837459731923,0.3788517473956129,0.7729965240514525,-0.2246860538773387,0.4815506422554004,-0.0062153948389777,0.5085939679653702,0.4848757449919584,-4.492342763406413,22.197851402508856,27.1489239371939,0.6805785366613037,1.2891438436621003,-2.36378799502197,3321.82958984375,11.931333333333331,0.2,178.58139748564193,-8.753749732754054,101.84429273917009,1553.0,1435.0,1200.0,1071.0,1471.0,998.0,60.0,292.7,1649241833.4564416,1649241834.5770605,55fbfd77-d185-48bd-bd3f-3b27f3f145cb
0.29826541662812,0.3776633076397401,0.7648544475052993,-0.2180611331385365,0.4744452897552945,-0.0109944402925038,0.4989726632504404,0.4779347511550699,-4.479311082743826,22.21346528039224,27.102620228214143,0.6545924493133981,1.283673056606631,-2.3294613291566546,3308.15380859375,11.925,0.1933333333333333,178.59559061873722,-8.780720442239144,101.79951174224178,1553.0,1435.0,1200.0,1071.0,1471.0,998.0,60.0,292.7,1649241834.6852932,1649241835.8021424,55fbfd77-d185-48bd-bd3f-3b27f3f145cb
0.1633648568517484,0.3209595591402923,0.2847500748332116,-0.3005565694479753,0.0367201563616603,0.1479151390030947,0.0441415839972771,0.0263023431247279,-7.805134186253142,20.9418068318829,27.428822876168507,1.163814878751494,1.071347086947679,-0.4401745431789499,3305.17724609375,11.954666666666665,0.2033333333333333,178.62737831913444,-8.756415214077654,101.79565040863098,1553.0,1435.0,1200.0,1613.0,1471.0,998.0,60.0,292.7,1649241837.7395115,1649241838.878463,4b205865-fe41-441d-8ae2-ddce9eb7fc7d
0.2006489951213217,0.3272304753980495,0.2818421902466179,-0.3028828776521549,0.0322571853724247,0.1463221239944417,0.0409555537397996,0.0131410036066106,-7.688196674248616,20.894658647544368,27.747602385469616,1.165135077097476,1.0913151202408673,-0.4243066980175815,3310.995849609375,11.958444444444446,0.2088888888888888,178.6195509223456,-8.736845583740704,101.83190049928596,1553.0,1435.0,1200.0,1613.0,1471.0,998.0,60.0,292.7,1649241838.9876509,1649241840.0411177,4b205865-fe41-441d-8ae2-ddce9eb7fc7d
0.1734751924887414,0.3340602111918674,0.2857782016908136,-0.3085954812513891,0.0343225421818385,0.1438643293331548,0.0442892539958106,0.0265779599514606,-7.655086295473118,20.84832718053202,27.630154828940714,1.1723851137487915,1.1186894496825723,-0.4365786535135125,3323.403266059028,11.95622222222222,0.2,178.61033775606518,-8.734231518563355,101.8741262465548,1553.0,1435.0,1200.0,1613.0,1471.0,998.0,60.0,292.7,1649241840.1728618,1649241841.1459494,4b205865-fe41-441d-8ae2-ddce9eb7fc7d
0.1710644296887027,0.3080131513919129,0.1866152910147026,-0.2874331572113419,-0.0531714130852926,0.1545021300322617,-0.0599606920939195,-0.0826042651587744,-8.466972051099585,21.156427094147435,27.502099480893555,1.1452283393296323,1.018991708425347,-0.0376500258877634,3326.1259765625,11.961,0.21,178.6171102680822,-8.751129501433708,101.9291191352022,1553.0,1435.0,1200.0,1694.0,1471.0,998.0,60.0,292.7,1649241842.149657,1649241843.1831,db4b0eb1-a731-47fd-8376-d4e17020e0dc
0.1467014134217943,0.3090245894937227,0.186400360379021,-0.2883434517921675,-0.0532346280098085,0.1542998423296594,-0.0610985600758377,-0.0865235884595778,-8.578725926254888,21.171846123211647,27.490273838876583,1.146860546768617,1.0237797058663485,-0.0356376260886207,3314.128255208333,11.961,0.2,178.60553992762817,-8.74528399786904,101.94149316124852,1553.0,1435.0,1200.0,1694.0,1471.0,998.0,60.0,292.7,1649241843.2921717,1649241844.4085214,db4b0eb1-a731-47fd-8376-d4e17020e0dc
0.1320229173484873,0.3102762441518034,0.1832775451407132,-0.2906571169730409,-0.0563574434852061,0.1551089928483641,-0.0629697207904747,-0.0853477913485362,-8.505898553035028,21.07967746497089,27.458286373571752,1.1531629457569958,1.0283275504383675,-0.0242885573634112,3303.4792209201387,11.96288888888889,0.2077777777777777,178.59829537364854,-8.759416228444227,101.97699193109482,1553.0,1435.0,1200.0,1694.0,1471.0,998.0,60.0,292.7,1649241844.516978,1649241845.6375225,db4b0eb1-a731-47fd-8376-d4e17020e0dc
0.1203028777684478,0.3175080266196555,0.1050807334861567,-0.2753338267027682,-0.1308119399771895,0.1382559047125745,-0.1548715272266372,-0.1833435141689952,-9.132482325392273,21.317926879159323,27.42129468946884,1.0780906198254745,1.053373948507353,0.3149818728583064,3297.1261121961807,11.955666666666666,0.2,178.61917602085114,-8.755092054653439,101.97850823309057,1553.0,1435.0,1200.0,1774.0,1471.0,998.0,60.0,292.7,1649241846.7529888,1649241847.8894918,3fa26741-35f5-47e5-80ea-eeabb379e93f
0.1161559813531467,0.3246892371660915,0.1006177626271683,-0.2786462869510699,-0.1366403528100459,0.13434922491333,-0.1596000010450368,-0.1822309320484873,-9.004375260847551,21.210554554877767,27.397817093874583,1.0759106205567874,1.079732310460732,0.3366766677197483,3295.0129665798613,11.955222222222224,0.2,178.5907335953274,-8.75857260521799,101.98347453952708,1553.0,1435.0,1200.0,1774.0,1471.0,998.0,60.0,292.7,1649241847.997627,1649241849.145875,3fa26741-35f5-47e5-80ea-eeabb379e93f
0.1297598244856115,0.3147139288581299,0.0985443144031351,-0.2727293727113744,-0.136779425571859,0.1403546390227141,-0.1608642988664525,-0.1873766243942832,-9.08705994573588,21.344370821776355,27.62247106782089,1.0768365091442922,1.040055283826295,0.3405414960044979,3289.8138292100693,11.951666666666666,0.2,178.59510491639622,-8.75725058415864,101.9822580069449,1553.0,1435.0,1200.0,1774.0,1471.0,998.0,60.0,292.7,1649241849.254731,1649241850.2029493,3fa26741-35f5-47e5-80ea-eeabb379e93f
0.126219790968625,0.3091004473584585,0.031915824994492,-0.2517040991274761,-0.1972887193292449,0.128647242343048,-0.2364313808175144,-0.2574440112930872,-9.539515587124232,21.52765460433951,27.38146543493881,1.0007317436815673,1.0175302681095966,0.6201442966381754,3292.4814453125,11.945666666666668,0.2033333333333333,178.62036143812713,-8.734522465649253,101.95444775337432,1553.0,1435.0,1200.0,1856.0,1471.0,998.0,60.0,292.7,1649241852.2813408,1649241853.4255314,04cf9ec8-3916-4d65-a47a-b7179bd11983
0.0992776071222445,0.2944345947807989,0.0383005285057731,-0.247354914615199,-0.1876926987863521,0.1370927508132406,-0.2275686527720551,-0.248480139435089,-9.70365080278881,21.614082372599764,27.1672542339431,1.0106733219088986,0.9654554055689908,0.5835636628366206,3287.8505859375,11.949,0.2,178.6129848338235,-8.769903130141135,101.93001388998348,1553.0,1435.0,1200.0,1856.0,1471.0,998.0,60.0,292.7,1649241853.537778,1649241854.6490495,04cf9ec8-3916-4d65-a47a-b7179bd11983
0.0798832803881237,0.2818674762572055,0.0330031210312776,-0.2399840577397101,-0.1903350812581602,0.1428958773755998,-0.2312477595816587,-0.2513627385631319,-9.731741015736675,21.716841015314003,27.17097197422361,1.0074907515636085,0.9172453408311136,0.5981093280293934,3287.8505859375,11.951222222222222,0.2,178.63548347694953,-8.752882014138248,101.9219990424474,1553.0,1435.0,1200.0,1856.0,1471.0,998.0,60.0,292.7,1649241854.7569523,1649241855.8840144,04cf9ec8-3916-4d65-a47a-b7179bd11983
0.19039554105156,0.2993021406854363,0.3815447012805995,-0.3715089692691624,0.1594202480177582,0.2407272307985938,0.2327242266890911,0.2107128044978208,-5.344379762592392,15.819236280258108,29.464145239374893,1.5048519823819018,0.9694481213152534,-1.004288497424437,7150.801920572917,11.618,8.136666666666667,-179.53419521448035,-8.91199838563408,88.89210939342654,1553.0,1435.0,1350.0,1528.0,1471.0,998.0,60.0,292.7,1649241859.8120797,1649241860.7889907,8e56fff2-1c81-41cf-86c2-f86a2ef0a4ce
0.2031902334139036,0.3023743839459138,0.3878535463758696,-0.3663253476303391,0.1644774387104207,0.2321805786748476,0.2362010452035267,0.2200053922107049,-5.279260844887357,15.906795051174027,29.391982446421245,1.4748693855451835,0.980912800075959,-1.02440145658757,7164.748372395833,11.622,8.113333333333335,-179.052580362265,-8.83450334390233,83.629701354931,1553.0,1435.0,1350.0,1528.0,1471.0,998.0,60.0,292.7,1649241860.898112,1649241862.021003,8e56fff2-1c81-41cf-86c2-f86a2ef0a4ce
0.2051372518115953,0.302135178836027,0.3868127765492391,-0.3650559923660151,0.1642842539734989,0.2385086413184214,0.2349321960621262,0.2118693839661584,-5.459861234437232,15.956446953816382,30.415269563217542,1.4865755660795574,0.9720030907440972,-1.0196343113524722,7165.414767795139,11.619333333333334,8.131111111111112,-178.7266164143153,-8.747552379583391,78.54142291804567,1553.0,1435.0,1350.0,1528.0,1471.0,998.0,60.0,292.7,1649241862.1292503,1649241863.2557306,8e56fff2-1c81-41cf-86c2-f86a2ef0a4ce
0.3087752699883297,0.4666253562431713,0.4085081236553632,-0.3771264977540124,0.1524504277341036,0.0806322503056116,0.1995227586866369,0.1739748428925476,-5.28412354916363,15.868021960076254,29.251661592454774,1.1594314178503375,1.6008704724231506,-0.9643583489215596,7160.7568359375,11.609111111111112,8.126666666666667,-178.8077438834569,-8.648205285967048,68.72125089587804,1647.0,1435.0,1350.0,1528.0,1543.0,998.0,60.0,292.7,1649241865.1895492,1649241866.349761,2936bda5-6e76-4f5b-b588-452ef9e35246
0.2832799495798547,0.4598800756555707,0.4063780350496935,-0.374799178253491,0.1528448886405757,0.081605253749679,0.1990494056703361,0.182113885525398,-5.331336633376327,15.788337715626296,28.74658143033362,1.155629444671899,1.579959313964697,-0.9628265777376612,7164.083116319444,11.61588888888889,8.135555555555557,-178.92343514543836,-8.646949195205934,66.25787790546087,1647.0,1435.0,1350.0,1528.0,1543.0,998.0,60.0,292.7,1649241866.4635077,1649241867.761823,2936bda5-6e76-4f5b-b588-452ef9e35246
0.2889733346845793,0.4613527295080687,0.4121897583194382,-0.3736683901481584,0.1566711591198545,0.0864308252831235,0.2037566387266219,0.1861768325510534,-5.334034771610995,15.992407235181927,29.8231341334694,1.16573480437861,1.5761929675215116,-0.9810413638927038,7172.74169921875,11.611666666666666,8.146666666666668,-179.1937968000847,-8.666953396328825,63.3026440201634,1647.0,1435.0,1350.0,1528.0,1543.0,998.0,60.0,292.7,1649241867.8743312,1649241868.9889638,2936bda5-6e76-4f5b-b588-452ef9e35246
0.3646283991725001,0.6146432503951058,0.4245434631461879,-0.3876414112286558,0.137547898112262,-0.0706440083607607,0.1590915306197467,0.1330469984267608,-5.331620791873967,15.99433590656934,26.89372748164339,0.844448560550998,2.179575362089711,-0.8939457747088613,7168.076931423611,11.60077777777778,8.14777777777778,-179.80271878933004,-8.670519798576695,59.1951033392813,1745.0,1435.0,1350.0,1528.0,1614.0,998.0,60.0,292.7,1649241870.659464,1649241871.8469903,69fcfef9-d04e-44ee-a0e6-e5a191240fc5
0.3749920996255727,0.6257640120243855,0.4255225352450174,-0.3847264456826891,0.1371058996853161,-0.077743798892383,0.1567237539786915,0.1303080239069398,-5.3446499299778365,15.973002871543054,27.80945658370328,0.8219656811111602,2.2129639241801407,-0.8886447594510709,7166.744140625,11.601444444444446,8.146666666666668,99.93710281177697,-8.708736604257686,57.74801089148831,1745.0,1435.0,1350.0,1528.0,1614.0,998.0,60.0,292.7,1649241871.955941,1649241873.0786526,69fcfef9-d04e-44ee-a0e6-e5a191240fc5
0.4009739213912256,0.6189661367254969,0.4219855362095978,-0.3887762449329561,0.1353176769855179,-0.0713009374375402,0.1562898469808359,0.1344630118409615,-5.386949105512191,15.89471098296644,27.23457301116593,0.8447709485471626,2.1931353828129274,-0.8824363489590377,7166.744140625,11.6,8.121111111111112,179.6900646847995,-8.713323076285349,56.42956391834765,1745.0,1435.0,1350.0,1528.0,1614.0,998.0,60.0,292.7,1649241873.1868656,1649241874.3283072,69fcfef9-d04e-44ee-a0e6-e5a191240fc5
0.4794058878579882,0.773055693131632,0.4471915848094236,-0.3906828063644053,0.1259163593982083,-0.2378160399130526,0.1193157140394022,0.1008549448718864,-5.240709276504088,16.27709904697999,24.7275047095464,0.4783539771404163,2.794089091191752,-0.8363092798653184,7166.744140625,11.553666666666668,8.122222222222222,179.26323553882668,-8.712099523786533,54.70815437746896,1849.0,1435.0,1350.0,1528.0,1686.0,998.0,60.0,292.7,1649241875.4244788,1649241876.561262,591721e7-e4e1-4123-a097-afd45f85eb37
0.4605769564843661,0.7786964832955495,0.4420767424125654,-0.398295902868415,0.119999446221182,-0.2340686609544187,0.1146873730801362,0.096870889976858,-5.301279409105311,16.197594394486075,25.01293470619313,0.5031813972920292,2.81375615857721,-0.813679735922301,7166.744140625,11.567555555555556,8.148888888888889,179.06699661487315,-8.704659265914403,53.95262693114874,1849.0,1435.0,1350.0,1528.0,1686.0,998.0,60.0,292.7,1649241876.6704352,1649241877.7872746,591721e7-e4e1-4123-a097-afd45f85eb37
0.4625492607451089,0.7754093095399179,0.4437071805936962,-0.3968626948544825,0.1220111966715393,-0.2312811371592484,0.1179745470652472,0.091650857634652,-5.213316479743959,16.189421557439058,25.15742159346057,0.5063066858701099,2.7994508586798896,-0.8234390417951277,7172.74169921875,11.572333333333331,8.143333333333333,178.85278366866376,-8.722111727336124,53.23814512719076,1849.0,1435.0,1350.0,1528.0,1686.0,998.0,60.0,292.7,1649241877.8951044,1649241879.0190363,591721e7-e4e1-4123-a097-afd45f85eb37
0.5511502251824053,0.8919416424862335,0.4830677993793003,-0.3670586403803797,0.1340584364428426,-0.3805739851443533,0.0968880843351412,0.0753444515375238,-5.354051818432594,17.131135479010013,24.12793552142056,0.1115627604625016,3.2454800646741964,-0.8510532107719874,7166.744140625,11.5165,8.12125,178.46073650212932,-8.744684897786684,51.96742044862162,1962.0,1435.0,1350.0,1528.0,1760.0,998.0,60.0,292.7,1649241880.6623647,1649241881.682217,f87a1621-ad3f-43ed-a533-1387bdaea492
0.5158540705500702,0.8873967454477628,0.4733443393577184,-0.3780337579194541,0.1258506158767656,-0.3770607541094108,0.092492374094005,0.0700738471905773,-5.218382390825491,16.837202980305495,22.50704583505476,0.1415918718472423,3.242569478505038,-0.8230779349383096,7166.744140625,11.515222222222222,8.124444444444443,178.2979142786901,-8.72884164553457,51.53273682226264,1962.0,1435.0,1350.0,1528.0,1760.0,998.0,60.0,292.7,1649241881.7906811,1649241882.9079323,f87a1621-ad3f-43ed-a533-1387bdaea492
0.5482296977355616,0.8901842688145908,0.4774416750429724,-0.3787533964788403,0.1288874589157971,-0.3714710398965545,0.097052443031278,0.0661656499958626,-5.207532266188803,16.882159712659575,23.627794645451385,0.1564621934022684,3.243363537566008,-0.8373910762284079,7166.744140625,11.512999999999998,8.13,178.1536272913835,-8.746626058893142,51.14944339692324,1962.0,1435.0,1350.0,1528.0,1760.0,998.0,60.0,292.7,1649241883.0192397,1649241884.1390789,f87a1621-ad3f-43ed-a533-1387bdaea492
0.1276610903355352,0.1059025270608553,0.3681305034853999,-0.351305487961743,0.1845544857002113,0.4219137241590326,0.2841305689704033,0.2599445550874154,-5.557667941765574,16.073892104619553,31.070725875576564,1.867597062568868,0.2280189510986274,-1.1146408475809442,7169.409722222223,11.609333333333332,8.155555555555557,178.4011715607425,-8.65620799094458,50.27574295835935,1459.0,1435.0,1350.0,1528.0,1394.0,998.0,60.0,292.7,1649241886.2788618,1649241887.421724,4e18609c-03c9-4e80-8d77-3f73bbd7d65a
0.0895172288871414,0.1066105337733382,0.3606332186301231,-0.352987004311055,0.1780686387022753,0.4185886214612738,0.2786435172528424,0.2589204740174577,-5.407912605582274,15.848812034113632,30.428841189063363,1.8620258669199528,0.2350314086231157,-1.0884121644796458,7172.74169921875,11.623,8.17,178.26058805378585,-8.628949370013228,50.00392419669007,1459.0,1435.0,1350.0,1528.0,1394.0,998.0,60.0,292.7,1649241887.5297785,1649241888.5783231,4e18609c-03c9-4e80-8d77-3f73bbd7d65a
0.0879747856920699,0.1042210111259116,0.3623905922857178,-0.3489286080281308,0.181583386166633,0.4176909701246731,0.2801480314163282,0.25764353337665,-5.517781306096073,15.818708569018206,30.51311669446989,1.8507000516741807,0.2257111599883583,-1.0979361426464185,7172.74169921875,11.618666666666666,8.17,178.21707064185398,-8.643177223236796,49.79247975382427,1459.0,1435.0,1350.0,1528.0,1394.0,998.0,60.0,292.7,1649241888.686971,1649241889.8700554,4e18609c-03c9-4e80-8d77-3f73bbd7d65a
-0.0031249451497095,-0.0675009639360344,0.3448684386575866,-0.3372859410295545,0.1955255551455774,0.5830833481313848,0.3214637610145348,0.3024770448860278,-5.4846285378136574,16.151227758687025,31.71658874830099,2.197636156604642,-0.4317902754792115,-1.1709582413297157,7174.07666015625,11.58777777777778,8.165555555555555,178.2716726918989,-8.606053247823006,49.50190643105899,1364.0,1435.0,1350.0,1528.0,1312.0,998.0,60.0,292.7,1649241890.6599228,1649241891.7174675,912bad8b-2bf4-44a9-999d-c565b3f63445
0.0004348115552411,-0.0673568339924372,0.350215406181402,-0.3376763562757403,0.1980445418225759,0.5838196750509298,0.3257891760700143,0.3048397643207279,-5.352620049478515,16.367160634586046,31.82410329038116,2.201952739210795,-0.4327462230806901,-1.187666816796448,7178.7490234375,11.5915,8.15,178.2225234095414,-8.54611240887249,49.371843122971455,1364.0,1435.0,1350.0,1528.0,1312.0,998.0,60.0,292.7,1649241891.8254535,1649241892.9422305,912bad8b-2bf4-44a9-999d-c565b3f63445
0.0414739158694412,-0.0638294432141814,0.3457524355523554,-0.3371074223344251,0.1954021596845354,0.5792302747797359,0.3210480599497283,0.2944851666119833,-5.446362427349454,16.16312830521611,31.705081175651426,2.188715426989967,-0.418154424260769,-1.170951822140296,7178.7490234375,11.58677777777778,8.12111111111111,178.18524347814156,-8.529453909509915,49.2539625956335,1364.0,1435.0,1350.0,1528.0,1312.0,998.0,60.0,292.7,1649241893.0525398,1649241894.1775434,912bad8b-2bf4-44a9-999d-c565b3f63445
-0.0944254493844192,-0.2791772918189978,0.2978481983457893,-0.3048298965190502,0.186526790120284,0.7616178456478251,0.330833723620374,0.2987584926170067,-5.936846430474149,17.24155807571596,31.705285927441707,2.5302713268508046,-1.2293627144647297,-1.134056625090461,7174.744140625,11.551333333333332,8.133333333333333,178.33357090179717,-8.488325166512773,49.040384857016925,1262.0,1435.0,1350.0,1528.0,1222.0,998.0,60.0,292.7,1649241896.313916,1649241897.4517865,cb302d6e-5bc2-4e03-8cb5-8688be5ede41
-0.1215699229422625,-0.2729822321695673,0.2984929901324478,-0.3107088818015417,0.185287778411715,0.7553848585061013,0.3331853171887443,0.3117301864195445,-5.613521841807638,17.03856092943822,30.92526344209891,2.528251349924787,-1.2007413039784791,-1.1366888118366223,7178.7490234375,11.56,8.13,178.35521349454723,-8.462760622223062,48.9971987092598,1262.0,1435.0,1350.0,1528.0,1222.0,998.0,60.0,292.7,1649241897.5603757,1649241898.613022,cb302d6e-5bc2-4e03-8cb5-8688be5ede41
-0.0866247320854135,-0.2793037216078998,0.2985056330771618,-0.3009611447781312,0.1883726646838119,0.7567882288262324,0.3310612971687637,0.3079120075618533,-5.941769594239113,17.162502985451894,31.51204707303571,2.510166965443296,-1.228525376019851,-1.1380158651445595,7174.07666015625,11.553,8.14,178.33313832314974,-8.452532603668446,48.9822485635315,1262.0,1435.0,1350.0,1528.0,1222.0,998.0,60.0,292.7,1649241898.747867,1649241900.1105237,cb302d6e-5bc2-4e03-8cb5-8688be5ede41
-0.2485433542356505,-0.4850049992892642,0.2492233109354082,-0.2538028335938582,0.1756285441697538,0.90746721719813,0.3246386651949769,0.3068120685901333,-6.733857800463369,18.683824664733148,30.2256092496995,2.749412487060331,-1.9919269943732885,-1.0718053223765742,7172.74169921875,11.486,8.073333333333334,178.38732904402465,-8.36652268763515,48.90520061459917,1153.0,1435.0,1350.0,1528.0,1121.0,998.0,60.0,292.7,1649241900.6593485,1649241901.7523887,9290c2a7-5e5f-4b12-b6e2-3d6b879a3d67
-0.2225746761916131,-0.4906816974381672,0.2405502290952301,-0.2457745421671631,0.1698633468244642,0.9052673393260088,0.3170402364495214,0.2912991365875246,-6.679226217061953,18.580667388627496,30.1114853050232,2.7252528137453003,-2.014133286242573,-1.0420089135818094,7172.74169921875,11.493555555555554,8.11,178.41525085735162,-8.339266248569787,48.86684303113029,1153.0,1435.0,1350.0,1528.0,1121.0,998.0,60.0,292.7,1649241901.8601658,1649241902.981707,9290c2a7-5e5f-4b12-b6e2-3d6b879a3d67
-0.2578865155150023,-0.4979514111911923,0.2369090518885053,-0.2505788741332887,0.1684726193921972,0.9104509595622567,0.3174700976619578,0.3010974432579993,-6.67349019200321,18.41373081502004,29.19703606387388,2.746307666232759,-2.0329771366448064,-1.0379023837416166,7172.74169921875,11.502,8.12,178.40658107056518,-8.335093667033076,48.88038350170488,1153.0,1435.0,1350.0,1528.0,1121.0,998.0,60.0,292.7,1649241903.0905526,1649241904.2113292,9290c2a7-5e5f-4b12-b6e2-3d6b879a3d67
0.1843648411841611,0.2876200305149344,0.3799264002888214,-0.3563373939280639,0.1627074219188332,0.2379204899650361,0.2296393403494167,0.2112438094754454,-5.602833936715423,15.881607948690666,29.40653230176777,1.4645151097107456,0.926003523106431,-1.0037357143044603,7170.076117621527,11.613777777777775,8.17,178.00413114646983,-8.361180056748125,48.92025814607942,1553.0,1435.0,1350.0,1528.0,1471.0,998.0,60.0,292.7,1649241906.3493452,1649241907.4873838,db992d8e-3ebc-4a8a-8147-eedf5f1c0076
0.2299427718815113,0.2973171934011415,0.3794333242007897,-0.3619129477087188,0.1609753340862821,0.2361504732729424,0.2274394624073693,0.1979433979734675,-5.719975626529787,15.81310212148102,29.766625783818053,1.4726344787154402,0.9606654301932928,-0.99599372671728,7173.4091796875,11.598666666666666,8.142222222222223,177.9916091329915,-8.33822018612565,49.00922098056388,1553.0,1435.0,1350.0,1528.0,1471.0,998.0,60.0,292.7,1649241907.596876,1649241908.717703,db992d8e-3ebc-4a8a-8147-eedf5f1c0076
0.2119771021685829,0.292411718573185,0.3805964780524448,-0.3603199322096702,0.1615442681056084,0.2408157316457293,0.2291841932352457,0.2083612108275356,-5.659395048765256,15.968937033103373,29.96395676429184,1.4806774006923542,0.939969449451615,-1.0011611364863375,7172.74169921875,11.617777777777778,8.13,178.01204354116837,-8.350033282886404,49.095422141893934,1553.0,1435.0,1350.0,1528.0,1471.0,998.0,60.0,292.7,1649241908.827797,1649241909.941518,db992d8e-3ebc-4a8a-8147-eedf5f1c0076
0.1961228094856223,0.2836627789075103,0.3634146733930686,-0.6426629720575645,0.1192914395274928,0.521376016744087,0.2933978706841333,0.2711335892607383,-5.649128846218816,15.177492691999428,31.858534293861336,2.7422356008277906,0.9239511661817104,-1.0121472552395183,7178.7490234375,11.608,8.15,178.07355015355424,-8.28894340690364,49.26439570959069,1553.0,1537.0,1350.0,1528.0,1471.0,998.0,60.0,292.7,1649241911.6412675,1649241912.6076386,669d0f7a-2ebc-4dc3-9563-4d0c81265016
0.2139114775827037,0.2894532620953155,0.3575483323871328,-0.6459627903394114,0.1129573080358356,0.5157751783746538,0.2888969710561828,0.2760011351669148,-5.421511962188039,14.939485449897548,31.398936203957746,2.7352647813274658,0.948161735719678,-0.988834794660107,7172.74169921875,11.6095,8.115,178.10078894796425,-8.294917687993284,49.35906554658165,1553.0,1537.0,1350.0,1528.0,1471.0,998.0,60.0,292.7,1649241912.737209,1649241914.0441885,669d0f7a-2ebc-4dc3-9563-4d0c81265016
0.2058705444627308,0.2840799971256182,0.3694453730257549,-0.6387942198737628,0.1251451377998362,0.5187209917809705,0.298910208353157,0.2861913741399577,-5.596688053493016,15.195230535569362,32.089463130077284,2.728023531792537,0.923004397498337,-1.035749602696097,7168.076931423611,11.604666666666668,8.157777777777778,178.14918463278337,-8.296283773259155,49.40120629594082,1553.0,1537.0,1350.0,1528.0,1471.0,998.0,60.0,292.7,1649241914.1582491,1649241915.2782755,669d0f7a-2ebc-4dc3-9563-4d0c81265016
0.2160607836043217,0.279730813237594,0.3563851785845042,-0.9161812635761164,0.0806039299120087,0.7919736309631714,0.3603930020791731,0.3436410585892174,-5.402389751421201,14.977802965868223,34.20413689274184,3.966119139629362,0.9198954659579176,-1.044569515170963,7172.74169921875,11.596,8.122222222222222,178.16897093189894,-8.227258925008131,49.49854294234772,1553.0,1645.0,1350.0,1528.0,1471.0,998.0,60.0,292.7,1649241916.1790578,1649241917.5309074,94ae8754-e6a8-4904-9a76-a2792c7d70d5
0.2072612718869981,0.266910835148199,0.3592677772024563,-0.9047899350359832,0.0871150631628872,0.7885347414861708,0.3633641015329105,0.3429836238313805,-5.4774727385426125,15.025615201825527,33.443578452096986,3.93299690448934,0.8778660187199344,-1.0641935952557842,7174.07666015625,11.59988888888889,8.152222222222223,178.155787148981,-8.201940552119757,49.61356181015092,1553.0,1645.0,1350.0,1528.0,1471.0,998.0,60.0,292.7,1649241917.6608047,1649241918.7578535,94ae8754-e6a8-4904-9a76-a2792c7d70d5
0.2026652970267893,0.2648191811214763,0.359082178277013,-0.9006288762238546,0.0870356652003519,0.791792583532971,0.3637105190584285,0.3413314396884621,-5.414885374762663,15.087510834015957,34.15917084124183,3.931478027834004,0.8627127574632754,-1.0635146454361828,7172.74169921875,11.595666666666666,8.133333333333333,178.20049604946811,-8.204360336360711,49.68956246341051,1553.0,1645.0,1350.0,1528.0,1471.0,998.0,60.0,292.7,1649241918.897015,1649241919.976156,94ae8754-e6a8-4904-9a76-a2792c7d70d5
0.2409148526181647,0.2526040429701682,0.3500753219802406,-1.1125728460599575,0.0534144490520149,1.001395933257259,0.413452033070381,0.3911649947490621,-5.056900430787509,15.033078559406649,34.665292362320976,4.880029970508655,0.8354020202810701,-1.0786151646292976,7172.74169921875,11.578888888888889,8.097777777777777,178.26728771045177,-8.146181164465496,49.74390496626695,1553.0,1761.0,1350.0,1528.0,1471.0,998.0,60.0,292.7,1649241920.6847703,1649241921.6797583,3ac6c328-5117-451e-be4f-d78da2ecffee
0.2232546372612976,0.2587181863980348,0.3564104645447958,-1.1124003959000166,0.0571259214652874,1.0024665404896822,0.415124445960363,0.3915452954278801,-5.283618891419853,15.327032993159934,35.7195677895099,4.88436480316195,0.8509797837481305,-1.0927378879515746,7172.74169921875,11.583666666666666,8.119999999999997,178.31314863617885,-8.188305407534164,49.80677420139224,1553.0,1761.0,1350.0,1528.0,1471.0,998.0,60.0,292.7,1649241921.8102024,1649241922.7607524,3ac6c328-5117-451e-be4f-d78da2ecffee
0.2252416074552499,0.2560227038182898,0.3529022914813932,-1.1155444538185812,0.0544794934567857,1.0040782670976445,0.4155295269121651,0.3835650488930908,-5.074053583184503,15.124870021543588,35.1513711681806,4.893578862067285,0.8445840186274793,-1.0858536670497174,7172.74169921875,11.582,8.096666666666668,178.34784144370306,-8.18560435230864,49.86714169000653,1553.0,1761.0,1350.0,1528.0,1471.0,998.0,60.0,292.7,1649241922.8924325,1649241924.0764968,3ac6c328-5117-451e-be4f-d78da2ecffee
0.1897001773381167,0.2270728161946274,0.3393298036200682,-1.141770054854321,0.036808657121756,1.0586645707879634,0.4102695430889085,0.3894086324701616,-5.214131349746131,15.966818685631896,35.36374070169562,5.080269007057653,0.7374963371933045,-1.039672328479355,7172.74169921875,11.546666666666669,8.09,178.37681965962167,-8.188521696857881,49.96184340121363,1553.0,1887.0,1350.0,1528.0,1471.0,998.0,60.0,292.7,1649241925.191054,1649241926.3293276,5b6f0522-a1a6-4659-b811-2941ca4a49be
