raw_voltage_G-,raw_voltage_G0,raw_voltage_G1,raw_voltage_G2,raw_voltage_G3,raw_voltage_G4,raw_voltage_G5,raw_voltage_G6,load_x,load_y,load_z,load_l,load_m,load_n,rpm,voltage,current,roll,pitch,yaw,aileron1_pwm,elevator_pwm,throttle_pwm,rudder_pwm,aileron2_pwm,pbaro,pdiff,Tt,sample_start_time,sample_end_time,uid
-0.0023754695219835,0.1428650284318172,-0.0615314560292937,-0.2606553293322741,-0.2186846849430307,0.3221737898226128,-0.2803257803437625,-0.3070307862069604,-14.720379769701385,20.233699083761024,30.078941736574624,1.4403947582791587,0.4019636795845055,0.8196811028154081,3097.732666015625,11.955999999999998,0.22,179.2814008063793,-11.249386449808116,108.54904776180528,1553.0,1435.0,1200.0,1528.0,1471.0,995.0,60.0,293.1,1649250071.1126626,1649250072.0870342,29c37ebf-f9d9-4d3b-9935-1b193aac3ab4
0.0217918345840548,0.145784039018,-0.0623598235997784,-0.2757631840836432,-0.2209988554369646,0.3325349616094384,-0.2785244087472588,-0.2995228795607381,-14.788707122601943,20.173414708963914,29.985655642146536,1.4972671694333968,0.4160287043519657,0.8214635940953545,3417.869466145833,11.952666666666667,0.21,179.44952060042976,-11.266959767632647,108.59136154262342,1553.0,1435.0,1200.0,1528.0,1471.0,995.0,60.0,293.1,1649250072.1962268,1649250073.326608,29c37ebf-f9d9-4d3b-9935-1b193aac3ab4
0.0214236709873208,0.1563029956746914,-0.0644767648702542,-0.2721209951548867,-0.2247593839062972,0.318479006425245,-0.2867160498533463,-0.3165898908047717,-14.879087104799655,20.241998697108755,29.889481364658945,1.4577540917554774,0.4563917937143685,0.8422120768320294,3462.894476996528,11.954333333333333,0.21,179.61416155146307,-11.27922640792704,108.61871189678988,1553.0,1435.0,1200.0,1528.0,1471.0,995.0,60.0,293.1,1649250073.457049,1649250074.605286,29c37ebf-f9d9-4d3b-9935-1b193aac3ab4
0.0862072974637211,0.2909193416267306,-0.0286334166482441,-0.3366679529257705,-0.2211040450775111,0.2497507757256601,-0.2766967397363311,-0.3094632956965465,-14.498727448132028,19.78248509321424,30.60006670989365,1.447958026288297,0.9625065411146208,0.7912890248287244,3471.61865234375,11.955444444444446,0.21,179.69117117544505,-11.294563028525872,108.64240051065129,1647.0,1435.0,1200.0,1528.0,1543.0,995.0,60.0,293.1,1649250075.6373708,1649250076.8043606,d02399b4-f38f-437a-ad23-1c0039f3614a
0.0907304488888647,0.2826751095590589,-0.0345503305231308,-0.326135845885702,-0.2235628520037104,0.2498428165319745,-0.2822980856076807,-0.3076356267203476,-14.570701821799249,19.776699390899545,30.79950244112113,1.424069585382412,0.9286555547632394,0.8100066579342083,3475.4899291992188,11.96075,0.21,179.75021303817792,-11.313860980973804,108.64952325959077,1647.0,1435.0,1200.0,1528.0,1543.0,995.0,60.0,293.1,1649250076.9130924,1649250078.0269096,d02399b4-f38f-437a-ad23-1c0039f3614a
0.0858391339195602,0.2846342651807242,-0.0308292493474589,-0.326398819981115,-0.2208279229308468,0.2500400467129381,-0.2795237102439661,-0.3082799127039864,-14.59213137367424,19.8470346930432,31.090107272144355,1.4257930762792697,0.9338490966007386,0.7978599946744108,3478.6630859375,11.959,0.2155555555555555,179.79551825212505,-11.256510526839916,108.64922614636184,1647.0,1435.0,1200.0,1528.0,1543.0,995.0,60.0,293.1,1649250078.1347322,1649250079.465165,d02399b4-f38f-437a-ad23-1c0039f3614a
0.162075273134752,0.4179357381580783,-0.0069380673251877,-0.3965076806089109,-0.2320700590249404,0.1789844954358907,-0.2858745307410844,-0.3160244956770635,-14.3234493975577,19.754084680448774,30.4465748919256,1.4248762872549738,1.447757511678626,0.8044812641275777,3481.1749403211807,11.94811111111111,0.2022222222222222,179.73859697340197,-11.25394303975816,108.5984619037206,1745.0,1435.0,1200.0,1528.0,1614.0,995.0,60.0,293.1,1649250080.0643437,1649250081.3102896,50502e5e-7e98-463a-baf0-61dbcfa68a3f
0.1601424148961882,0.4129392339797501,-0.0019810086754095,-0.3863042897275061,-0.2232604314562103,0.1752502660706944,-0.2799444678957803,-0.3067941094823694,-14.378345828589769,19.587540235032687,30.59955630875286,1.39260816311824,1.4271054269572647,0.77701268644957,3478.192708333333,11.947,0.2166666666666666,179.76272423719007,-11.221579611332132,108.54659800062296,1745.0,1435.0,1200.0,1528.0,1614.0,995.0,60.0,293.1,1649250081.4263096,1649250082.5421836,50502e5e-7e98-463a-baf0-61dbcfa68a3f
0.157052471399362,0.4200000833102438,-0.0024149159121167,-0.4067505191020863,-0.2290327101573543,0.1858612624792092,-0.2783666242589809,-0.3050321840911033,-14.23963800953502,19.6735765607177,30.417727540635887,1.4631637499066898,1.456709029027505,0.7837000153092042,3484.7938639322915,11.944,0.21,179.77850197417283,-11.217936559183576,108.4770256937372,1745.0,1435.0,1200.0,1528.0,1614.0,995.0,60.0,293.1,1649250082.6545012,1649250083.694041,50502e5e-7e98-463a-baf0-61dbcfa68a3f
0.2425452908455926,0.5472137081787605,0.0234617187073751,-0.4520346381514409,-0.2336347542604871,0.10080234868022,-0.2869527241949497,-0.3091082805393799,-14.116308211120316,19.61235988968805,30.18439245415509,1.375082448306804,1.9422474592815064,0.7816983209203419,3484.94921875,11.92511111111111,0.2,179.66756452385366,-11.11478789611169,108.24211575652288,1849.0,1435.0,1200.0,1528.0,1686.0,995.0,60.0,293.1,1649250085.69881,1649250086.832364,0c4f0cd2-ea9b-4a60-9aa1-78a02b53c056
0.2416380308551357,0.556746512063058,0.0231987450146256,-0.4675763985445229,-0.2375399171880873,0.1074424415107714,-0.2869132779514236,-0.3163926592624711,-14.14413192027322,19.62561394491708,30.420653269632147,1.4251604511836715,1.9780013024803969,0.7886451192451461,3488.2587076822915,11.92,0.2,179.64411117206367,-11.128867382448286,108.12482319463597,1849.0,1435.0,1200.0,1528.0,1686.0,995.0,60.0,293.1,1649250086.9407928,1649250088.0684402,0c4f0cd2-ea9b-4a60-9aa1-78a02b53c056
0.2434131047443017,0.5505666254094891,0.0240139639882213,-0.4651701871320364,-0.2359489249616957,0.1090860281913056,-0.2855063674459352,-0.3108044627859311,-14.145497569052855,19.697529711316303,30.116371346643888,1.4238941255243296,1.957286122975566,0.7821774538775234,3491.416015625,11.931,0.2,179.62123307398372,-11.077220148129328,108.01202565613283,1849.0,1435.0,1200.0,1528.0,1686.0,995.0,60.0,293.1,1649250088.177291,1649250089.2955768,0c4f0cd2-ea9b-4a60-9aa1-78a02b53c056
0.3172298811173988,0.6633955770123517,0.0504822896803869,-0.5267849942052717,-0.2409717276404955,0.0549002512584449,-0.2834551703574302,-0.30584740325875,-13.81760857252196,19.7138193532787,30.171525019608715,1.44271913349684,2.3869180761135107,0.7634314585218007,3494.2626953125,11.868888888888888,0.1855555555555555,179.4805342127211,-11.006256759382618,107.6806241186939,1962.0,1435.0,1200.0,1528.0,1760.0,995.0,60.0,293.1,1649250091.2372036,1649250092.5712805,354deb1f-3e2f-47e7-a2f3-2974f8164597
0.2942196641695904,0.6549278174562461,0.0539798430974487,-0.5247995393655265,-0.2375793632745875,0.0600413919464779,-0.2788005311417922,-0.3076750723230904,-13.760852746612102,19.886828160506,30.01190841186564,1.4511174401223923,2.35615201197236,0.746152539256044,3487.15478515625,11.86775,0.18375,179.4237812222701,-10.991243185387187,107.45388669254896,1962.0,1435.0,1200.0,1528.0,1760.0,995.0,60.0,293.1,1649250092.680453,1649250093.7967298,354deb1f-3e2f-47e7-a2f3-2974f8164597
0.3196229436749486,0.6449348092817863,0.0511528731678149,-0.5198161822700902,-0.2385392184636794,0.0636572832616842,-0.2815486093119716,-0.3112383698837564,-13.875763960949898,20.03119425617565,29.763916721489537,1.4487204794048971,2.320893088654836,0.7535712041011994,3488.8897569444443,11.875777777777778,0.1888888888888889,179.40448081522288,-10.985235524119568,107.22722174230022,1962.0,1435.0,1200.0,1528.0,1760.0,995.0,60.0,293.1,1649250093.905432,1649250095.0290089,354deb1f-3e2f-47e7-a2f3-2974f8164597
-0.1020162934275569,-0.0325517282323526,-0.0955602837372337,-0.177332032268721,-0.2132148268655588,0.4083634875714834,-0.2824690189678432,-0.3028100545160179,-15.165712806842889,21.022014852998847,28.6595943731711,1.449198584062054,-0.2526269709891487,0.8385358164199735,3452.817355685764,11.958555555555556,0.2022222222222222,179.66345730343275,-10.949616846507858,106.8327714875428,1459.0,1435.0,1200.0,1528.0,1394.0,995.0,60.0,293.1,1649250097.169377,1649250098.3046792,cffe24a6-ea29-4ed8-bbc8-615fa37babc7
-0.1010493164178479,-0.0382642890703523,-0.0883115171515809,-0.1587666189705881,-0.2022121067792123,0.3992174744252925,-0.2772555604835088,-0.3014436857648663,-15.251186997207313,21.009892514332225,29.042367563722724,1.3870658179415558,-0.2786665633514961,0.806202624830686,3445.41490342882,11.956333333333331,0.2111111111111111,179.5698943365423,-10.904590247360629,106.84080303109684,1459.0,1435.0,1200.0,1528.0,1394.0,995.0,60.0,293.1,1649250098.413658,1649250099.5437224,cffe24a6-ea29-4ed8-bbc8-615fa37babc7
-0.1013194124425677,-0.0288963904996978,-0.101411453748148,-0.1751887941265233,-0.2196182425536713,0.4031040096731897,-0.2896350591008738,-0.3129739980119674,-15.076707550569768,21.000339986896453,28.651302746998823,1.432153661552324,-0.2401088799739613,0.865956736170387,3447.4165852864585,11.96,0.2133333333333333,179.52692789320346,-10.83528090275792,106.81285237919332,1459.0,1435.0,1200.0,1528.0,1394.0,995.0,60.0,293.1,1649250099.6583335,1649250100.769099,cffe24a6-ea29-4ed8-bbc8-615fa37babc7
-0.1907568510582901,-0.1812503428943022,-0.1199248190103578,-0.1197407405231353,-0.2060750838134856,0.4918445524195943,-0.2754213171829118,-0.2968405454742925,-15.392978721137856,21.62977753050106,27.281898084799515,1.5093615675151433,-0.8051431593092971,0.8321492755197031,3459.010986328125,11.93,0.2,179.46765095812663,-10.800405387673406,106.73910682672472,1364.0,1435.0,1200.0,1528.0,1312.0,995.0,60.0,293.1,1649250102.6977968,1649250103.8426664,d7ff1200-b901-4853-838c-2fe4d4c31efb
-0.1946488655159411,-0.1722960798866281,-0.1271566033173654,-0.101687576922696,-0.2144639536279617,0.4677692924989558,-0.2922253538217149,-0.3213628682036787,-15.385307125184337,21.833664102027704,27.37480217198025,1.4155478951335363,-0.7751146627634289,0.8786527829184143,3464.1357421875,11.929666666666668,0.2033333333333333,179.4374433081574,-10.726961501893122,106.61679407579784,1364.0,1435.0,1200.0,1528.0,1312.0,995.0,60.0,293.1,1649250103.9511783,1649250105.0667336,d7ff1200-b901-4853-838c-2fe4d4c31efb
-0.199934642120241,-0.2105719385524725,-0.13061471053074,-0.0716165122346796,-0.2056543260842584,0.4829560339692083,-0.2888592884456953,-0.3067152192276209,-15.590541961054695,21.824412260303703,28.13911268666928,1.3816265797981424,-0.9279156415459244,0.8631455197585721,3464.602294921875,11.925333333333334,0.2022222222222222,179.395320772636,-10.758872240559157,106.511244126914,1364.0,1435.0,1200.0,1528.0,1312.0,995.0,60.0,293.1,1649250105.174492,1649250106.2913003,d7ff1200-b901-4853-838c-2fe4d4c31efb
-0.2891880027697206,-0.3546290744186771,-0.1512976111948004,-0.01288128103624,-0.1994086947359039,0.5545375308227078,-0.2865845630082275,-0.3134473522388629,-15.946184267239651,22.915047519452006,25.85727495755481,1.4156447927005922,-1.454000721291774,0.8587625006452896,3475.0591634114585,11.87611111111111,0.1855555555555555,179.401756328654,-10.738379680910612,106.28831358259396,1262.0,1435.0,1200.0,1528.0,1222.0,995.0,60.0,293.1,1649250108.2265923,1649250109.3647096,88e93767-fd91-418f-ac3d-df099aeedf63
-0.3065442841854436,-0.3614663980677425,-0.1549266512106153,-0.0062674925965869,-0.2003422519492219,0.5537223103575659,-0.289621911883341,-0.3129345525981327,-15.98980345041366,22.88247414164008,25.62988667063604,1.398438958517733,-1.4783656926551294,0.8681981850477289,3467.4052734375,11.879333333333332,0.19,179.40112946907016,-10.664427704947068,106.04865438717674,1262.0,1435.0,1200.0,1528.0,1222.0,995.0,60.0,293.1,1649250109.4732437,1649250110.5988665,88e93767-fd91-418f-ac3d-df099aeedf63
-0.3132501204742946,-0.3841479030078167,-0.1681542406324366,0.0231855908519861,-0.203445344474132,0.5520524269811637,-0.3007851562465869,-0.3319738685162718,-16.113601487404836,22.749619072246,25.996874060353147,1.326704392574972,-1.570278631078595,0.9043487886136934,3467.4052734375,11.889333333333331,0.19,179.38038846129058,-10.699530893003915,105.89578792336268,1262.0,1435.0,1200.0,1528.0,1222.0,995.0,60.0,293.1,1649250110.707507,1649250111.8225715,88e93767-fd91-418f-ac3d-df099aeedf63
-0.3317215129425671,-0.4533090483138757,-0.1592459990550223,0.0364167207358854,-0.1859732547995589,0.5952868536797176,-0.2795692286281895,-0.3126053302358869,-16.27095748441973,23.486823080567625,24.35049768192059,1.3990006692288657,-1.815021254008219,0.8272141289004166,3466.9383951822915,11.723333333333333,0.1233333333333333,179.40106116717843,-10.660833602487564,105.59217007764757,1153.0,1435.0,1200.0,1528.0,1121.0,995.0,60.0,293.1,1649250112.7326176,1649250113.838115,8787d25e-3ca4-45f8-b689-9a7a6c770312
-0.3313821752604506,-0.447945390289295,-0.1567280229358451,0.0439868309203359,-0.1832883914379375,0.5823075746568815,-0.2821403028328341,-0.3116985750229225,-16.411665495653708,23.531522905190496,24.24353127476581,1.353092001399505,-1.793731996313121,0.8242333969499461,3462.8918185763887,11.735333333333331,0.13,179.44105268367878,-10.722050880471096,105.00500072308888,1153.0,1435.0,1200.0,1528.0,1121.0,995.0,60.0,293.1,1649250113.9458094,1649250115.1038697,8787d25e-3ca4-45f8-b689-9a7a6c770312
-0.3128329020132518,-0.4283012338408486,-0.1453007935816438,0.0305503801634289,-0.1782104656136703,0.5719984921267003,-0.2732224512148341,-0.3055631903324994,-16.184352548398188,23.468610613776885,23.83347339746328,1.3604364619227822,-1.7156513254867052,0.7909089545731732,3461.0274522569443,11.741222222222223,0.1344444444444444,179.45994498692303,-10.702557710307357,104.57701044495715,1153.0,1435.0,1200.0,1528.0,1121.0,995.0,60.0,293.1,1649250115.2116582,1649250116.3277123,8787d25e-3ca4-45f8-b689-9a7a6c770312
0.0122590296125025,0.1596953592567524,-0.0574816576437037,-0.2789188711146961,-0.2191054435623369,0.3220028569957802,-0.2778669745623451,-0.3085823330487883,-14.807361572938383,20.165987841915104,30.03451856613755,1.4809106462465855,0.4686012303827477,0.8130136965946367,3458.545789930556,11.95711111111111,0.2044444444444444,179.24995613326035,-10.598469327042162,103.95634736052858,1553.0,1435.0,1200.0,1528.0,1471.0,995.0,60.0,293.1,1649250118.2640688,1649250119.3995955,0e99c4b0-f2af-42d9-b797-6393d37430b1
0.007841067608873,0.1447189946171974,-0.0600325046713142,-0.2522138666959101,-0.2160154993251271,0.3162963227450551,-0.2824295729632491,-0.3062024188736917,-14.917347693532664,20.296529059679543,30.604329886155853,1.408621179990793,0.4047115349588763,0.817873520539799,3471.1520182291665,11.954777777777776,0.21,179.13251786067116,-10.57713323903112,104.28333659576366,1553.0,1435.0,1200.0,1528.0,1471.0,995.0,60.0,293.1,1649250119.5086298,1649250120.62941,0e99c4b0-f2af-42d9-b797-6393d37430b1
0.0134818584062531,0.1558296426499802,-0.0559038136290364,-0.2704116631797681,-0.2161338374106776,0.3188734677005396,-0.2789188698818012,-0.3091345782392364,-14.975761509481549,20.304306283743728,30.16600996466145,1.4556200018444456,0.4531838844792661,0.8079309236479318,3479.1339518229165,11.949666666666667,0.21,179.02187638521605,-10.603026296447162,104.52909894465924,1553.0,1435.0,1200.0,1528.0,1471.0,995.0,60.0,293.1,1649250120.7385528,1649250121.8570335,0e99c4b0-f2af-42d9-b797-6393d37430b1
0.0071178893318922,0.1368429258142627,-0.0766130110712941,-0.468141794117332,-0.2513329012939176,0.5333681321262251,-0.2358963302464154,-0.2665853908377472,-14.8955090189723,19.671638381890823,32.22150034784502,2.378791726223332,0.386207614715405,0.8220310654982333,3484.3193359375,11.949,0.205,178.8884053819151,-10.505273625115192,104.97770918444029,1553.0,1537.0,1200.0,1528.0,1471.0,995.0,60.0,293.1,1649250123.7917783,1649250124.932536,101cd084-640b-4d8c-9304-8b6f05bfa800
0.0048957595928237,0.1325695996276371,-0.0829638318439616,-0.4638816164551432,-0.2571709233717764,0.5339335259406367,-0.2423654899244366,-0.2666905811222115,-14.847560738501617,19.75378005540669,32.213723389687594,2.370703519414824,0.368983870038804,0.8473593663189649,3490.6263563368057,11.948444444444442,0.2044444444444444,178.83484152062405,-10.526511007406352,105.17380201823656,1553.0,1537.0,1200.0,1528.0,1471.0,995.0,60.0,293.1,1649250125.04142,1649250126.36852,101cd084-640b-4d8c-9304-8b6f05bfa800
0.0274194766089256,0.1394332188819332,-0.075061465111882,-0.4736248016775155,-0.2505702771054532,0.534604109452833,-0.2333717808041557,-0.2559743921114276,-14.86383162880088,19.60476906922543,32.05668273944416,2.3935610986069498,0.397931659398123,0.8153654820280716,3491.416015625,11.947,0.2,178.82513050944414,-10.522325524401214,105.29621570418117,1553.0,1537.0,1200.0,1528.0,1471.0,995.0,60.0,293.1,1649250126.4813137,1649250127.5923605,101cd084-640b-4d8c-9304-8b6f05bfa800
0.005658384032663,0.1260872924877418,-0.1010038437825442,-0.6768116687168241,-0.2962751509432,0.7483887415009619,-0.2017228652077889,-0.232056910756535,-14.8976293854196,19.449804580495275,34.01361016785139,3.330279399826087,0.3541407507177442,0.8673217963892716,3495.054389105903,11.937333333333337,0.2,178.81812273535564,-10.455845111343494,105.48391385603256,1553.0,1645.0,1200.0,1528.0,1471.0,995.0,60.0,293.1,1649250128.7069511,1649250129.8455973,a9f50a3a-d249-47f1-aac1-0eb047baaf6c
0.0017137750431037,0.1207226244364113,-0.1016481304774809,-0.6709605005020752,-0.2952889991690124,0.7482967009962235,-0.2017886092355644,-0.2349233267923996,-14.883763384744968,19.45487899875049,34.01635689237568,3.316882745965374,0.3331363372126517,0.8663641276025809,3491.890923394097,11.936,0.2,178.79288290964274,-10.445040985305134,105.57881326327065,1553.0,1645.0,1200.0,1528.0,1471.0,995.0,60.0,293.1,1649250129.95416,1649250131.1082263,a9f50a3a-d249-47f1-aac1-0eb047baaf6c
0.0196091508829021,0.1298609682011625,-0.0985713352997767,-0.6851347951309934,-0.2961042184737518,0.7529118925241585,-0.1975547280391697,-0.2188556179260393,-14.768237739541432,19.42707779504865,34.11764305206372,3.3592706381072213,0.3676350635742688,0.8584688447458343,3488.573974609375,11.938555555555556,0.2,178.75117625675082,-10.448250130713918,105.6454417586241,1553.0,1645.0,1200.0,1528.0,1471.0,995.0,60.0,293.1,1649250131.2204196,1649250132.3038142,a9f50a3a-d249-47f1-aac1-0eb047baaf6c
0.012469408757424,0.117974547084949,-0.0928122058355351,-0.7974247099476984,-0.303467489171144,0.8719338804192143,-0.1593577623296002,-0.184603261098438,-14.636305488563137,19.530787172575486,34.84945676758737,3.881184808489136,0.3298260758720329,0.8049222490107765,3498.541259765625,11.92488888888889,0.1944444444444444,178.7540191332654,-10.433293344523928,105.73755976105016,1553.0,1761.0,1200.0,1528.0,1471.0,995.0,60.0,293.1,1649250133.212293,1649250134.3495245,735dfdab-30c0-48bf-afd4-fdb6217eafd3
0.0007407715769515,0.1208146654550951,-0.0985713355010345,-0.8109678732837792,-0.3106072327466697,0.8798230974159539,-0.16460409285605,-0.1848267890570282,-14.80963593242064,19.55579768540638,34.552138231272394,3.9292073779373498,0.3456429428303187,0.8296409087572484,3498.541259765625,11.916999999999998,0.19,178.7661586561502,-10.432082598629805,105.7424888809012,1553.0,1761.0,1200.0,1528.0,1471.0,995.0,60.0,293.1,1649250134.4573753,1649250135.579673,735dfdab-30c0-48bf-afd4-fdb6217eafd3
0.0263281347687785,0.1234181072304785,-0.0985318892822636,-0.8066025030676189,-0.311514492780841,0.8771276148697805,-0.1647224309027765,-0.1948066501084247,-14.610856925871344,19.555646438026784,35.10134042843946,3.913491630879847,0.34859798581261,0.83225831533432,3492.681206597222,11.916333333333334,0.1888888888888888,178.75690299091494,-10.470986786959768,105.7931620543535,1553.0,1761.0,1200.0,1528.0,1471.0,995.0,60.0,293.1,1649250135.6875324,1649250136.8086946,735dfdab-30c0-48bf-afd4-fdb6217eafd3
0.0160721515870801,0.1149503469995123,-0.0944426444941787,-0.8434057218660953,-0.3147490725210217,0.9189404655709684,-0.1548346105918175,-0.1794358230042963,-14.766975612735012,20.13319944852551,35.09587616685547,4.094422562688641,0.3227924310946025,0.8153104729963411,3489.99462890625,11.888777777777776,0.19,178.81271474335284,-10.428944031842445,105.80848140975192,1553.0,1887.0,1200.0,1528.0,1471.0,995.0,60.0,293.1,1649250138.7427742,1649250139.8831758,5e452699-306f-488e-8c3a-07cfcd357ff2
0.0249869677396223,0.1137932617445601,-0.0897222619390684,-0.831059092079486,-0.3106203808192267,0.9100256506360022,-0.1512318675091227,-0.1723092289144606,-14.4589618293954,20.199730510015662,35.313095602513705,4.047404569656411,0.3131276426822068,0.7985858198038833,3486.3671061197915,11.890333333333334,0.18,178.80201714929277,-10.46277955576209,105.73323473348572,1553.0,1887.0,1200.0,1528.0,1471.0,995.0,60.0,293.1,1649250139.991232,1649250141.1196475,5e452699-306f-488e-8c3a-07cfcd357ff2
0.0214894145201483,0.1230104976627262,-0.0881970131894133,-0.8404078169460455,-0.3105940835507081,0.9062651233160604,-0.1507979603197825,-0.1729929611417486,-14.540596116344563,20.081887170341822,34.848260166617735,4.0592221548941065,0.3536412157858723,0.7962221115296217,3487.15478515625,11.893555555555556,0.19,178.82407410685244,-10.432696651608936,105.6782501928473,1553.0,1887.0,1200.0,1528.0,1471.0,995.0,60.0,293.1,1649250141.2320373,1649250142.3375385,5e452699-306f-488e-8c3a-07cfcd357ff2
0.0148887689733684,0.1570787687727436,-0.0431758752888401,-0.0861195200081454,-0.1880482195131138,0.1404851136986062,-0.3185358978076308,-0.3425585698881235,-14.896480009163668,20.97411149838883,28.994103103131856,0.6439667140408729,0.4458222483524144,0.8086286289708856,3480.07568359375,11.957222222222224,0.2055555555555555,178.83255720180162,-10.683569404959767,105.6294727763446,1553.0,1335.0,1200.0,1528.0,1471.0,995.0,60.0,293.1,1649250144.273475,1649250145.410676,24fed722-5d2a-4332-aa13-dc9042f0c60c
-0.0048342758183609,0.1496366068731462,-0.0445038939626934,-0.0758635360630843,-0.186010171717054,0.1390387576591729,-0.3190486973133929,-0.3381011609670314,-14.919142343303193,20.91377529804909,29.08813410144408,0.6171190508672625,0.4158886767895026,0.8077240473451132,3477.253255208333,11.957333333333333,0.2066666666666666,178.78145827989107,-10.725530861853215,105.8406113785176,1553.0,1335.0,1200.0,1528.0,1471.0,995.0,60.0,293.1,1649250145.5228398,1649250146.8510942,24fed722-5d2a-4332-aa13-dc9042f0c60c
0.000372608043877,0.1483480347319967,-0.0472782687582875,-0.0662386908434262,-0.1873644873866899,0.1328588699408139,-0.3238874181244069,-0.3486858628012845,-14.946689767114083,20.94013635156369,29.260481790078416,0.5815709371098553,0.4083627505343785,0.8203812316795657,3485.736572265625,11.957,0.2,178.75227515829727,-10.707965417718974,106.02467814646026,1553.0,1335.0,1200.0,1528.0,1471.0,995.0,60.0,293.1,1649250146.965451,1649250148.121762,24fed722-5d2a-4332-aa13-dc9042f0c60c
-0.0028225251906985,0.1598005488293425,-0.0212832954383016,0.1076528201427417,-0.1492069676259417,-0.0496055885566784,-0.3531038254984484,-0.3700393496781084,-15.02477415914903,21.65678969505128,27.66051943643167,-0.2149569005332174,0.4463000592714211,0.7748783515702368,3488.573974609375,11.952222222222224,0.2,178.73607698522565,-10.741319223574656,106.22384798047764,1553.0,1236.0,1200.0,1528.0,1471.0,995.0,60.0,293.1,1649250149.187083,1649250150.320984,dbf8e159-e32b-4d0d-ab85-530a319b8d07
0.001069488980734,0.1642711053640509,-0.0273448444445865,0.0944383806878185,-0.1598837096840453,-0.0427945636634769,-0.3589812939865819,-0.3773105799196212,-14.891549880117228,21.8355424440363,27.472914750844403,-0.1689227749858964,0.4650329132338796,0.8062315575481821,3486.051730685764,11.949333333333334,0.2,178.72816307270736,-10.75586335250229,106.37206308546692,1553.0,1236.0,1200.0,1528.0,1471.0,995.0,60.0,293.1,1649250150.4291964,1649250151.5537808,dbf8e159-e32b-4d0d-ab85-530a319b8d07
-0.0042820305470491,0.1629825332065078,-0.0331039737119345,0.0933733355304615,-0.16489336345544,-0.0395468359719635,-0.3642539228101635,-0.3946142674369448,-14.961390161562797,21.824025841388305,27.57367748947792,-0.1596044210760726,0.4595670753859271,0.8283450610356402,3485.106689453125,11.948,0.2,178.7057236245541,-10.816137020879236,106.50889074728995,1553.0,1236.0,1200.0,1528.0,1471.0,995.0,60.0,293.1,1649250151.6620653,1649250152.7828054,dbf8e159-e32b-4d0d-ab85-530a319b8d07
0.020411221429355,0.1854010594970672,-0.009055007698504,0.2171683075342245,-0.1382935489075962,-0.1843139904982919,-0.3862911415571745,-0.4099982452390883,-14.839018477673283,22.59226295645553,26.3205121254425,-0.7580146222358068,0.5401866298838937,0.7925109573714542,3480.07568359375,11.936555555555556,0.1911111111111111,178.73262546296507,-10.797579207176836,106.6765734092336,1553.0,1133.0,1200.0,1528.0,1471.0,995.0,60.0,293.1,1649250154.7166016,1649250155.8566234,00780e27-04db-425d-878f-45f9f73e6b97
-0.0262009076581985,0.1598794409377237,-0.017338686296506,0.2445833359807613,-0.1366368129187547,-0.1828676384064006,-0.3938779406034982,-0.4173352189039909,-15.18192027663929,22.624584739347764,26.500206024503605,-0.8169482340925899,0.4413994257288888,0.809500610652467,3477.251953125,11.943,0.2,178.72879752139025,-10.822723315377637,106.74677940589235,1553.0,1133.0,1200.0,1528.0,1471.0,995.0,60.0,293.1,1649250155.9648778,1649250157.0946114,00780e27-04db-425d-878f-45f9f73e6b97
-0.0252542014834687,0.1626275183993638,-0.018088162097211,0.2539715060507487,-0.1374125861523807,-0.1946488677334285,-0.3969810336066286,-0.413982300808482,-15.021774963000894,22.60418389783136,26.42175182934782,-0.864704092523793,0.450064511984156,0.8164215507446219,3475.37255859375,11.937333333333337,0.1966666666666666,178.7603029073018,-10.875725583336935,106.7878925912364,1553.0,1133.0,1200.0,1528.0,1471.0,995.0,60.0,293.1,1649250157.203494,1649250158.523267,00780e27-04db-425d-878f-45f9f73e6b97
0.0039359047885655,0.1795235925105529,-0.0057415360753434,0.2608351246158271,-0.133362787452666,-0.2183691196738221,-0.3987298106889114,-0.4185054535077193,-15.060929292875084,23.25311013790077,26.334918729282208,-0.9286062686956972,0.5144304441881321,0.7982540783075234,3471.61865234375,11.920111111111112,0.19,178.7838913450554,-10.833194659421435,106.80997990519238,1553.0,1026.0,1200.0,1528.0,1471.0,995.0,60.0,293.1,1649250159.634352,1649250160.776795,ff6660c5-9801-4507-a368-82340216daea
-0.0016128451695456,0.1787346706815077,-0.0044792613789716,0.2643721239517801,-0.1324949735548164,-0.2207753307448866,-0.3987824053287828,-0.4289718176884041,-15.04256219881715,23.347925688848417,26.34938748618548,-0.9412890016607938,0.5108594228352662,0.7953562391213234,3472.6735229492188,11.934499999999998,0.1975,178.80704075342732,-10.7782338110017,106.77390379463375,1553.0,1026.0,1200.0,1528.0,1471.0,995.0,60.0,293.1,1649250160.8899071,1649250161.9954498,ff6660c5-9801-4507-a368-82340216daea
-0.0123290329005845,0.1726073784679361,-0.0070695550299629,0.280900034805548,-0.1308119407206604,-0.2302818379102751,-0.4039629939876755,-0.4277095431868891,-15.205873226168404,23.32823878718008,26.27930698808114,-1.0002871741445185,0.4874558643925175,0.8031693427966462,3469.7450358072915,11.921333333333331,0.19,178.8392553406477,-10.818300483298838,106.7411740973135,1553.0,1026.0,1200.0,1528.0,1471.0,995.0,60.0,293.1,1649250162.1040895,1649250163.228049,ff6660c5-9801-4507-a368-82340216daea
0.0057241274836362,0.1341079969677787,-0.065331429227156,-0.2455343269671342,-0.2169096106612288,0.3207405818899684,-0.2844413228671909,-0.3021131730134744,-14.95544657068229,20.1581921335763,30.60621500568554,1.4023408377965518,0.3640061250868299,0.8279860795679312,3473.4957139756943,11.959,0.2,178.89294973444288,-10.63223313397552,106.67495769003996,1553.0,1435.0,1200.0,1528.0,1471.0,995.0,60.0,293.1,1649250165.1615465,1649250166.2967577,84383c54-d25f-4563-9bde-45b6d54f8d4e
0.0028708603700734,0.1539099329493179,-0.0551017432485186,-0.2752503855050369,-0.2160943914574607,0.325934316086528,-0.2751846397423399,-0.2997990025800227,-14.845661723039807,20.28691588530378,30.28586481291952,1.4824108921923187,0.4446470234672839,0.801459591066084,3475.842041015625,11.95811111111111,0.1977777777777777,178.88941624991227,-10.613165143087617,106.69072404337405,1553.0,1435.0,1200.0,1528.0,1471.0,995.0,60.0,293.1,1649250166.4054224,1649250167.5241425,84383c54-d25f-4563-9bde-45b6d54f8d4e
-0.0061885915277391,0.1458892285088885,-0.057507954792115,-0.2723445225098279,-0.2167649750977349,0.3319301214787689,-0.2758420747159886,-0.2995097310989327,-14.879512119314963,20.33107015102297,30.38919536887833,1.4895016752575052,0.4133787078558048,0.8057478460751445,3479.291069878472,11.956888888888887,0.2,178.898989139489,-10.589060741460468,106.70164551585692,1553.0,1435.0,1200.0,1528.0,1471.0,995.0,60.0,293.1,1649250167.632434,1649250168.7625847,84383c54-d25f-4563-9bde-45b6d54f8d4e
0.0127849775387582,0.1461653511891848,0.0080120004897779,-0.2544885905936174,-0.1533225097828923,0.3137060298541187,-0.2102563698625043,-0.2380527167175193,-14.39329857365839,20.3232802648122,30.676480457880803,1.411772459049331,0.4103818716134642,0.5375843159355109,3479.6050618489585,11.956333333333331,0.1966666666666666,178.92287506992642,-10.634832210682186,106.68767094881508,1553.0,1435.0,1200.0,1435.0,1471.0,995.0,60.0,293.1,1649250170.6911335,1649250171.829324,40e2ea42-a771-4d2a-9c5b-73e819ada29f
0.0186361474444303,0.1633243992951497,0.0115490000131662,-0.2869264279765947,-0.157056739608682,0.3239357152820759,-0.203563682549482,-0.2236022975969611,-14.211372563957616,20.207945557090465,30.314546831748483,1.5073771757737775,0.4808749786358442,0.5297761054314857,3481.489013671875,11.956666666666663,0.2,178.9334800769777,-10.60105834819255,106.67473457052704,1553.0,1435.0,1200.0,1435.0,1471.0,995.0,60.0,293.1,1649250171.937473,1649250173.0577648,40e2ea42-a771-4d2a-9c5b-73e819ada29f
0.0346118134995171,0.1596822105513192,0.0159143669246211,-0.2654151580574564,-0.1497460642444566,0.3100638416748635,-0.2037609134796978,-0.2294140224649085,-14.30133848671774,20.29345516542728,30.666444709738908,1.4284760965842132,0.462362144503082,0.5142952589686566,3482.2750108506943,11.959111111111111,0.1944444444444444,178.93817014020783,-10.605508311300552,106.6564357348307,1553.0,1435.0,1200.0,1435.0,1471.0,995.0,60.0,293.1,1649250173.1654751,1649250174.285527,40e2ea42-a771-4d2a-9c5b-73e819ada29f
0.0526912708550737,0.1703063567435521,0.0978964880342335,-0.2837838891967712,-0.078151408737204,0.3106686815977612,-0.1158487230689871,-0.1451571688156562,-13.562555779359,20.29815682331069,30.477934505669133,1.4757257746737866,0.5061098839699263,0.1812351729872201,3487.8643798828125,11.958000000000002,0.195,178.96253342497727,-10.591085560526292,106.62173571766236,1553.0,1435.0,1200.0,1330.0,1471.0,995.0,60.0,293.1,1649250175.19688,1649250176.3454845,94c555a9-2dc7-4e5e-afe4-36f56baf69da
0.0470373314703451,0.1637320088439559,0.1007366063854382,-0.2761444977233053,-0.0721161567788946,0.3108527626233121,-0.1110888952287169,-0.1341780068865704,-13.567571474651436,20.180558913688024,30.61901292394964,1.458288645938297,0.4794746889446485,0.1618817886036559,3484.3193359375,11.959,0.2,178.9614747456559,-10.662482808580908,106.6221967554313,1553.0,1435.0,1200.0,1330.0,1471.0,995.0,60.0,293.1,1649250176.454579,1649250177.577659,94c555a9-2dc7-4e5e-afe4-36f56baf69da
0.0619216556302247,0.1736724228856754,0.1028272491348463,-0.2842835392201919,-0.0729708221286573,0.3066451809811139,-0.1118778163135193,-0.1334811255674316,-13.645969757147045,20.224607589155053,30.34509789562829,1.467506308428173,0.5208752439332278,0.1619915430899478,3485.736572265625,11.95411111111111,0.19,178.9748254887535,-10.62960142414282,106.6253151162424,1553.0,1435.0,1200.0,1330.0,1471.0,995.0,60.0,293.1,1649250177.6898017,1649250178.7990277,94c555a9-2dc7-4e5e-afe4-36f56baf69da
0.081263387699308,0.178142979450419,0.18887231468453,-0.2614179547910186,0.0071836320005998,0.2783491879159523,-0.0301981119591073,-0.0457793176710408,-13.047840097825487,20.49526081012625,30.57768453525481,1.358759099094946,0.5339918704944373,-0.1793884385921037,3485.421630859375,11.951777777777778,0.19,178.94846702983654,-10.62884498069224,106.57521719650016,1553.0,1435.0,1200.0,1210.0,1471.0,995.0,60.0,293.1,1649250179.5613515,1649250180.6418812,4d014577-e893-461c-bd27-f82c30bfa5c5
0.077410819705234,0.1783533585415319,0.1921200426439607,-0.2581965231834349,0.0096555872495975,0.2741153080999607,-0.0276867110896706,-0.0590463524183052,-12.92704717703668,20.539185113167846,30.44788745926868,1.3424712537368566,0.5348863719861072,-0.1908209610215596,3480.07568359375,11.949666666666666,0.19,178.94484551175665,-10.57082622337878,106.5449791901346,1553.0,1435.0,1200.0,1210.0,1471.0,995.0,60.0,293.1,1649250180.775355,1649250181.866586,4d014577-e893-461c-bd27-f82c30bfa5c5
0.0774765631882666,0.1808253133953325,0.1905027528103584,-0.2717265329957199,0.0059608033126956,0.2830564212075104,-0.0277656040031955,-0.0585072561512551,-12.979469612821566,20.568332962167347,30.28560953746668,1.393143954210083,0.547530804444592,-0.1835686883470208,3481.489013671875,11.951222222222222,0.19,178.92058316200493,-10.621755244333768,106.54150945403624,1553.0,1435.0,1200.0,1210.0,1471.0,995.0,60.0,293.1,1649250181.9748049,1649250183.297416,4d014577-e893-461c-bd27-f82c30bfa5c5
0.1139116000495547,0.1969982091323657,0.2662918347715911,-0.2618518605285615,0.0731506419234999,0.2560752981285176,0.0415280272186223,0.0183468757900457,-12.53220413292803,20.836134659053304,30.54820853281959,1.3160550082438098,0.6062893349765283,-0.4744351555584264,3473.963623046875,11.941,0.19,178.92518822732535,-10.643533302502354,106.50622469678392,1553.0,1435.0,1200.0,1071.0,1471.0,995.0,60.0,293.1,1649250185.2356083,1649250186.3673613,faff2b94-def4-49e5-bf5b-29c203010b1a
0.1019462866413816,0.1940397526010306,0.2700129155252518,-0.2588934077102487,0.0780419569037656,0.2553652668508919,0.0464324899348669,0.0239613687563982,-12.488160424516758,20.77015334458809,30.456287992097096,1.3075413331134658,0.5955668119631641,-0.4935562545519768,3477.0952962239585,11.933222222222222,0.19,178.87827545246606,-10.633218009308342,106.47811998616916,1553.0,1435.0,1200.0,1071.0,1471.0,995.0,60.0,293.1,1649250186.4753244,1649250187.514958,faff2b94-def4-49e5-bf5b-29c203010b1a
0.0890079697373043,0.1902660769178845,0.2634122704494242,-0.2686234407198276,0.0714939062550141,0.2676724473820496,0.0437896027800776,0.024986967203203,-12.479357105064327,20.72511048512497,30.371465744537087,1.3565094292419924,0.5828814692113133,-0.4725141793412486,3475.842041015625,11.943,0.1988888888888889,178.90227066593022,-10.586320033192264,106.44757310347114,1553.0,1435.0,1200.0,1071.0,1471.0,995.0,60.0,293.1,1649250187.62304,1649250188.5780425,faff2b94-def4-49e5-bf5b-29c203010b1a
-0.0228348414191565,0.1370796023129356,-0.1625923418834868,-0.2520429318122439,-0.3133290132214976,0.3255004100813887,-0.3904066843847192,-0.4132985684888265,-15.503402014787952,20.518114913562552,30.06124805947666,1.4248989549847175,0.3785014034646751,1.2417651693485268,3466.939263237847,11.955,0.19,178.9260032965663,-10.647455348905757,106.4815965524567,1553.0,1435.0,1200.0,1613.0,1471.0,995.0,60.0,293.1,1649250190.7619083,1649250191.9001782,ccdf35b0-b4bd-460c-9c92-6cb25627b4d8
-0.0376008277169989,0.1224188063305653,-0.1654324603178795,-0.236343388268175,-0.3110674367977793,0.3272360373973899,-0.3922343540958511,-0.4212140855992621,-15.612620498214923,20.548458304679443,30.303125383829755,1.3934281273934233,0.3200312901919673,1.2437744380752322,3471.61865234375,11.955,0.1933333333333333,178.91797099410235,-10.615551440428886,106.48945430564184,1553.0,1435.0,1200.0,1613.0,1471.0,995.0,60.0,293.1,1649250192.0082653,1649250193.3303175,ccdf35b0-b4bd-460c-9c92-6cb25627b4d8
-0.0325911742917531,0.128519801137995,-0.1543349595603132,-0.2516747685414935,-0.3038225038818781,0.3350595113215553,-0.3789278700222776,-0.4040813306258324,-15.520236759351082,20.55405732317885,30.351518743527382,1.4462362714161725,0.3444221899663282,1.200568221176041,3466.938720703125,11.958111111111112,0.1977777777777777,178.89011748266705,-10.597101771388346,106.51393901599651,1553.0,1435.0,1200.0,1613.0,1471.0,995.0,60.0,293.1,1649250193.4386947,1649250194.467429,ccdf35b0-b4bd-460c-9c92-6cb25627b4d8
-0.0360907503778893,0.1291908904966974,-0.2376451070890597,-0.2248124855979915,-0.3812567064117302,0.310718747541184,-0.476079056114823,-0.4978376248474127,-15.991674543947132,20.767860768163725,29.806639834527928,1.3278894692450094,0.3465200367123413,1.5570506871972305,3467.4052734375,11.94588888888889,0.19,178.87650871020074,-10.616278855575493,106.52423742344509,1553.0,1435.0,1200.0,1694.0,1471.0,995.0,60.0,293.1,1649250196.5972445,1649250197.8351662,3bb4d07b-c7e3-48a2-a188-bc0ec7c1f14f
-0.0383285574365198,0.1134883131177258,-0.2410839976566443,-0.2148877468168411,-0.3796004763857555,0.319101040915772,-0.4767364916824505,-0.5012385867941894,-16.153042374064963,20.77534433726137,30.095059819434614,1.3241809456142386,0.2847718590563862,1.558896355293182,3468.652886284722,11.945444444444442,0.19,178.9058876305507,-10.665110344409117,106.52570819084634,1553.0,1435.0,1200.0,1694.0,1471.0,995.0,60.0,293.1,1649250197.9439533,1649250199.0672562,3bb4d07b-c7e3-48a2-a188-bc0ec7c1f14f
-0.0388762511985433,0.1197759184437348,-0.2408796871005747,-0.2268763262714183,-0.3825700594929983,0.3257633833966643,-0.4748081844108207,-0.5060100475697829,-16.03091934933947,20.76420012027133,30.35613777370575,1.3662348046669472,0.3066647317267194,1.5610309270812133,3468.1850314670137,11.947333333333331,0.1944444444444444,178.9038142886826,-10.65999301490096,106.5222392136579,1553.0,1435.0,1200.0,1694.0,1471.0,995.0,60.0,293.1,1649250199.1753464,1649250200.2967966,3bb4d07b-c7e3-48a2-a188-bc0ec7c1f14f
-0.0822406532024786,0.1077580103136088,-0.3198376193142973,-0.188626763125111,-0.4518242575311952,0.3058036644250759,-0.567335585803018,-0.5979852052299196,-16.72064109929917,21.094758748833343,30.191348268265006,1.2329872862543203,0.2582232299048044,1.8927560861106567,3462.581000434028,11.932555555555556,0.19,178.89348248919816,-10.63487357127216,106.49467712362718,1553.0,1435.0,1200.0,1774.0,1471.0,995.0,60.0,293.1,1649250201.208781,1649250202.3407276,2c273ef0-f9a4-4742-852f-ff30928ccee3
-0.0767839440508424,0.1223004680320757,-0.3203635674745895,-0.204668174359615,-0.4580567412606737,0.3032133711383505,-0.5720428203910533,-0.6001678894149757,-16.813769529822345,21.256502346590125,29.727520718817576,1.2642772588254445,0.3194807619246277,1.9094972674720248,3463.20263671875,11.929,0.19,178.9073113455377,-10.640193339998216,106.4359989684676,1553.0,1435.0,1200.0,1774.0,1471.0,995.0,60.0,293.1,1649250202.44989,1649250203.5537822,2c273ef0-f9a4-4742-852f-ff30928ccee3
-0.0694601198926766,0.1219323045662966,-0.3213234229928973,-0.2125179477171351,-0.4598055187922423,0.3111420341383041,-0.5708988838657344,-0.589662078045162,-16.818437546848767,21.251755781582627,29.776549793038694,1.299727394535516,0.3186039656119038,1.911513291994088,3461.0274522569443,11.937111111111111,0.19,178.90773785290588,-10.64892687521694,106.41613753727113,1553.0,1435.0,1200.0,1774.0,1471.0,995.0,60.0,293.1,1649250203.6613057,1649250204.8017864,2c273ef0-f9a4-4742-852f-ff30928ccee3
-0.0863167492060609,0.1152922131427724,-0.3599805959474711,-0.1796725000366156,-0.4928482000029349,0.288815549911862,-0.6201407670186816,-0.6450312561575255,-17.125943737629008,21.507161911195336,29.637621888790864,1.1750568328784745,0.2906170486233728,2.0782912745789672,3466.159505208333,11.918,0.18,178.90841631836344,-10.639634023396184,106.38601184957191,1553.0,1435.0,1200.0,1856.0,1471.0,995.0,60.0,293.1,1649250205.7146523,1649250206.8630047,5e8acaae-bd1a-4ef3-8189-5f93e9a2cfa9
-0.095941595455456,0.1050362302262023,-0.3796641989593551,-0.15885811333454,-0.5085608970043536,0.2827540008329436,-0.6433876722518223,-0.6611252668096883,-17.230351960340332,21.68805962475566,29.9050036182605,1.1146927124363344,0.246712591234688,2.158793480194345,3460.2510850694443,11.920111111111112,0.1888888888888888,178.92680470542894,-10.69913948521898,106.29111471906356,1553.0,1435.0,1200.0,1856.0,1471.0,995.0,60.0,293.1,1649250206.9791286,1649250208.0761964,5e8acaae-bd1a-4ef3-8189-5f93e9a2cfa9
-0.0940087370084793,0.1201046358344679,-0.3779811650083742,-0.1785680100417535,-0.5132418338998239,0.2819650794428943,-0.6414022165938517,-0.6607439544738563,-16.96334725990451,21.6419924991538,29.32521269762948,1.1572009994071628,0.3090097767132429,2.1610864051724974,3461.027669270833,11.917444444444444,0.18,178.93917493692572,-10.630808944669834,106.22394967440528,1553.0,1435.0,1200.0,1856.0,1471.0,995.0,60.0,293.1,1649250208.1855938,1649250209.3234825,5e8acaae-bd1a-4ef3-8189-5f93e9a2cfa9
-0.0110141631090422,0.124759274223493,-0.1393191472285897,-0.1970945237405497,-0.2471910615494049,0.3132063802394709,-0.3294361681549832,-0.3475550745263308,-15.126493389845562,16.488707158635755,34.15882337807288,1.2486128045090827,0.2879500443494769,1.0398375636072543,7196.83154296875,11.625555555555556,7.997777777777778,-179.05728408587336,-10.712740858313676,94.7064376979941,1553.0,1435.0,1350.0,1528.0,1471.0,995.0,60.0,293.1,1649250214.0619152,1649250215.0440538,926db6e0-00fd-461f-bd27-6c80fe785506
-0.0425386689437555,0.1139434603247022,-0.1511039203566931,-0.1990208081585126,-0.2549027731594764,0.3187849669499156,-0.336247699920449,-0.3606107207814096,-15.120472644826028,16.254947376144766,33.124976540414075,1.2631956640778612,0.2559906220078468,1.0734197020448704,7210.960123697917,11.622333333333334,8.0,-178.5354485263655,-10.651774210327188,89.43012339434843,1553.0,1435.0,1350.0,1528.0,1471.0,995.0,60.0,293.1,1649250215.1531205,1649250216.27207,926db6e0-00fd-461f-bd27-6c80fe785506
-0.0165234669466102,0.1094015972236542,-0.1479446926443811,-0.1799617716008111,-0.248900392263367,0.3049621475701617,-0.3366285061298836,-0.3591916727805559,-15.145666823552933,16.297488108741884,33.03261193590789,1.1895533368391749,0.2378072416269807,1.060932249022299,7215.00537109375,11.623666666666669,8.027777777777779,-178.20256939133617,-10.534489427266838,84.75943285748889,1553.0,1435.0,1350.0,1528.0,1471.0,995.0,60.0,293.1,1649250216.3804903,1649250217.4991033,926db6e0-00fd-461f-bd27-6c80fe785506
0.0516656725373211,0.2574427629126348,-0.1347828469906573,-0.2616809267344017,-0.2709902050972582,0.2248602951570581,-0.3525910265509052,-0.3747728808946883,-14.784638375998972,15.713429548462672,31.563924400597035,1.1906233642880095,0.8143991538967813,1.1114227613376664,7202.87890625,11.621666666666666,8.100000000000001,-178.2450106690188,-10.310650088332226,73.98707099331894,1647.0,1435.0,1350.0,1528.0,1543.0,995.0,60.0,293.1,1649250219.765419,1649250220.7100832,9465bac7-49d5-4955-bf39-95c05d428a06
0.0556497274967535,0.256219934221417,-0.131837538697448,-0.2838101856752393,-0.2723971157261836,0.2358526046333634,-0.3440575208251054,-0.3684483569119638,-14.461230319344246,15.707388637116283,30.10283669099177,1.265279238176832,0.823384583436435,1.0950002683010915,7202.87890625,11.62125,8.07,-178.36532900470803,-10.355527703978186,71.23822759035643,1647.0,1435.0,1350.0,1528.0,1543.0,995.0,60.0,293.1,1649250220.817948,1649250222.0058346,9465bac7-49d5-4955-bf39-95c05d428a06
0.0501798699011041,0.2613742228748698,-0.1163483732492556,-0.2390914637611733,-0.252384797123381,0.221757202999721,-0.3431765579616496,-0.3723929662174261,-15.25953101232459,16.18302812775695,34.72967265943413,1.136990537020009,0.8028431104777168,1.05216305542288,7204.8984375,11.624666666666668,8.08,-178.59277658079915,-10.350113498400482,68.52457863436716,1647.0,1435.0,1350.0,1528.0,1543.0,995.0,60.0,293.1,1649250222.1134987,1649250223.2344255,9465bac7-49d5-4955-bf39-95c05d428a06
0.1548697878840001,0.3987780892825237,-0.0952315658511413,-0.3302908337412398,-0.2693860634728209,0.1634953322843887,-0.3477786023386282,-0.3727216837314914,-14.88394597528982,15.989953919772317,33.71234797646422,1.2115902252542066,1.3371133878404993,1.067820480006039,7208.9375,11.612333333333332,8.083333333333334,-179.08372602488024,-10.341673945907283,65.2978879874264,1745.0,1435.0,1350.0,1528.0,1614.0,995.0,60.0,293.1,1649250224.145817,1649250225.2835815,38f8490a-8265-4dcc-b778-38e4fff2bb26
0.1531473086405707,0.4093627889044349,-0.0825693707334372,-0.3576532755156967,-0.2649943983922797,0.176499392182402,-0.3346824987943686,-0.3600200406936591,-14.847182812657657,16.2563027764993,33.54931491504971,1.304923717741834,1.3821733391488475,1.026660131015335,7208.9375,11.604,8.083333333333334,-179.37118136628936,-10.371008470027627,63.82706594463697,1745.0,1435.0,1350.0,1528.0,1614.0,995.0,60.0,293.1,1649250225.3914423,1649250226.5076551,38f8490a-8265-4dcc-b778-38e4fff2bb26
0.1528448886928091,0.4163710434221468,-0.0882759051723627,-0.3497772047234785,-0.2673874614847691,0.1683997957675374,-0.3398104911110582,-0.3706047430558284,-14.812723580083867,15.850617409941192,34.36757859648385,1.266130654298926,1.3996240533264754,1.0472611178718376,7215.00537109375,11.609000000000002,8.053333333333333,-179.65310425447083,-10.405628991383132,62.36972669526914,1745.0,1435.0,1350.0,1528.0,1614.0,995.0,60.0,293.1,1649250226.6175013,1649250227.745097,38f8490a-8265-4dcc-b778-38e4fff2bb26
0.2413356108459386,0.5792439291957636,-0.0682635885937795,-0.4695355553860825,-0.2906475083151975,0.0992771012000667,-0.3456616618963399,-0.3739445126889674,-14.31748533324525,15.214950473392534,31.612048269270662,1.3775408380132108,2.047416131997396,1.075372345139382,7215.00537109375,11.582555555555556,8.084444444444445,179.61232650730602,-10.43535871783795,59.73979878303131,1849.0,1435.0,1350.0,1528.0,1686.0,995.0,60.0,293.1,1649250229.6748607,1649250230.8111117,a7166bfc-4a67-42bc-b817-efc04808f7cf
0.2338934491662625,0.5834515115904652,-0.0808994862347182,-0.481842737553156,-0.3042958569600595,0.0940044741348509,-0.3562726615898079,-0.3833458320399123,-14.108583796361447,14.962511608290592,29.751049835196163,1.3909603994000332,2.078922500428879,1.1243199400805348,7215.00537109375,11.564444444444446,8.041111111111112,179.4515635859015,-10.461920754337696,58.96385969583145,1849.0,1435.0,1350.0,1528.0,1686.0,995.0,60.0,293.1,1649250230.920141,1649250232.0486565,a7166bfc-4a67-42bc-b817-efc04808f7cf
0.2488698133919166,0.5892369373828141,-0.0602297348434649,-0.4584643499446567,-0.2854143264407696,0.0913221401952511,-0.3447018068987361,-0.36960544194403,-14.40855037881254,15.518560487960873,33.35279584902437,1.3373353966116972,2.0692636726803424,1.0595000144473723,7215.00537109375,11.586666666666666,8.071111111111112,179.23999012835142,-10.443913434909652,58.311323154186034,1849.0,1435.0,1350.0,1528.0,1686.0,995.0,60.0,293.1,1649250232.1803305,1649250233.2730038,a7166bfc-4a67-42bc-b817-efc04808f7cf
0.341673305779741,0.7236823434462477,-0.0230583693404055,-0.5591439439772738,-0.2923042442490086,0.0475632792447932,-0.3356686511389897,-0.3641487320028669,-14.179229098015744,15.96922468641993,32.851129730759205,1.470985750045019,2.591098784337367,1.020007372642893,7227.17236328125,11.516888888888888,8.04,178.63072511182776,-10.470647269639777,56.87776472623342,1962.0,1435.0,1350.0,1528.0,1760.0,995.0,60.0,293.1,1649250235.2042472,1649250236.3445709,78da289b-ac67-4208-9349-e1290bd0bb1a
0.3329557207588295,0.7332677420891583,-0.0296984611538885,-0.5604719626578575,-0.2994176899326608,0.0362816978855641,-0.3439391825141058,-0.3625314421781165,-14.091571214765054,15.762389648484094,32.35358324217904,1.446893261427328,2.630578231472406,1.0511154281179227,7227.17236328125,11.518777777777776,8.05,178.46419599294393,-10.50725044312935,56.35664595713345,1962.0,1435.0,1350.0,1528.0,1760.0,995.0,60.0,293.1,1649250236.4524696,1649250237.7869833,78da289b-ac67-4208-9349-e1290bd0bb1a
0.3314830668842352,0.7374227297028888,-0.0392970095854825,-0.5627598363804733,-0.3088190090809435,0.0265385138422378,-0.3530643791047553,-0.3789541668360525,-13.898197524283187,15.520925520102274,31.178260982071546,1.4279912562525106,2.654879255692768,1.0890559158163895,7227.17236328125,11.517,8.033333333333333,178.32427729106652,-10.545708771888492,55.92404985477143,1962.0,1435.0,1350.0,1528.0,1760.0,995.0,60.0,293.1,1649250237.918501,1649250239.005314,78da289b-ac67-4208-9349-e1290bd0bb1a
-0.1427641056743256,-0.0906689679058274,-0.2110321427535235,-0.1828150386251124,-0.2726863867107346,0.460221941486362,-0.338942677238145,-0.3581397770831547,-15.50311653989208,16.428662245048578,26.61509125942929,1.5414044101277609,-0.4568166394935868,1.1490309255807114,7230.560221354167,11.62411111111111,8.100000000000001,178.50661450332936,-10.63001360708648,55.32430801922553,1459.0,1435.0,1350.0,1528.0,1394.0,995.0,60.0,293.1,1649250240.1217756,1649250241.458573,9d1bd294-ada9-4cc0-8199-9dffd13568df
-0.141725358603122,-0.0767050518406801,-0.1989221925408746,-0.1529806455463075,-0.2637452723030016,0.4428919609737081,-0.3347613912452259,-0.3523806473152842,-15.162429867352936,16.699759498566625,30.05755951622318,1.4382829221204536,-0.4402662185451394,1.1213258600504723,7227.17236328125,11.627888888888888,8.087777777777777,178.42157713034288,-10.674573286912953,55.05199293047657,1459.0,1435.0,1350.0,1528.0,1394.0,995.0,60.0,293.1,1649250241.5671768,1649250242.6910956,9d1bd294-ada9-4cc0-8199-9dffd13568df
-0.1439080422821802,-0.0816621105627844,-0.1959900332475529,-0.1756489981748609,-0.2601556779360417,0.4589859642576213,-0.3258728712478528,-0.3513287512970434,-15.380994157901878,16.525754623228632,28.737154188676467,1.5242545488313215,-0.4426346475399232,1.0970421777243249,7227.17236328125,11.628111111111112,8.09,178.3826146956775,-10.656784723265822,54.84433430968571,1459.0,1435.0,1350.0,1528.0,1394.0,995.0,60.0,293.1,1649250242.7998736,1649250243.9618626,9d1bd294-ada9-4cc0-8199-9dffd13568df
-0.2217746287236079,-0.2447717011654806,-0.208836310779657,-0.0809652312453258,-0.2425495715090469,0.5490939712486671,-0.311698575138988,-0.3370887116275606,-15.383203542295949,17.94459022140138,31.208307620573866,1.5223146691645917,-1.088728836429966,1.0543871384663974,7233.2705078125,11.602666666666668,8.072222222222223,178.36491388098844,-10.692441251509182,54.655278088554354,1364.0,1435.0,1350.0,1528.0,1312.0,995.0,60.0,293.1,1649250244.5580769,1649250245.7628202,a4c78bba-7474-422a-bbf2-1bdf527d5fa9
-0.2348707315296586,-0.264008245907207,-0.2051283780444341,-0.0456741290056962,-0.2307683383357399,0.5368525362131022,-0.3086349278950384,-0.3328416813662764,-15.365180857085493,17.912116949925654,31.43463653770364,1.4152129612067277,-1.1671216601673646,1.027251331704928,7233.2705078125,11.595222222222224,8.08,178.27871082238366,-10.68370951870149,54.53399290164262,1364.0,1435.0,1350.0,1528.0,1312.0,995.0,60.0,293.1,1649250245.8707137,1649250246.9907334,a4c78bba-7474-422a-bbf2-1bdf527d5fa9
-0.251346049824223,-0.276499509085974,-0.2153449161626682,-0.0426499287016389,-0.236816739348534,0.5488046999903889,-0.3165109981676095,-0.3431371123903122,-15.630909462993811,17.94264544196019,31.720926127874705,1.4348547510165377,-1.215647607460743,1.059350083189336,7233.2705078125,11.597666666666663,8.08,178.25340421259884,-10.678626055547973,54.41045071666516,1364.0,1435.0,1350.0,1528.0,1312.0,995.0,60.0,293.1,1649250247.0985394,1649250248.4267426,a4c78bba-7474-422a-bbf2-1bdf527d5fa9
-0.3571273269014021,-0.4660774466250481,-0.2334112263972107,0.0855235645484642,-0.213490949350052,0.6194526383884535,-0.311422451549487,-0.3357212461152111,-16.03707495422523,19.38328179712221,32.070962626450324,1.3129840188738624,-1.943809536732377,1.0227641549284954,7233.2705078125,11.548333333333334,8.05777777777778,178.26904534579816,-10.678428454380732,54.32443434989764,1262.0,1435.0,1350.0,1528.0,1222.0,995.0,60.0,293.1,1649250250.3590162,1649250251.707093,6c28ddd9-5c8f-4166-a176-a66e799e82d2
-0.3646352338413337,-0.4806199080819729,-0.2415897165053814,0.0621583313208652,-0.2128861093108575,0.6172699550167292,-0.309844608230543,-0.3333676293901066,-16.326934935567973,18.51804613319819,26.6662461095602,1.3536350423899557,-1.9460555712910592,1.021407029236897,7227.17236328125,11.55588888888889,8.06,178.27198232714125,-10.675022941033312,54.2351800940086,1262.0,1435.0,1350.0,1528.0,1222.0,995.0,60.0,293.1,1649250251.815055,1649250252.9306383,6c28ddd9-5c8f-4166-a176-a66e799e82d2
-0.3738524714995512,-0.5016709760608361,-0.2347655420744079,0.1281384886521679,-0.1957139100760671,0.6070402703419004,-0.3079643437590343,-0.3314873651834953,-16.407234374681728,18.78705628115499,30.94505368106698,1.184577250402739,-2.0700508901146817,0.989938333698822,7233.2705078125,11.555666666666667,8.054444444444444,178.33248566062906,-10.717390319863686,54.18567374453948,1262.0,1435.0,1350.0,1528.0,1222.0,995.0,60.0,293.1,1649250253.039056,1649250254.1604354,6c28ddd9-5c8f-4166-a176-a66e799e82d2
-0.4610212658226459,-0.6597436401090444,-0.2428540142289709,0.2505002512793515,-0.1700810302795435,0.6327859208392177,-0.3042609622797894,-0.332442162690917,-16.544815843071817,20.116159407909013,28.57409216279968,0.9743738403123222,-2.656487525032233,0.9387384124382476,7233.2705078125,11.507444444444443,8.02111111111111,178.37727045210693,-10.705240646558831,54.22197316433847,1153.0,1435.0,1350.0,1528.0,1121.0,995.0,60.0,293.1,1649250256.09324,1649250257.233587,b3b5e30d-a5c7-4e9f-a31b-0452e7dfff57
-0.440476929022557,-0.5783410458497451,-0.2645867888238829,0.1147005188853103,-0.2261531451086639,0.6617651387827215,-0.330698443483918,-0.3516443200661754,-16.612058467776123,20.45162617274933,26.067820239382566,1.3465332777305528,-2.3131415516215057,1.087315599895531,7233.2705078125,11.518,8.024444444444445,178.3754657643462,-10.68815843830837,54.19364723148556,1153.0,1435.0,1350.0,1528.0,1121.0,995.0,60.0,293.1,1649250257.341869,1649250258.460158,b3b5e30d-a5c7-4e9f-a31b-0452e7dfff57
-0.4508118065514684,-0.6481343485686399,-0.2362513449382146,0.2419535991930533,-0.1670234523260968,0.6327065229496565,-0.3001934630558197,-0.3258202758713146,-16.63794815354121,20.19148451096696,29.101419268647795,0.9943398624337236,-2.615488015307818,0.9217599550015326,7221.0830078125,11.524,8.07,178.42089259360606,-10.74088740383713,54.24096374641577,1153.0,1435.0,1350.0,1528.0,1121.0,995.0,60.0,293.1,1649250258.5685892,1649250259.6892586,b3b5e30d-a5c7-4e9f-a31b-0452e7dfff57
-0.0273579929730236,0.1062590589364392,-0.1342437502020111,-0.1698241248239311,-0.2355676127526788,0.3138375176173837,-0.3261095475579614,-0.3468844909788336,-15.433807260645365,16.70048726938356,35.27224503721898,1.1901951445018164,0.2078376279019315,1.0116204164594962,7223.11279296875,11.621,8.09,178.2006827413054,-10.672093453925546,54.29260453000053,1553.0,1435.0,1350.0,1528.0,1471.0,995.0,60.0,293.1,1649250261.621669,1649250262.763311,153afd8d-9169-4805-861d-585452e085ae
-0.0425973323932714,0.1014860823106416,-0.1867464982644349,-0.1914931781490282,-0.2751320443811894,0.2935622293213434,-0.3622947654280747,-0.3843977280015764,-14.96636456570242,14.855445437134197,28.570835634299527,1.1778357036342413,0.245330280891709,1.1794605270006386,7227.17236328125,11.619333333333334,8.096666666666666,178.26452224274777,-10.719632139731264,54.36317176777538,1553.0,1435.0,1350.0,1528.0,1471.0,995.0,60.0,293.1,1649250262.8713586,1649250264.0008469,153afd8d-9169-4805-861d-585452e085ae
-0.0425315888570559,0.0980542726474894,-0.1619086090235295,-0.1750178604746133,-0.2534498415798406,0.3058431107908084,-0.3419011341842211,-0.3594283497241154,-15.10138338069742,15.556550994584754,32.159605683598734,1.17465678404207,0.2011653754918672,1.0914443031820185,7233.2705078125,11.62,8.085555555555556,178.29017946890997,-10.689051485542349,54.51376036350123,1553.0,1435.0,1350.0,1528.0,1471.0,995.0,60.0,293.1,1649250264.1095588,1649250265.223733,153afd8d-9169-4805-861d-585452e085ae
-0.0031775399769541,0.1223267654922064,-0.1534014020322762,-0.4665770984092379,-0.2915810659678135,0.5959033256503038,-0.2694781045862595,-0.2943422927099421,-15.103833739237386,16.343788324579442,38.90643626710836,2.4908635685149965,0.2688721803069855,1.0382407417263002,7231.915364583333,11.613333333333337,8.03111111111111,178.3021763167322,-10.615408765366224,54.6591010972148,1553.0,1537.0,1350.0,1528.0,1471.0,995.0,60.0,293.1,1649250266.140834,1649250267.0952847,a60d8729-1891-47be-a266-9fb9b372c01c
-0.0250832684414103,0.1092175155817716,-0.1867464984506715,-0.468694038105752,-0.3123560089346169,0.5799276613110789,-0.2942108055009386,-0.3168397151849211,-15.108104599444022,15.23102310291216,34.32483793041311,2.449969913550651,0.2584692088626193,1.1395910884220066,7227.17236328125,11.609666666666667,8.083333333333334,178.2961323582266,-10.588302400735122,54.74816334889717,1553.0,1537.0,1350.0,1528.0,1471.0,995.0,60.0,293.1,1649250267.2039442,1649250268.4927814,a60d8729-1891-47be-a266-9fb9b372c01c
-0.0238604396533503,0.1141745739710957,-0.1938862410706342,-0.4674580606887498,-0.3187725736454423,0.5794937543380247,-0.2996017716910537,-0.3274112685076387,-14.95751623127199,15.003332011580335,35.068661146251614,2.444536273210668,0.2687942194654485,1.167597021340851,7227.17236328125,11.612666666666668,8.09,178.36753060235048,-10.605711699155838,54.83432390854716,1553.0,1537.0,1350.0,1528.0,1471.0,995.0,60.0,293.1,1649250268.603073,1649250269.733003,a60d8729-1891-47be-a266-9fb9b372c01c
-0.0055969001619903,0.1062853563409618,-0.2274154201084521,-0.7797922983020245,-0.3845292150985846,0.8761677599695384,-0.253725964330957,-0.2705562975302832,-15.168702716051309,14.744480432617998,35.30991912364449,3.812298558520527,0.2748863881287429,1.2341521820916337,7227.17236328125,11.594333333333331,8.083333333333334,178.457019740856,-10.525348831746332,55.00539737995874,1553.0,1645.0,1350.0,1528.0,1471.0,995.0,60.0,293.1,1649250271.6569026,1649250272.7959774,bb56cfba-554c-4d6c-80ec-d1c0ecc0a202
-0.0029145660632442,0.1115053886809764,-0.2081262807814371,-0.7576893307661519,-0.3684483567205888,0.8763649905101141,-0.2422471515049873,-0.260799963849075,-15.278308826785231,15.348078907410036,39.06795283474828,3.7683885593323287,0.2604448071142029,1.175414290150436,7221.0830078125,11.600444444444443,8.088888888888889,178.4823582248569,-10.502508774025548,55.03511097957802,1553.0,1645.0,1350.0,1528.0,1471.0,995.0,60.0,293.1,1649250272.9041853,1649250274.0266554,bb56cfba-554c-4d6c-80ec-d1c0ecc0a202
0.002660481228487,0.1168832053357116,-0.1889817768686647,-0.7573606116404552,-0.3558387544668351,0.8859503890790016,-0.2280465575107569,-0.2470727233998033,-15.362013860659175,15.990486913097971,41.34242553913182,3.794719017855051,0.2622328206343444,1.1154642184584798,7227.17236328125,11.600666666666664,8.066666666666668,178.53618163333644,-10.53763406533346,55.107572456482686,1553.0,1645.0,1350.0,1528.0,1471.0,995.0,60.0,293.1,1649250274.1352346,1649250275.1835968,bb56cfba-554c-4d6c-80ec-d1c0ecc0a202
-0.0061096993031066,0.1204333532071886,-0.2489661357674759,-1.039610679941177,-0.4421205166295858,1.1339610819873949,-0.2154632538057347,-0.2357385456174711,-15.266219681721871,15.113148736730649,39.97409879202242,4.979746461958097,0.3179309285105114,1.2932843745541682,7227.17236328125,11.588555555555557,8.08,178.5682971828138,-10.409413011047056,55.21676479346891,1553.0,1761.0,1350.0,1528.0,1471.0,995.0,60.0,293.1,1649250277.19188,1649250278.3333766,6628b126-e731-484c-84cc-020a46756ad5
0.0212921841008196,0.1237205272419604,-0.2528055556595139,-1.053679795328599,-0.4472222121109864,1.13705102559037,-0.2148847111688957,-0.2351074081149033,-15.036156261771772,14.856714179265005,39.01939359844425,5.0164989645671945,0.3385774869684133,1.3038368946937993,7227.17236328125,11.586,8.08,178.5620999245069,-10.420122937393112,55.26385629161148,1553.0,1761.0,1350.0,1528.0,1471.0,995.0,60.0,293.1,1649250278.4469154,1649250279.550678,6628b126-e731-484c-84cc-020a46756ad5
-0.0139857685053618,0.1158707557490851,-0.2518588495492708,-1.0466978321280596,-0.4429883311536052,1.1401804150141623,-0.2141483844847385,-0.2380658652653517,-15.293156234469272,14.90266779420928,39.291973781328046,5.008047377381752,0.3077403489446111,1.2950286180086468,7233.2705078125,11.587333333333332,8.074444444444444,178.5954813357105,-10.402635945570587,55.29931066522815,1553.0,1761.0,1350.0,1528.0,1471.0,995.0,60.0,293.1,1649250279.6594698,1649250280.9949567,6628b126-e731-484c-84cc-020a46756ad5
