raw_voltage_G-,raw_voltage_G0,raw_voltage_G1,raw_voltage_G2,raw_voltage_G3,raw_voltage_G4,raw_voltage_G5,raw_voltage_G6,load_x,load_y,load_z,load_l,load_m,load_n,rpm,voltage,current,roll,pitch,yaw,aileron1_pwm,elevator_pwm,throttle_pwm,rudder_pwm,aileron2_pwm,pbaro,pdiff,Tt,sample_start_time,sample_end_time,uid
-0.0389480632565424,0.0994672517913079,-0.048177436911854,-0.1460214424653926,-0.1886788509959182,0.2518909791012418,-0.2906444737151625,-0.3117582487365543,-15.209941808227248,21.09176265548185,29.053525368103,1.0298171926884538,0.2384961114256656,0.7689138930218858,3194.1059841579863,11.967555555555554,0.2177777777777777,99.98665052183604,-9.06777469976204,111.57748382007742,1553.0,1435.0,1200.0,1528.0,1471.0,998.0,60.0,292.7,1649239449.7131093,1649239451.1896372,d22c642b-657a-4938-8a96-640297a131e7
-0.0440684691708225,0.1021981348197287,-0.0497830950630744,-0.1455789382227216,-0.1896523603197775,0.2496911012025374,-0.2925914924687868,-0.3155637853617045,-15.25167525163272,20.999741029383383,29.16668968174914,1.0231826501201846,0.2478731572066234,0.7757031840843565,3463.6910807291665,11.962111111111112,0.21,-179.9512966532552,-9.00855686479429,110.24313730491382,1553.0,1435.0,1200.0,1528.0,1471.0,998.0,60.0,292.7,1649239451.297922,1649239452.4032876,d22c642b-657a-4938-8a96-640297a131e7
-0.0037120850191087,0.1041451532701585,-0.0460154877270806,-0.145224934843386,-0.1876926986721248,0.2496026003666215,-0.290341042203835,-0.3132374772164882,-15.22954630654191,21.14542877962145,29.492751386782054,1.023401730691356,0.2523268918650569,0.7653484858857401,3489.8389756944443,11.96511111111111,0.22,-179.95398926560802,-8.998439172767515,109.31049394649628,1553.0,1435.0,1200.0,1528.0,1471.0,998.0,60.0,292.7,1649239452.5120404,1649239453.640699,d22c642b-657a-4938-8a96-640297a131e7
0.0945744196949917,0.281247970420268,-0.0249902160663409,-0.251653526980813,-0.2111454235917451,0.1755021145196369,-0.3012140041202488,-0.3204439753098836,-14.862163470707705,20.63373291004262,29.73854971202785,1.0948438108984002,0.9262192338031598,0.8054228557412307,3500.9229329427085,11.947666666666668,0.2066666666666666,179.84945397927092,-8.948756756199796,107.56960546501462,1647.0,1435.0,1200.0,1528.0,1543.0,998.0,60.0,292.7,1649239455.7741268,1649239456.911867,208dc6b0-1118-45a0-838d-198a100e60dc
0.096976585326216,0.277543578331017,-0.0317162801174308,-0.2499593678401114,-0.2162279009573096,0.1785870008344939,-0.3077377813294898,-0.3315318680595114,-14.98263871010863,20.643717391362024,29.83233278110956,1.0976399350431607,0.9117121938531276,0.8304127544633678,3502.6715494791665,11.95077777777778,0.21,179.75720696216052,-8.936179437161911,107.04199839565808,1647.0,1435.0,1200.0,1528.0,1543.0,998.0,60.0,292.7,1649239457.020837,1649239458.1413162,208dc6b0-1118-45a0-838d-198a100e60dc
0.0745858729664232,0.2801480314707034,-0.0240799216964857,-0.2506294457196473,-0.2089708313089037,0.1765514815843675,-0.2996842036761469,-0.3315192251219534,-14.930712312357825,20.568904653869588,29.87902838086381,1.094495261993472,0.9212644289788589,0.7990947292930646,3498.858832465278,11.947111111111113,0.2011111111111111,179.6923960560362,-8.910388832583418,106.6887971711182,1647.0,1435.0,1200.0,1528.0,1543.0,998.0,60.0,292.7,1649239458.249921,1649239459.3723023,208dc6b0-1118-45a0-838d-198a100e60dc
0.1425545170621523,0.425061825240636,-0.007960125430994,-0.3465264414544568,-0.2323729845509605,0.1189753652083117,-0.3112019575743553,-0.3281309068032373,-14.67379676352963,20.400110291595205,29.34448976546608,1.1811619845000416,1.480524498865042,0.8415838528790329,3507.9278971354165,11.91477777777778,0.1955555555555555,179.4304158024114,-8.867913309091186,105.8709229991442,1745.0,1435.0,1200.0,1528.0,1614.0,998.0,60.0,292.7,1649239461.3437684,1649239462.440642,e44fe2a3-1dc9-441c-8e17-c0b29c27369f
0.1737447407441985,0.4289558618819651,-0.0043189479356793,-0.3471838763874771,-0.2302110352086302,0.115093971293029,-0.3088756494272252,-0.3240977963156748,-14.621285759020823,20.43133575802294,29.271421121614928,1.1743260751139877,1.4957177545028617,0.8307499710565591,3508.56591796875,11.94022222222222,0.2,179.31496587378055,-8.843889636505482,105.64773746109512,1745.0,1435.0,1200.0,1528.0,1614.0,998.0,60.0,292.7,1649239462.5485466,1649239463.6696465,e44fe2a3-1dc9-441c-8e17-c0b29c27369f
0.1840361237910217,0.4266042683259353,-0.0071256889129019,-0.3442254192208297,-0.2321833398533461,0.1143859645928513,-0.3118214635400081,-0.3391682275277464,-14.630258803715805,20.44112325634153,29.208315369731324,1.1659720843050323,1.4869786467803814,0.8410985296457502,3512.3999837239585,11.936666666666667,0.2,179.25132065327455,-8.833662092269558,105.46557252138136,1745.0,1435.0,1200.0,1528.0,1614.0,998.0,60.0,292.7,1649239463.778262,1649239464.8961592,e44fe2a3-1dc9-441c-8e17-c0b29c27369f
0.2223949148669094,0.5658287202774196,0.0193739916162087,-0.4341928621819405,-0.2461538312626707,0.0534594582100727,-0.316613152646757,-0.3377901427746305,-14.496709449339058,20.61677551204623,28.24386345950768,1.2344040119249615,2.0295175080790164,0.8455455657940635,3512.879638671875,11.910666666666668,0.1933333333333333,179.0249636307209,-8.793245870812083,105.012389469951,1849.0,1435.0,1200.0,1528.0,1686.0,998.0,60.0,292.7,1649239466.8335247,1649239467.9750316,eae298e2-d1d7-411e-82d9-0155b7a3e4e1
0.2609559932334823,0.5619346836829371,0.0237737477180136,-0.4279978020098518,-0.2406288495824065,0.0514871537990416,-0.312112252079305,-0.3387889381872414,-14.468466954143468,20.62859342336929,28.26600971021335,1.2163126102522048,2.014032705189721,0.8252439414824582,3512.559868706597,11.915666666666665,0.1977777777777777,178.97799469652844,-8.80050427489756,104.80757410512966,1849.0,1435.0,1200.0,1528.0,1686.0,998.0,60.0,292.7,1649239468.0838068,1649239469.2347193,eae298e2-d1d7-411e-82d9-0155b7a3e4e1
0.2422317450539692,0.5560304139096737,0.0180211930425978,-0.4291356702184246,-0.2449021763788647,0.0596924459560155,-0.3158545738978742,-0.3366775609505988,-14.54973262546386,20.639886074539007,28.42474494035285,1.2370905669927708,1.9908320220337927,0.843672023300406,3511.440673828125,11.913888888888886,0.2,178.94894817871807,-8.788607318592,104.68028366411768,1849.0,1435.0,1200.0,1528.0,1686.0,998.0,60.0,292.7,1649239469.3447037,1649239470.4263296,eae298e2-d1d7-411e-82d9-0155b7a3e4e1
0.309770525092955,0.6846221221573499,0.0478206904075372,-0.5100886724251393,-0.2544981972114205,0.0044932073054001,-0.3133133351018907,-0.3428094055686548,-14.090312654520789,20.84921881097973,28.01192737560068,1.2986976096298837,2.485395967776335,0.8270069059589911,3513.519721137153,11.864777777777778,0.1811111111111111,178.78208665729466,-8.773588206925833,104.35529036194004,1962.0,1435.0,1200.0,1528.0,1760.0,998.0,60.0,292.7,1649239472.378895,1649239473.708563,f3e28248-6c2a-4abf-b4b2-87be8d2c655c
0.3303280045932096,0.6787178523987728,0.0475678308650005,-0.5026166709466705,-0.2534614729486625,0.0040886320109696,-0.3138569831994784,-0.3416715375122593,-14.088873696004356,20.93334193140496,28.10598548234123,1.2814942595919416,2.461472980608065,0.8261638037111753,3521.5390625,11.860333333333331,0.18,178.75489339747912,-8.770627414784373,104.13572330633126,1962.0,1435.0,1200.0,1528.0,1760.0,998.0,60.0,292.7,1649239473.8169873,1649239474.9357283,f3e28248-6c2a-4abf-b4b2-87be8d2c655c
0.3025164909939959,0.683250106409125,0.0463798967258543,-0.5083636642050972,-0.2556588226613707,0.0015691394527853,-0.3153539119229174,-0.3384693236198373,-14.081197862681504,20.86459460233684,27.617552333844205,1.2882075513863698,2.4833774350238955,0.8327499702116341,3522.6650390625,11.862555555555556,0.18,178.75558248767538,-8.761541555640962,103.95545108792749,1962.0,1435.0,1200.0,1528.0,1760.0,998.0,60.0,292.7,1649239475.0442631,1649239476.1775208,f3e28248-6c2a-4abf-b4b2-87be8d2c655c
-0.1342634728485457,-0.1218986403570464,-0.0771172128077854,-0.021829471724113,-0.1642779029327382,0.3570678993813494,-0.2801508012064561,-0.3047540382718722,-15.850300863324954,21.98525221621838,29.35000081337586,0.9902240793016246,-0.6069660881598686,0.7340935263551237,3529.757758246528,11.95811111111111,0.2022222222222222,179.11831106719757,-8.788229381457926,103.57751623058316,1459.0,1435.0,1200.0,1528.0,1394.0,998.0,60.0,292.7,1649239478.3026867,1649239479.3097732,bc4d3bc8-80d7-41d6-8ddd-3feda8a4475d
-0.149106329120198,-0.1241617334228857,-0.0769528540908932,-0.0196169506447736,-0.1633170365874019,0.3565116084376736,-0.2801887301468125,-0.3014415779956687,-15.893712208259457,21.998145048019488,29.24594928889281,0.9840383273161816,-0.6144863728232429,0.7321779149039623,3542.889892578125,11.957333333333334,0.2066666666666666,179.07807973516637,-8.762335849723192,103.61485080349637,1459.0,1435.0,1200.0,1528.0,1394.0,998.0,60.0,292.7,1649239479.41757,1649239480.673046,bc4d3bc8-80d7-41d6-8ddd-3feda8a4475d
-0.1687459314049699,-0.1179919601658387,-0.0744303271764433,-0.02545143189221,-0.1624345567082603,0.3511535151058714,-0.2783534753292733,-0.3003906933403906,-15.835208065900815,21.921036463042668,28.597664620121783,0.9846996884570144,-0.5851373626261018,0.7247780494382516,3540.7760145399307,11.958777777777778,0.2044444444444444,179.0496160601652,-8.727133908514592,103.65845245442802,1459.0,1435.0,1200.0,1528.0,1394.0,998.0,60.0,292.7,1649239480.781531,1649239481.9021366,bc4d3bc8-80d7-41d6-8ddd-3feda8a4475d
-0.2399967006486609,-0.2991026266124838,-0.100709009387889,0.0741560117740429,-0.1475259568724834,0.4326096819728681,-0.273285663685246,-0.3044506067800303,-16.14970543869495,22.772261079257184,27.89968784830896,0.947117379055564,-1.2699156909755536,0.7104824794542428,3474.910481770833,11.941,0.2,179.03751751841537,-8.718209981772754,103.70681930067056,1364.0,1435.0,1200.0,1528.0,1312.0,998.0,60.0,292.7,1649239483.8410676,1649239484.9703228,990b5efa-c9fe-4375-85ca-d39a87110bd2
-0.2341682874971012,-0.3003922104765444,-0.0977126236300529,0.0729549289436006,-0.1436572055669102,0.4344049845776701,-0.268772120229735,-0.2929581388432538,-16.163212658290323,22.683959724587336,27.848130806083013,0.9534098342962246,-1.273863528631442,0.6944898794714439,3463.20263671875,11.943,0.2,179.02151210846034,-8.706402007653882,103.6648614485992,1364.0,1435.0,1200.0,1528.0,1312.0,998.0,60.0,292.7,1649239485.0791333,1649239486.206299,990b5efa-c9fe-4375-85ca-d39a87110bd2
-0.2720972236580177,-0.3036793850211445,-0.0980286980827556,0.0758375277285487,-0.1442640685252393,0.4357451400466582,-0.2696950576940264,-0.2844999860701414,-16.15411194318451,22.822597724234463,27.95157017798192,0.9508432855119217,-1.2875462207614154,0.6967842426184123,3460.057586669922,11.94225,0.2,179.00396364493523,-8.703193846456383,103.6275182430858,1364.0,1435.0,1200.0,1528.0,1312.0,998.0,60.0,292.7,1649239486.3355796,1649239487.372388,990b5efa-c9fe-4375-85ca-d39a87110bd2
-0.3458942924807441,-0.4871037339792393,-0.1209504170309384,0.1766146964615932,-0.1267156149958448,0.5122351451102533,-0.2642838627579693,-0.2895318916625247,-16.582286578538152,23.865562274497865,26.39153035139073,0.9007063157518125,-1.9724851952504017,0.6721845270118221,3464.602294921875,11.905,0.19,179.0219310267294,-8.712835761260814,103.57784256184353,1262.0,1435.0,1200.0,1528.0,1222.0,998.0,60.0,292.7,1649239488.3427851,1649239489.4795072,9078f194-6cb1-41e1-9667-03f8d0d0f200
-0.3430319219694396,-0.4859319825630894,-0.1192147890310667,0.1795367412227459,-0.1244874165616634,0.5079911509222734,-0.2634428518489067,-0.2910419690646606,-16.596854138247828,23.82820034777352,26.34441205703574,0.8844019791613812,-1.9678200714873864,0.6656924610259521,3466.003173828125,11.898999999999996,0.19,179.03947550597746,-8.719754173707608,103.44579679134938,1262.0,1435.0,1200.0,1528.0,1222.0,998.0,60.0,292.7,1649239489.5872746,1649239490.705886,9078f194-6cb1-41e1-9667-03f8d0d0f200
-0.3873885510557549,-0.4881151724019242,-0.1252996014600205,0.1763365509764699,-0.1306349381820246,0.5132086542649388,-0.2686456904590931,-0.2901640405093662,-16.621653708490342,23.87039152383745,26.3192858744736,0.9033054696069674,-1.975601159978366,0.68940528744088,3470.213134765625,11.906666666666666,0.19,179.03710618924535,-8.729630437519969,103.35317714947428,1262.0,1435.0,1200.0,1528.0,1222.0,998.0,60.0,292.7,1649239490.8150628,1649239491.939148,9078f194-6cb1-41e1-9667-03f8d0d0f200
-0.4319929836316974,-0.5746943041072601,-0.1331382478414229,0.2352781079564615,-0.122948007566163,0.5409220576230763,-0.2693031253703751,-0.2884066666341316,-16.70620780002324,24.84394383359965,25.871387152240573,0.8385729991288979,-2.3034947602154365,0.6795067000624577,3471.7749294704863,11.867666666666668,0.1811111111111111,179.08005290092655,-8.732553758484734,103.1594502173155,1153.0,1435.0,1200.0,1528.0,1121.0,998.0,60.0,292.7,1649239493.060397,1649239494.1859596,f3ed6a82-800a-49ff-bf74-c02d3b8d9f43
-0.3981856556584018,-0.5812939402080015,-0.1331382478743099,0.237136625474844,-0.120963060075864,0.5462573934754011,-0.2672423198520083,-0.2918455567174182,-16.75871290187547,24.81933743005872,25.96232912949265,0.8461947991150135,-2.3289110469814287,0.6731883674025875,3467.7171766493057,11.866444444444443,0.18,179.1015543364338,-8.748674712473258,103.00546360247756,1153.0,1435.0,1200.0,1528.0,1121.0,998.0,60.0,292.7,1649239494.2945812,1649239495.4114602,f3ed6a82-800a-49ff-bf74-c02d3b8d9f43
-0.4002464613626381,-0.5813697981172857,-0.1370954999770776,0.2378446321430498,-0.1247559534440191,0.5455873157367219,-0.2708202828556214,-0.294639655072027,-16.694429856950975,24.7856181215021,25.920263968199524,0.8426970342972324,-2.3296163287027607,0.6888393460160205,3467.4052734375,11.867,0.19,179.09770969884096,-8.737506689134118,102.88168463760886,1153.0,1435.0,1200.0,1528.0,1121.0,998.0,60.0,292.7,1649239495.5194883,1649239496.849425,f3ed6a82-800a-49ff-bf74-c02d3b8d9f43
-0.0099450729134302,0.104612943417136,-0.05069338945356,-0.1460846573479808,-0.1901833654124168,0.2493750267899655,-0.2939948631276567,-0.3166131526875206,-15.335249298796631,20.95367565957989,29.38387651589249,1.0232550194621008,0.2556005285675163,0.7802199059906181,3473.5006510416665,11.963333333333331,0.21,178.8832144381459,-8.731602559779072,102.7173366258,1553.0,1435.0,1200.0,1528.0,1471.0,998.0,60.0,292.7,1649239497.7587144,1649239498.903766,8b93044c-e3e8-4f37-8695-07f1f4ac791a
-0.0411858702772502,0.106673748660762,-0.0506301745712901,-0.146122586294818,-0.1910051590106568,0.2484141605741084,-0.2948166567687435,-0.3169292271212587,-15.317501360442987,20.99958324876586,29.525712707515147,1.0215204011931822,0.2619565509719462,0.7828657515387109,3502.036919487847,11.956444444444443,0.2011111111111111,178.828184362913,-8.715038022949452,102.9525159760316,1553.0,1435.0,1200.0,1528.0,1471.0,998.0,60.0,292.7,1649239499.0337057,1649239500.1286309,8b93044c-e3e8-4f37-8695-07f1f4ac791a
-0.0025489310902022,0.1089494845125541,-0.0507692473053741,-0.1454777944166186,-0.1925602453231979,0.2477187968642093,-0.2959924537920845,-0.3185095994906012,-15.253412841947997,21.084919933279327,29.82164452562272,1.019141549657579,0.2673287481385661,0.787555689678793,3522.0215657552085,11.956333333333331,0.2033333333333333,178.79357503547868,-8.711053081887444,103.12082322082932,1553.0,1435.0,1200.0,1528.0,1471.0,998.0,60.0,292.7,1649239500.2617314,1649239501.3550043,8b93044c-e3e8-4f37-8695-07f1f4ac791a
-0.00323013470961,0.0913747350783563,-0.0747327472130001,-0.3546159253853717,-0.2314652187073046,0.4720426186178775,-0.2548173060009839,-0.2837575903855014,-15.36070629055794,20.43831745961627,31.95921612474889,1.9897986179326248,0.2074461621418771,0.8138308328142629,3536.06689453125,11.955222222222224,0.2044444444444444,178.74970852498916,-8.666655239598803,103.53300085212256,1553.0,1537.0,1200.0,1528.0,1471.0,998.0,60.0,292.7,1649239503.4936054,1649239504.8362195,47a6c0c2-915e-4b74-aa60-b14d99e477e2
-0.0343713053877182,0.1001752585028162,-0.0684441300811035,-0.3588659893113149,-0.2286559488467996,0.461777027786162,-0.2515397401826674,-0.2715535756445279,-15.247100332766124,20.48790885996811,31.205434233623564,1.9768964752817944,0.2472529301669652,0.7967894234948811,3533.638644748264,11.95788888888889,0.21,178.75855286105443,-8.649776039748673,103.65474745625822,1553.0,1537.0,1200.0,1528.0,1471.0,998.0,60.0,292.7,1649239504.9448116,1649239506.0657434,47a6c0c2-915e-4b74-aa60-b14d99e477e2
-0.0067716855574923,0.0968754415098981,-0.0741208270764236,-0.3585246288764728,-0.2331442062471748,0.4670491488020002,-0.2563567150752261,-0.2778497792274554,-15.331871563945697,20.50011977898877,31.49968862164697,1.987776129860791,0.2324669368833663,0.8174533416921725,3538.987060546875,11.957875,0.20875,178.75282271179577,-8.644019115199804,103.74540474683928,1553.0,1537.0,1200.0,1528.0,1471.0,998.0,60.0,292.7,1649239506.1739006,1649239507.2903397,47a6c0c2-915e-4b74-aa60-b14d99e477e2
-0.0303002666207757,0.0878357129508722,-0.0909739164522249,-0.5806491481878453,-0.2722236534618227,0.6903367472762886,-0.2113350682849836,-0.229793817113797,-15.30033698008669,20.20003304430669,33.01646350827291,2.988020846069256,0.2111709244899244,0.8287954200608408,3538.175564236112,11.947,0.1944444444444444,178.76128949018187,-8.596160572583889,103.85357805754684,1553.0,1645.0,1200.0,1528.0,1471.0,998.0,60.0,292.7,1649239508.2071488,1649239509.5246458,b22777d1-0ee8-4d43-ae2f-a161858aff0f
-0.0195158068099107,0.090541310033068,-0.0874085967042284,-0.5797641394974512,-0.2689111930016711,0.6869105007991665,-0.2073651730387662,-0.2225367472500136,-15.187976673734088,20.106533785878938,33.05162534849855,2.977945125534988,0.2203271344695679,0.8142732010712266,3537.688666449653,11.940222222222223,0.1922222222222222,178.7813459612247,-8.590023932205847,103.90267345730088,1553.0,1645.0,1200.0,1528.0,1471.0,998.0,60.0,292.7,1649239509.632946,1649239510.7001812,b22777d1-0ee8-4d43-ae2f-a161858aff0f
0.0080332409717875,0.0950548528205943,-0.0839823497321377,-0.5755666698097035,-0.2671285330048273,0.6874415057884149,-0.2076559615520783,-0.2395794825141259,-15.323201346825474,20.337040924256748,34.314529754668705,2.97150181092093,0.2267239779158388,0.8097638108136239,3539.7990993923613,11.943888888888887,0.2,178.7980966207092,-8.592132847975828,103.93794303635502,1553.0,1645.0,1200.0,1528.0,1471.0,998.0,60.0,292.7,1649239510.8083315,1649239512.01096,b22777d1-0ee8-4d43-ae2f-a161858aff0f
-0.0228029809502837,0.0908447414814586,-0.0832111281006195,-0.6820332173171253,-0.2817691025212593,0.7868785116583934,-0.1813712095301194,-0.1984518734569287,-15.143566482479818,20.587640655202808,34.0272476426048,3.4368567736495623,0.2253697155185519,0.7894043030508696,3541.91162109375,11.931,0.19,178.80688631526107,-8.581829412749126,103.95008559487948,1553.0,1761.0,1200.0,1528.0,1471.0,998.0,60.0,292.7,1649239512.9156787,1649239514.0527322,a17b65a4-4f5f-47ee-854c-98517cf9cd2f
-0.0138011810049526,0.091881465592951,-0.0809606780528045,-0.6849411028547594,-0.2801508012250959,0.7883450968466725,-0.1784506815322492,-0.1996782421984367,-15.113131047130548,20.571972018298634,34.01942311430422,3.446734124974799,0.2296124190800345,0.7800909236975355,3541.424370659722,11.938555555555556,0.1988888888888889,178.8261064675855,-8.580866925258585,103.94832947735289,1553.0,1761.0,1200.0,1528.0,1471.0,998.0,60.0,292.7,1649239514.1608093,1649239515.2782,a17b65a4-4f5f-47ee-854c-98517cf9cd2f
-0.0120564501187768,0.087064491352506,-0.082642194083587,-0.6711602525220737,-0.2784439990522707,0.7791536533068906,-0.1822309320404657,-0.2037745672367146,-15.208440311594444,20.54175291799438,33.82577074106562,3.3946306021527257,0.212132919338039,0.7846511583598504,3539.636691623264,11.932777777777778,0.19,178.8389062420901,-8.566970431073502,103.94069104913108,1553.0,1761.0,1200.0,1528.0,1471.0,998.0,60.0,292.7,1649239515.386428,1649239516.50646,a17b65a4-4f5f-47ee-854c-98517cf9cd2f
-0.0156344127536099,0.0925009714685291,-0.0749299776679566,-0.6909844483972769,-0.279860012711376,0.7929724260691879,-0.1756565833487336,-0.2007655383259158,-15.073882356966031,21.077794660275803,34.00011360898246,3.4744347852727206,0.2329642477029671,0.7673107361544145,3532.5049099392363,11.874888888888888,0.18,178.8739845758475,-8.57647492389479,103.86493362649692,1553.0,1887.0,1200.0,1528.0,1471.0,998.0,60.0,292.7,1649239518.18553,1649239519.378214,e447760b-51e2-4f0f-98da-59d37471bc93
-0.0057223184273105,0.0897068735464516,-0.0722243804377933,-0.686875479034634,-0.2749924658474469,0.7919230590461719,-0.1715476154370467,-0.2015114740577912,-15.073739445864268,20.9433275194861,34.027469651731934,3.4620556436846823,0.2219045521773211,0.7509344524420712,3525.885009765625,11.886,0.18,178.89836835118444,-8.582940361990374,103.71992491586803,1553.0,1887.0,1200.0,1528.0,1471.0,998.0,60.0,292.7,1649239519.4864838,1649239520.611409,e447760b-51e2-4f0f-98da-59d37471bc93
0.0186154129898024,0.0960157190725833,-0.0690257070905068,-0.6925142491869298,-0.2745120326727329,0.7901656853947395,-0.1690443057461693,-0.1957842050976886,-14.972956837700208,20.9666936619409,33.939448970121084,3.471177144350055,0.2465307976074006,0.7430064356937719,3524.9188639322915,11.882,0.18,178.905448980624,-8.575368528112987,103.61828638864888,1553.0,1887.0,1200.0,1528.0,1471.0,998.0,60.0,292.7,1649239520.74418,1649239521.835283,e447760b-51e2-4f0f-98da-59d37471bc93
-0.0054694588682998,0.1161559813628594,-0.0302876236543187,0.0311951753736825,-0.1591827827196243,0.0692505366639668,-0.3325180204533049,-0.363076101557796,-15.546620308667944,21.994427759278945,28.511736627623748,0.2262612901097047,0.2876040501617549,0.7661755321576511,3519.9322374131943,11.955,0.2,178.92078047858098,-8.79708699844657,103.4329522411602,1553.0,1335.0,1200.0,1528.0,1471.0,998.0,60.0,292.7,1649239522.7495582,1649239523.8855278,560c32d2-1f04-4332-be54-c01905f0bb4e
-0.0360781073617716,0.1163709119700341,-0.0339920160598769,0.0316629655401807,-0.1620780247068248,0.0683781712471423,-0.335223617983703,-0.3603831469618141,-15.491195280762303,21.88332395365589,28.45529266495637,0.2223436760235962,0.2882238293548051,0.7790555035590715,3520.8965928819443,11.95388888888889,0.2,178.90031267836818,-8.794520839457153,103.60418432474252,1553.0,1335.0,1200.0,1528.0,1471.0,998.0,60.0,292.7,1649239524.0187657,1649239525.1124544,560c32d2-1f04-4332-be54-c01905f0bb4e
-0.0417674472585303,0.1117941543236039,-0.0338908722591502,0.0343306337284763,-0.1612309451920338,0.0720067056713796,-0.3343512524488384,-0.3492446821670504,-15.500499864262345,21.94150282457152,28.685790220126503,0.2249026415175705,0.2687601186744877,0.7762861319469528,3526.36865234375,11.955666666666666,0.2,178.88967124364126,-8.783594244332425,103.7427506491643,1553.0,1335.0,1200.0,1528.0,1471.0,998.0,60.0,292.7,1649239525.220733,1649239526.3407755,560c32d2-1f04-4332-be54-c01905f0bb4e
-0.0107380404169604,0.1200651898212395,-0.0154847198896055,0.2303564500727579,-0.1278666317117971,-0.127537914261734,-0.3771133487222978,-0.4015304823820327,-15.65081820014574,22.77930073545721,27.02967737816832,-0.6595562714887477,0.292569619797614,0.7665720313450913,3527.4972873263887,11.96411111111111,0.1988888888888889,178.83863910580257,-8.845334411242415,104.0138203667546,1553.0,1236.0,1200.0,1528.0,1471.0,998.0,60.0,292.7,1649239528.275616,1649239529.4117377,512362e7-80f0-4588-b155-fbb0fae6afea
-0.0116139458990508,0.1201385190898595,-0.0161654177967482,0.223735070390666,-0.1300660041678261,-0.122050356094932,-0.3753524345337225,-0.3993867387317609,-15.492677754575094,22.765407474655586,26.95674669041563,-0.6323468012781237,0.2931435981105387,0.7679526028513549,3528.465386284722,11.952888888888888,0.2,178.8323386357482,-8.837632424315842,104.1013454464188,1553.0,1236.0,1200.0,1528.0,1471.0,998.0,60.0,292.7,1649239529.5198245,1649239530.6462593,512362e7-80f0-4588-b155-fbb0fae6afea
-0.0243833531437375,0.1206063092352333,-0.012954101512446,0.2248097233989169,-0.1260328941706638,-0.1215446369847401,-0.372849124587525,-0.3902079355331204,-15.643279705050446,22.76096225830465,27.257152778378348,-0.6335320252913662,0.2933727197277856,0.7549040301202617,3528.7880859375,11.952333333333334,0.2,178.8322794407754,-8.833751738502414,104.15304921952584,1553.0,1236.0,1200.0,1528.0,1471.0,998.0,60.0,292.7,1649239530.7594502,1649239531.873968,512362e7-80f0-4588-b155-fbb0fae6afea
-0.0142816141407701,0.1239187691799026,0.0013198199264073,0.3564610365163835,-0.1043122581300653,-0.2531959704279853,-0.4007521806477329,-0.4308045438586403,-15.639746835452112,23.595494968055625,26.175168787033297,-1.2202709895463362,0.3000709996436786,0.7452798777979693,3525.885009765625,11.943111111111111,0.19,178.83289263998086,-8.89461982306463,104.26750497617748,1553.0,1133.0,1200.0,1528.0,1471.0,998.0,60.0,292.7,1649239533.8076878,1649239534.7554233,aeb4470b-2733-467a-b5b1-b663ac9d086b
-0.0323231430219874,0.1154100457225068,-0.0015501358938434,0.3514670609024909,-0.1060569890336895,-0.2395668394085262,-0.3999809587982569,-0.4197545791800892,-15.713133310470576,23.63506853660386,26.2655233165527,-1.178282431420391,0.2683103114673196,0.7494568048571314,3528.7880859375,11.94788888888889,0.2,178.84938830573637,-8.885709556701132,104.2914857703534,1553.0,1133.0,1200.0,1528.0,1471.0,998.0,60.0,292.7,1649239534.864206,1649239535.9153576,aeb4470b-2733-467a-b5b1-b663ac9d086b
-0.0601882656547937,0.120050018251496,-0.0040534454089571,0.3543370164948966,-0.1093188773252275,-0.2467101223934443,-0.4051519374980084,-0.423572759289315,-15.701167480985326,23.66070716428932,26.242136352834727,-1.2007606500115495,0.2853240017783298,0.7652257342957239,3525.402398003472,11.937222222222225,0.19,178.86607825242825,-8.882620508785257,104.3127322121316,1553.0,1133.0,1200.0,1528.0,1471.0,998.0,60.0,292.7,1649239536.0241475,1649239537.209748,aeb4470b-2733-467a-b5b1-b663ac9d086b
-0.0200468118824773,0.1231349046134087,0.0074895928430738,0.4120016308519288,-0.0965873987140963,-0.3058919065414335,-0.4139388085149107,-0.4438394562759399,-15.672673093609452,24.1925861900928,25.81156261115652,-1.4597808991831251,0.2941497282861368,0.7447344282785424,3518.327094184028,11.931111111111113,0.19,178.85143584466752,-8.932214038030025,104.35113001782558,1553.0,1026.0,1200.0,1528.0,1471.0,998.0,60.0,292.7,1649239539.338581,1649239540.4683983,69c15a7e-972b-4cf4-8d50-51e4c4c356da
-0.0480257211735627,0.1176857815684251,0.0078309533078869,0.4047951344237702,-0.0963218960838156,-0.2952212323408553,-0.4098171970714407,-0.4281495180484435,-15.62911880343839,24.189771276123192,25.64319628048417,-1.4195529565214655,0.2758050304623355,0.737110812023038,3516.8835177951387,11.925444444444445,0.19,178.8616325581885,-8.924245483998343,104.32808192392632,1553.0,1026.0,1200.0,1528.0,1471.0,998.0,60.0,292.7,1649239540.5774205,1649239541.7876437,69c15a7e-972b-4cf4-8d50-51e4c4c356da
-0.0533989866454087,0.1286725284784574,0.0076918805473024,0.4095741794029688,-0.0986861329586449,-0.3108353115534833,-0.4163030457466877,-0.4342434341814053,-15.652169303734382,24.28357185474867,25.55301659809185,-1.4648313196624243,0.3173787888831212,0.7509445190165402,3514.9605577256943,11.930666666666667,0.1944444444444444,178.8682517704041,-8.934063596339021,104.30967987648252,1553.0,1026.0,1200.0,1528.0,1471.0,998.0,60.0,292.7,1649239541.896561,1649239542.9374173,69c15a7e-972b-4cf4-8d50-51e4c4c356da
-0.0278222430457181,0.1058140262292466,-0.0528553386278719,-0.1493591886839491,-0.1942164755158227,0.2544701463143316,-0.2963211712740332,-0.3273976138728324,-15.305175869505453,21.08723027154701,29.82751913026467,1.0429545301942007,0.2562288475721791,0.7926808459051055,3515.2208557128906,11.964,0.19375,178.884575353338,-8.765409399275796,104.25576587313272,1553.0,1435.0,1200.0,1528.0,1471.0,998.0,60.0,292.7,1649239543.9125898,1649239544.9779694,7a4cc880-ac56-4705-8bf5-12c4b36e4a16
-0.0351804559406979,0.1078242595639754,-0.0467487804237533,-0.1495488333450882,-0.1881099169489406,0.2518404072063948,-0.2907203315622931,-0.3070297745788024,-15.345727095343593,21.04669154749368,29.75468404489556,1.0374762541244258,0.2651107769553897,0.7681923065442842,3520.0927734375,11.964,0.19,178.89259911806548,-8.741932651716287,104.29483711650616,1553.0,1435.0,1200.0,1528.0,1471.0,998.0,60.0,292.7,1649239545.0858524,1649239546.2141235,7a4cc880-ac56-4705-8bf5-12c4b36e4a16
-0.0231443413622755,0.104916374865206,-0.049062445327586,-0.1488787555197903,-0.1905247258121192,0.2554310125249615,-0.2937293605587964,-0.3082940723963187,-15.431146750942151,21.188311883210737,29.925949644277413,1.0448412081951166,0.2530643248411333,0.7786970759580879,3526.5298665364585,11.963666666666668,0.1955555555555555,178.88526197707705,-8.74085310237247,104.32789447317911,1553.0,1435.0,1200.0,1528.0,1471.0,998.0,60.0,292.7,1649239546.3473618,1649239547.4373033,7a4cc880-ac56-4705-8bf5-12c4b36e4a16
-0.009806000124016,0.1219464647859416,0.0381740988083233,-0.1564392564479958,-0.1121888333134875,0.2404490853768499,-0.2040021407713576,-0.2213103784208202,-14.724023964982688,21.042347543606823,29.85791765823076,1.0319507403847543,0.3189943565319763,0.4277881163232408,3530.6051025390625,11.96375,0.19,178.87969006053416,-8.75129769484202,104.35708746060166,1553.0,1435.0,1200.0,1435.0,1471.0,998.0,60.0,292.7,1649239549.3700202,1649239550.5136232,d0afd09d-7ab8-4418-96be-dbb2d30acf9f
0.0231795277921371,0.1189121503270287,0.0355949314486257,-0.1526842919379267,-0.1137312766286133,0.2401582969149042,-0.2065433794483415,-0.2312351165747641,-14.729340581582893,21.052906499414988,29.865655525065986,1.022767148410615,0.3069572387631973,0.4366914847705013,3530.241455078125,11.962333333333332,0.19,178.8830505136058,-8.755439635391204,104.38182640577544,1553.0,1435.0,1200.0,1435.0,1471.0,998.0,60.0,292.7,1649239550.6225307,1649239551.7360327,d0afd09d-7ab8-4418-96be-dbb2d30acf9f
0.0235335311532742,0.1192914396361751,0.0347225660223005,-0.1533037978562978,-0.1147806437899522,0.2391215728425554,-0.2077191764360868,-0.2312730454251773,-14.729299203814533,21.05651912946016,29.682193230823746,1.0217862310312962,0.310026565491945,0.4407642262788169,3528.1426866319443,11.965,0.1944444444444444,178.88084208577416,-8.765443301204332,104.39454270019016,1553.0,1435.0,1200.0,1435.0,1471.0,998.0,60.0,292.7,1649239551.843974,1649239552.965577,d0afd09d-7ab8-4418-96be-dbb2d30acf9f
0.0240898221582585,0.1352215905017148,0.1394190587988258,-0.1602195069109807,-0.0208686054175709,0.2239626439665771,-0.1005572936495975,-0.1147806438723586,-13.920593525567028,21.04225685326088,29.652392630927107,1.0088432105234584,0.3718030479592694,0.01996038492631,3520.2541232638887,11.963111111111113,0.19,178.8890292058593,-8.764326944729989,104.432942023704,1553.0,1435.0,1200.0,1330.0,1471.0,998.0,60.0,292.7,1649239554.8997211,1649239556.039058,07dcc5c1-4840-46c7-9e13-44ebd65d4c7a
0.0596798029966085,0.1343239391435541,0.1406201416056836,-0.1611298013578378,-0.0195410927737338,0.2262889516524278,-0.0987999197241425,-0.1244272359856525,-13.943636838610548,21.04595613915996,29.750309813982373,1.0162124738224732,0.3679198486938491,0.0140168037176854,3518.969184027778,11.961777777777778,0.19,178.88993230864955,-8.75150079810609,104.43806314776168,1553.0,1435.0,1200.0,1330.0,1471.0,998.0,60.0,292.7,1649239556.1469245,1649239557.2670336,07dcc5c1-4840-46c7-9e13-44ebd65d4c7a
0.0342674188514161,0.1327814959699249,0.138496121495326,-0.159435642267975,-0.0223351907974515,0.2268705285771073,-0.1020112360974812,-0.1287890634288241,-13.942850931167316,21.183612390524736,29.81766903224424,1.014515657945849,0.3611912792486874,0.0251572456464876,3526.6910807291665,11.96022222222222,0.19,178.88397941933297,-8.763535970878605,104.4499962471516,1553.0,1435.0,1200.0,1330.0,1471.0,998.0,60.0,292.7,1649239557.3759918,1649239558.4916356,07dcc5c1-4840-46c7-9e13-44ebd65d4c7a
0.0551283312256652,0.1430349501850876,0.2377182024351514,-0.1573621938474544,0.0688838903188841,0.2087910720659428,-0.0013352052869851,-0.01706306922829,-13.244072135328585,21.18136017233372,29.71314828622968,0.9744722667269832,0.4016633735697316,-0.3760772463254576,3528.1426866319443,11.959666666666667,0.19,178.88592071087703,-8.764689039619737,104.43007789771202,1553.0,1435.0,1200.0,1210.0,1471.0,998.0,60.0,292.7,1649239559.4057505,1649239560.5414965,f5e014f4-c466-4461-be91-758fbaa44004
0.0594016574748482,0.1483702864024529,0.2400065811896115,-0.1572484070479428,0.0698700425324182,0.2047200335952821,-0.0004122679255944,-0.0189848018438326,-13.190587102092842,21.179389480625137,29.90445857663749,0.965225725568528,0.4197310240463588,-0.3808991871789781,3525.885009765625,11.958666666666668,0.19,178.9026121753887,-8.765165540178081,104.44748273753704,1553.0,1435.0,1200.0,1210.0,1471.0,998.0,60.0,292.7,1649239560.6508892,1649239561.977061,f5e014f4-c466-4461-be91-758fbaa44004
0.0904411776374531,0.1523189409140356,0.2424269526099347,-0.1593972076184156,0.0699029142664409,0.2035988544247096,-0.0001270423761516,-0.0252673503344739,-13.192072349887454,21.328632505322165,30.022351245233025,0.9686813674150084,0.4339270447468479,-0.3840863595927313,3528.7880859375,11.951,0.19,178.89357204056725,-8.770587382286736,104.44218402856092,1553.0,1435.0,1200.0,1210.0,1471.0,998.0,60.0,292.7,1649239562.0858395,1649239563.2045963,f5e014f4-c466-4461-be91-758fbaa44004
0.0782776222983471,0.1632257841151328,0.3168885207834847,-0.1426710532836382,0.1368778204572834,0.1712161454012263,0.0670253726935116,0.0395901122372969,-12.695480358959337,21.64452297355567,29.66663141454693,0.864178023193586,0.4771387939637965,-0.6712363420551744,3527.3359375,11.95625,0.1825,178.89350411813052,-8.7765533865152,104.4354485134019,1553.0,1435.0,1200.0,1071.0,1471.0,998.0,60.0,292.7,1649239565.3476632,1649239566.2851524,5d91440f-79fc-4d6c-83af-a8b425c95589
0.0864955573690316,0.163149926255189,0.3187470382955665,-0.1420768332977033,0.1391788422382678,0.1716712925758405,0.0696424689422192,0.0565190586654211,-12.676265672884732,21.589677530298847,29.8162530107376,0.8636228723892476,0.4754359203694729,-0.6803869619630919,3526.046657986112,11.94722222222222,0.1855555555555555,178.90094864487088,-8.784124437766748,104.39598387010508,1553.0,1435.0,1200.0,1071.0,1471.0,998.0,60.0,292.7,1649239566.394914,1649239567.5217469,5d91440f-79fc-4d6c-83af-a8b425c95589
0.0889482948956591,0.1603937573229685,0.3178999588708504,-0.142228549037047,0.1388627678017859,0.1737447407486305,0.0695160391573389,0.0417520612933074,-12.691818824002578,21.597011788658747,29.7035577566852,0.8686050682716518,0.4661726112309851,-0.6791294460903641,3525.885009765625,11.943,0.19,178.90771432669874,-8.77741228280333,104.3613230316607,1553.0,1435.0,1200.0,1071.0,1471.0,998.0,60.0,292.7,1649239567.6295407,1649239568.736452,5d91440f-79fc-4d6c-83af-a8b425c95589
-0.0749931925309164,0.0932216211567164,-0.1613068030502062,-0.1321900244547477,-0.2941086499399568,0.2550137943009987,-0.414924960853201,-0.4299195350707424,-16.14568330508288,21.44552298256145,29.5245030693268,1.0019503660209663,0.2086511414045945,1.2429000518227238,3523.7912868923613,11.96411111111111,0.19,178.9352437836034,-8.77773365743334,104.39339219277,1553.0,1435.0,1200.0,1613.0,1471.0,998.0,60.0,292.7,1649239570.8754056,1649239572.0077426,4d41e873-fc96-43a5-8628-c5144c5eb70e
-0.0699612874108424,0.0863185557053245,-0.1643284748373643,-0.1282327723445606,-0.2952844469866448,0.2612720676476535,-0.4171501252996092,-0.4345595085985257,-16.259983811609597,21.52114412817945,29.94990431000855,1.007448068704026,0.1791216215273859,1.2514770086708245,3527.3359375,11.96377777777778,0.19,178.9354562783776,-8.77785223710643,104.39307724515828,1553.0,1435.0,1200.0,1613.0,1471.0,998.0,60.0,292.7,1649239572.118861,1649239573.2425478,4d41e873-fc96-43a5-8628-c5144c5eb70e
-0.0767758523849008,0.0898712322493747,-0.1618883800461459,-0.1315199466159865,-0.2946649410166367,0.258022822703753,-0.4152536783217912,-0.4380110420905548,-16.156257118224293,21.531557746227904,29.56879068391573,1.0077436364847778,0.1956495541105917,1.2445387543696167,3525.0794813368057,11.963444444444445,0.19,178.93858905847694,-8.776501282606842,104.39545566880923,1553.0,1435.0,1200.0,1613.0,1471.0,998.0,60.0,292.7,1649239573.351208,1649239574.47038,4d41e873-fc96-43a5-8628-c5144c5eb70e
-0.072135879563179,0.0774305428442955,-0.2591128844429683,-0.1090533747768026,-0.3821290715652967,0.2542552157114154,-0.5206455611622262,-0.5470946769155356,-16.824146261766373,21.69168031706073,29.46292080344696,0.9444655047755646,0.1457279667798728,1.6442609047099614,3525.885009765625,11.956777777777775,0.19,178.9471996502906,-8.765486179614122,104.39311291392394,1553.0,1435.0,1200.0,1694.0,1471.0,998.0,60.0,292.7,1649239575.1819656,1649239576.5175352,4923735d-b931-4bf3-8042-cb28e80ef160
-0.1079913646335082,0.0751421639971265,-0.2656745904302804,-0.1078522918782035,-0.3874896949173446,0.255228724901487,-0.5264613322431632,-0.5484601189213459,-16.828589243732022,21.643519466110856,29.392783083055534,0.9432843510660074,0.1372335570012034,1.668438386978024,3525.885009765625,11.957333333333334,0.19,178.9364231296001,-8.768859059835506,104.3861931733848,1553.0,1435.0,1200.0,1694.0,1471.0,998.0,60.0,292.7,1649239576.6252458,1649239577.7459166,4923735d-b931-4bf3-8042-cb28e80ef160
-0.1092556624191133,0.0787833413880849,-0.2621977712655171,-0.1086740854584493,-0.3856691058529963,0.2535219230726285,-0.5247418868877937,-0.5478911845690492,-16.837676830215894,21.737558017469123,29.56856735839171,0.9421226663085072,0.1497197211474764,1.659407622963303,3524.918375651041,11.956666666666663,0.1866666666666666,178.91891811366725,-8.764229804261795,104.35920254251464,1553.0,1435.0,1200.0,1694.0,1471.0,998.0,60.0,292.7,1649239577.8541172,1649239579.180524,4923735d-b931-4bf3-8042-cb28e80ef160
-0.1226319331133467,0.0639657722409232,-0.3489791794637022,-0.0734001773415718,-0.4622097059288412,0.2405881581202482,-0.6244823642372902,-0.6406148086701962,-17.651084736672843,22.125053366358017,29.565066143740783,0.8313270867554347,0.0900950802645152,2.021744035411392,3521.5390625,11.938555555555556,0.1811111111111111,178.92169875956938,-8.767497196005998,104.31596516833872,1553.0,1435.0,1200.0,1774.0,1471.0,998.0,60.0,292.7,1649239581.3198087,1649239582.4644125,762bb3d6-911a-4e35-8043-edc9911ec3a8
-0.1391310193970298,0.065369142704199,-0.3480562419974348,-0.0751322653047168,-0.4633096452181071,0.2407651597825356,-0.6237490713549951,-0.6441042716078818,-17.514218655408037,22.214728024980943,29.56353264828347,0.8363410699270565,0.0946767468372051,2.021151441906233,3521.8607313368057,11.942333333333332,0.1877777777777777,178.92833922126243,-8.769698034738559,104.27886965204648,1553.0,1435.0,1200.0,1774.0,1471.0,998.0,60.0,292.7,1649239582.5994318,1649239583.6867847,762bb3d6-911a-4e35-8043-edc9911ec3a8
-0.1218607114757527,0.0661656502597201,-0.344819639262902,-0.0764977068844831,-0.4595293941341317,0.24047437133004,-0.6193366707815359,-0.6495533967119727,-17.498699069968474,22.09851156610845,29.485210059918703,0.8381538064676649,0.0986197892409497,2.0053409278969268,3521.217664930556,11.943,0.18,178.91726976134757,-8.773537739416966,104.22922328369938,1553.0,1435.0,1200.0,1774.0,1471.0,998.0,60.0,292.7,1649239583.8162737,1649239584.9245653,762bb3d6-911a-4e35-8043-edc9911ec3a8
-0.1278008882132398,0.0625001983361963,-0.3898149917681766,-0.0284624834073097,-0.4994225484024251,0.1999040709405538,-0.6831756368237578,-0.7071588685726851,-17.889510939182916,22.619990356562745,29.0723356939032,0.6395851674394096,0.0825396957451752,2.210811555550232,3519.6111653645835,11.918,0.17,178.93788327226264,-8.78672190178986,104.12630219873613,1553.0,1435.0,1200.0,1856.0,1471.0,998.0,60.0,292.7,1649239586.8477118,1649239587.9910526,e45fbb25-6a7b-405c-bdec-b16858647544
-0.1538600888962793,0.0635232680447851,-0.3882103448596073,-0.0316783511756323,-0.498343343664638,0.20173629111101,-0.6812240662100552,-0.703121711039077,-17.906995853164723,22.618660014024574,29.068134932425867,0.6510182312132975,0.0870354599896978,2.204453696669461,3512.879638671875,11.914222222222223,0.1711111111111111,178.93012569518535,-8.795804156111208,104.042775815376,1553.0,1435.0,1200.0,1856.0,1471.0,998.0,60.0,292.7,1649239588.0999858,1649239589.2161703,e45fbb25-6a7b-405c-bdec-b16858647544
-0.1173977402073016,0.0636876267458422,-0.3930273200170909,-0.0296428317957292,-0.504525761015807,0.2015972183669217,-0.6875834860469604,-0.7112511485166569,-17.849565828099045,22.779177376212115,29.29231317494191,0.6470029630763043,0.0847052790673835,2.2288231003890475,3513.779754638672,11.92725,0.17,178.9350094701694,-8.797512142148502,103.98566518863096,1553.0,1435.0,1200.0,1856.0,1471.0,998.0,60.0,292.7,1649239589.324556,1649239590.6471963,e45fbb25-6a7b-405c-bdec-b16858647544
-0.0492773759396894,0.1025142092374519,-0.1373357166503269,-0.1310015846328338,-0.2408943522539913,0.2607916345378981,-0.3489665365722193,-0.3744800689903012,-15.382522290214364,17.50104552230022,32.18383722216941,0.9881063669038672,0.2158393399174943,1.050872447389393,7208.9375,11.63588888888889,7.985555555555556,-179.26454997078696,-8.890390987331006,90.9030559655914,1553.0,1435.0,1350.0,1528.0,1471.0,998.0,60.0,292.7,1649239595.8142946,1649239597.203068,b3ba4d0d-481c-47c3-8d12-d4b6bc57f6b2
-0.022360476750445,0.1022234207583957,-0.1430376997471139,-0.1385873715171211,-0.2443711713576534,0.263219086013558,-0.351153771965229,-0.3795499038741918,-15.42710556280785,17.188914164743018,31.469450238267505,1.0081834544995174,0.221963053445684,1.065482236644225,7221.0830078125,11.635666666666667,8.012222222222222,-178.7210111057365,-8.79882822236623,84.00617455179292,1553.0,1435.0,1350.0,1528.0,1471.0,998.0,60.0,292.7,1649239597.3114598,1649239598.36457,b3ba4d0d-481c-47c3-8d12-d4b6bc57f6b2
-0.0212605377104854,0.1026912109151892,-0.1358185593428661,-0.1268294019415137,-0.2384921863564664,0.2591354046250639,-0.3479424552738737,-0.3726721230436213,-15.417074468518967,17.475222731744516,32.52927517577097,0.9749152092125144,0.2132682045369203,1.0446061286861898,7221.0830078125,11.632111111111108,8.06,-178.5536502215937,-8.72603680937916,79.98316960444828,1553.0,1435.0,1350.0,1528.0,1471.0,998.0,60.0,292.7,1649239598.4738572,1649239599.4654355,b3ba4d0d-481c-47c3-8d12-d4b6bc57f6b2
0.0852691885968716,0.2882395363651495,-0.1171322378642844,-0.2421333642853525,-0.2659780221282996,0.1817351020245546,-0.3620646632315605,-0.3837094441675678,-15.073256240475429,16.867604002267335,32.30057594177271,1.058122973473916,0.9241514261048162,1.0982859614767682,7223.789388020833,11.625,8.05,-178.7598627395553,-8.564849372744996,71.21546750276717,1647.0,1435.0,1350.0,1528.0,1543.0,998.0,60.0,292.7,1649239601.392791,1649239602.533227,582d3f70-0cf0-4e1d-9ea6-1ea5f691fd80
0.0571385645813403,0.284699502970292,-0.1199136929594119,-0.2427907991578117,-0.2677859680470532,0.1831131864750621,-0.3642645416089562,-0.3765914466194469,-15.13014308588461,16.861680683639978,31.89876785658861,1.0624322750285873,0.9147425090081668,1.1066338616881906,7227.17236328125,11.622888888888887,8.013333333333332,-178.91341601683587,-8.56733565646662,68.58814189260312,1647.0,1435.0,1350.0,1528.0,1543.0,998.0,60.0,292.7,1649239602.663772,1649239603.753134,582d3f70-0cf0-4e1d-9ea6-1ea5f691fd80
0.0601475931344577,0.2839788533219766,-0.1243008063096878,-0.241716145889468,-0.2703398497401018,0.1825568955019408,-0.3690309448499593,-0.3831784389445435,-15.288029795965665,16.79156323096833,31.826473187139584,1.0579837940953412,0.913386242269722,1.1226174241716234,7233.2705078125,11.62622222222222,8.054444444444444,-179.12134215336923,-8.564861705030998,66.00050499388618,1647.0,1435.0,1350.0,1528.0,1543.0,998.0,60.0,292.7,1649239603.86621,1649239604.985957,582d3f70-0cf0-4e1d-9ea6-1ea5f691fd80
0.1365238171103051,0.4464031688822371,-0.0957276762331769,-0.336943063342679,-0.2863837899365496,0.1094678465344578,-0.3747961435091254,-0.3919147380182485,-14.962400531793069,16.757558564555517,31.68127549042987,1.109889635304648,1.535093617577307,1.1325852320796286,7232.592936197917,11.60422222222222,8.032222222222222,-179.65719326105395,-8.530601001835521,62.59019609475826,1745.0,1435.0,1350.0,1528.0,1614.0,998.0,60.0,292.7,1649239606.1000812,1649239607.2388878,219f4ebc-6895-4cde-9cbf-a5ef6fdfe523
0.165413019086642,0.4443802927114766,-0.0950575984184762,-0.329862995084042,-0.2826288252268783,0.1066737486484981,-0.3746570707280842,-0.3906757257983191,-15.133195375673676,16.653459107744247,31.93424837991713,1.086937654008045,1.5256423595776607,1.1264568244089108,7227.17236328125,11.599555555555558,8.05,-179.8850984598195,-8.553337847808846,61.14378894261199,1745.0,1435.0,1350.0,1528.0,1614.0,998.0,60.0,292.7,1649239607.3472235,1649239608.3951988,219f4ebc-6895-4cde-9cbf-a5ef6fdfe523
0.1614178384194154,0.4403092544124184,-0.0912520620869082,-0.3318985146414946,-0.28102316689954,0.1086207670897284,-0.3711549654150574,-0.3863644697842063,-15.033294613697414,16.881786701726757,31.402693005643386,1.0975731538404172,1.5148733186451864,1.1128122404928555,7227.17236328125,11.604444444444445,8.05777777777778,99.91884951067506,-8.572185185641066,60.03145089623048,1745.0,1435.0,1350.0,1528.0,1614.0,998.0,60.0,292.7,1649239608.5050275,1649239609.6923974,219f4ebc-6895-4cde-9cbf-a5ef6fdfe523
0.2487428779352658,0.5903434506419285,-0.0734760353420895,-0.4213981668359646,-0.3048678252487425,0.0395521833159592,-0.3878816273560955,-0.4170363385709156,-14.900744164589828,16.993622735090316,30.76874112546257,1.14584828068199,2.094421439364432,1.1613961234122094,7221.0830078125,11.574555555555555,8.06,179.30350329853343,-8.572715568802867,57.32726972079571,1849.0,1435.0,1350.0,1528.0,1686.0,998.0,60.0,292.7,1649239611.8337088,1649239612.98359,0598cf87-8466-422f-8017-3d3a4b370a8a
0.2636236612696923,0.5892561547107851,-0.0717186614597846,-0.4266829324734891,-0.302655303938611,0.0415118447841225,-0.3841140194469308,-0.4072001002347746,-14.90006764539412,16.88128069047115,30.227019134429234,1.161429801586872,2.095900069305256,1.1497274534903237,7221.0830078125,11.565222222222223,8.05888888888889,179.1234579941921,-8.575360559558954,56.62441669335463,1849.0,1435.0,1350.0,1528.0,1686.0,998.0,60.0,292.7,1649239613.0920808,1649239614.205386,0598cf87-8466-422f-8017-3d3a4b370a8a
0.2612214957344103,0.5924548276223282,-0.0724898830717154,-0.4206775170839633,-0.3047034664816881,0.0346846370633257,-0.3883494175793948,-0.417946633110243,-14.865810132973056,17.023360749804333,30.46684446998472,1.133500346567481,2.1047431284235887,1.1603422824547676,7221.0830078125,11.573222222222224,8.07,178.98113051226736,-8.584935441274189,56.01406150274844,1849.0,1435.0,1350.0,1528.0,1686.0,998.0,60.0,292.7,1649239614.3140247,1649239615.3736866,0598cf87-8466-422f-8017-3d3a4b370a8a
0.3085947282841291,0.7276588122358475,-0.0460534167752367,-0.5162205182717594,-0.3199761852369916,-0.0102611473548579,-0.3903090795174356,-0.4048485061242847,-14.716369684330209,17.35020019860261,30.492459176503186,1.2515850956012975,2.624000411224684,1.163427064708747,7217.70654296875,11.50911111111111,8.04111111111111,178.51270096078977,-8.603248601395071,54.81013251687184,1962.0,1435.0,1350.0,1528.0,1760.0,998.0,60.0,292.7,1649239617.3650067,1649239618.5018575,8e0a6171-9fb6-47f0-8e39-c19a29c539c0
0.3074442174521479,0.730162121473212,-0.050579602795658,-0.5226810814472214,-0.3247678743706692,-0.0143574720690198,-0.3934066095026874,-0.4104872751809459,-14.58855982397275,17.16305702082968,29.38598665102628,1.2553755442229433,2.642796697893446,1.1793852904619484,7215.00537109375,11.508888888888889,8.04111111111111,178.34977666396787,-8.617485276946317,54.42856248106926,1962.0,1435.0,1350.0,1528.0,1760.0,998.0,60.0,292.7,1649239618.622075,1649239619.7267542,8e0a6171-9fb6-47f0-8e39-c19a29c539c0
0.3396332351253937,0.7292265412558424,-0.0468246384754498,-0.5216569999934618,-0.3234909334879124,-0.0126759560298228,-0.391244660001028,-0.4163662606258295,-14.522336860075209,17.42746685380156,29.647854645072627,1.2588589135330734,2.6366145065533955,1.1696523739413618,7215.00537109375,11.514,8.05,178.2441728324806,-8.648575349410828,54.0371600085015,1962.0,1435.0,1350.0,1528.0,1760.0,998.0,60.0,292.7,1649239619.835224,1649239621.165454,8e0a6171-9fb6-47f0-8e39-c19a29c539c0
-0.1489672563578475,-0.1229227215928969,-0.1747462890265139,-0.0352815999125623,-0.2251791298433986,0.3801034020424768,-0.3371959228238669,-0.3635312487475263,-15.825491513356878,17.996927433090434,30.172945399442582,1.0411759424002789,-0.6228769043213369,1.0339155346439124,7221.0830078125,11.630555555555556,8.09,178.53940244698504,-8.696195523167894,53.524966019917,1459.0,1435.0,1350.0,1528.0,1394.0,998.0,60.0,292.7,1649239622.2809236,1649239623.420974,94df5761-da9c-488f-a155-01e0e8ed8a6d
-0.1864663297587573,-0.1262731107501394,-0.1675145054631496,-0.0287072515628391,-0.2186300669706001,0.3778150233480284,-0.3318732285820307,-0.3509514845033647,-15.808587404237336,18.204217395013348,30.287254486481206,1.0229645061420165,-0.6369231333452252,1.007299590487644,7226.495768229167,11.626444444444443,8.08,178.46146391727592,-8.705800571551963,53.29109389200156,1459.0,1435.0,1350.0,1528.0,1394.0,998.0,60.0,292.7,1649239623.5287876,1649239624.5931733,94df5761-da9c-488f-a155-01e0e8ed8a6d
-0.1673880756613824,-0.1284603459488563,-0.1705235342925724,-0.0295796170240516,-0.2198564358856309,0.3820377774029435,-0.3335041728941139,-0.3630887445136395,-15.924094760602278,18.118219848101816,30.45238341980886,1.0336697024547046,-0.6458574040492825,1.0153088170456537,7231.915364583333,11.63222222222222,8.09,178.42658897137386,-8.719207189391577,53.14905555475169,1459.0,1435.0,1350.0,1528.0,1394.0,998.0,60.0,292.7,1649239624.7027223,1649239625.8752449,94df5761-da9c-488f-a155-01e0e8ed8a6d
-0.3049942548612131,-0.3311778646231271,-0.194014187951791,0.0792890603612043,-0.1972760763428183,0.4767842403507109,-0.3188003880893945,-0.3384602207758105,-16.131651226357032,18.93855168711105,29.893999940675272,1.005071505203627,-1.4146327122660658,0.9707951919304396,7233.2705078125,11.607777777777777,8.077777777777776,178.3797460162261,-8.728748109888437,52.908803271241545,1364.0,1435.0,1350.0,1528.0,1312.0,998.0,60.0,292.7,1649239627.8314493,1649239628.9483616,fd03fb95-c029-4456-a74c-2bf6c1130bf2
-0.2712248581183215,-0.3351477601014337,-0.1946463369324636,0.0771776831883156,-0.1980472980808767,0.4797047678177365,-0.3191670345237726,-0.3404957403899994,-16.173344950124786,19.03094999455057,29.475337819869576,1.0168903880119784,-1.425295096382694,0.9720729029375336,7227.849934895833,11.59477777777778,8.062222222222223,178.34896463036654,-8.726972355567975,52.81518148883322,1364.0,1435.0,1350.0,1528.0,1312.0,998.0,60.0,292.7,1649239629.0571468,1649239630.1767018,fd03fb95-c029-4456-a74c-2bf6c1130bf2
-0.2707317819673168,-0.332606521275211,-0.1996529563457459,0.07383993725236,-0.2023079817823686,0.4810069943500297,-0.32282085548085,-0.3409003157431218,-16.18201804920998,18.86876021544157,29.546113686879497,1.0260282463878452,-1.4162390000249994,0.9903414920528631,7227.17236328125,11.6075,8.0825,178.346064456154,-8.693240126401559,52.76673827728116,1364.0,1435.0,1350.0,1528.0,1312.0,998.0,60.0,292.7,1649239630.2846537,1649239631.407831,fd03fb95-c029-4456-a74c-2bf6c1130bf2
-0.414204311004806,-0.5357792089803177,-0.2207793734355347,0.1814695994032195,-0.1795759067602981,0.5685469601051366,-0.3101020185473843,-0.3284469812604982,-16.48299246498045,19.96214505933055,27.7371035798248,0.9857124457493402,-2.174668947225486,0.9432174197774588,7233.2705078125,11.559,8.06,178.3702672314779,-8.676959623462894,52.68753625743935,1262.0,1435.0,1350.0,1528.0,1222.0,998.0,60.0,292.7,1649239633.1849165,1649239634.2735164,a7f93a15-a274-4bff-89b6-3d3a0f8e1cab
-0.4219038856916813,-0.5343126232169011,-0.2146981007026235,0.1831258293504498,-0.1744428575303615,0.5656264326606524,-0.3063849826512667,-0.3229725714096255,-16.560978737311483,20.088106599386915,27.77961602228108,0.9765189231196748,-2.1688094388440606,0.922790014333851,7227.17236328125,11.56488888888889,8.047777777777778,178.41630422430364,-8.675916881249606,52.689950729310944,1262.0,1435.0,1350.0,1528.0,1222.0,998.0,60.0,292.7,1649239634.3818038,1649239635.703696,a7f93a15-a274-4bff-89b6-3d3a0f8e1cab
-0.3814842795986124,-0.5286359248952858,-0.2142935253758082,0.1834545467902471,-0.1750117915301173,0.5610876042903712,-0.3078262822620334,-0.3339213912083457,-16.561270887688377,20.08221616977358,27.96409305748044,0.9655884201552284,-2.1491662404065592,0.92601771098261,7227.17236328125,11.567444444444444,8.05888888888889,178.45492970296996,-8.676899669580179,52.712034248717416,1262.0,1435.0,1350.0,1528.0,1222.0,998.0,60.0,292.7,1649239635.8117542,1649239637.142147,a7f93a15-a274-4bff-89b6-3d3a0f8e1cab
-0.4767617761565371,-0.6752186496993914,-0.2278088694321363,0.2887073263999887,-0.1591195679362241,0.6061345275834134,-0.3080159269906081,-0.3354385488508934,-16.76762880206029,21.49898196674511,27.6599283007312,0.8379569646345979,-2.7085758681389587,0.9050964090685908,7233.2705078125,11.518444444444444,8.04,178.54852909753603,-8.683810872382846,52.75689227500138,1153.0,1435.0,1350.0,1528.0,1121.0,998.0,60.0,292.7,1649239639.2794054,1649239640.4226358,01e3fa84-5aba-461a-b3ff-16015ec429ff
-0.4962142656372,-0.673287813464751,-0.2292036427999537,0.2832536520721676,-0.1604885495824276,0.603516420127587,-0.3074383956369875,-0.3344984167488618,-16.64148655919343,21.30033838572542,26.84184190621056,0.8429226871215127,-2.694396509050654,0.9072416752455668,7233.2705078125,11.514888888888889,8.03,178.5805748273019,-8.685533218418552,52.79519180186232,1153.0,1435.0,1350.0,1528.0,1121.0,998.0,60.0,292.7,1649239640.5488584,1649239641.6494818,01e3fa84-5aba-461a-b3ff-16015ec429ff
-0.5086979445562623,-0.7053089470025907,-0.2285042332268647,0.3047133344609248,-0.1526463631285408,0.6163247661882545,-0.3046781804738057,-0.3205324762665403,-16.93110283645024,21.64465013903544,27.022216040447272,0.8254972424629575,-2.816636015175445,0.8879011575821458,7233.2705078125,11.509,8.023333333333333,178.61204682117753,-8.706867598882303,52.83638429329171,1153.0,1435.0,1350.0,1528.0,1121.0,998.0,60.0,292.7,1649239641.757613,1649239643.0842836,01e3fa84-5aba-461a-b3ff-16015ec429ff
-0.0565091591548221,0.1000108997956074,-0.1426836963774708,-0.1262857538643707,-0.2412104267194484,0.2558103018126128,-0.3540237283047366,-0.3733042721082736,-15.639915487652996,17.216799562763498,31.709360847878663,0.9639190943711852,0.2115529716944321,1.0647991003879782,7229.205078125,11.633333333333333,8.08,178.43157500946796,-8.718481766383478,52.96957298210696,1553.0,1435.0,1350.0,1528.0,1471.0,998.0,60.0,292.7,1649239645.2186377,1649239646.355283,815bdcf9-dcc3-4736-a212-3cba3568492a
-0.0584561777091008,0.0942077733534272,-0.1436319197753258,-0.1287258486256197,-0.2419816484569277,0.2602985584572933,-0.3533662934216249,-0.3770465938721231,-15.618977850535876,17.271422390736426,31.218072378493428,0.9797561736701584,0.1942350470785599,1.064781748975966,7238.022623697917,11.633777777777777,8.064444444444446,178.44566189517616,-8.718205428313308,53.05475265070114,1553.0,1435.0,1350.0,1528.0,1471.0,998.0,60.0,292.7,1649239646.4635212,1649239647.6028671,815bdcf9-dcc3-4736-a212-3cba3568492a
-0.0271648081974016,0.0971915159286837,-0.1451996490528391,-0.1274109789115386,-0.2436378786316383,0.2601974146471123,-0.3556546726438042,-0.3812187772976337,-15.645594539041271,17.26313259222402,31.776480624055107,0.9765054649066623,0.2004037091509788,1.0735776825974903,7239.38037109375,11.633,8.077777777777778,178.450740520279,-8.721462954228713,53.153915993256064,1553.0,1435.0,1350.0,1528.0,1471.0,998.0,60.0,292.7,1649239647.7350528,1649239648.776387,815bdcf9-dcc3-4736-a212-3cba3568492a
-0.0087692759843691,0.097065086158359,-0.1799046241604466,-0.4422464406226786,-0.3077377814244224,0.5635909135325838,-0.3033253816998729,-0.3333018852731885,-15.602023601133792,16.36282213831732,33.752456720566514,2.361103404841119,0.2186557149891286,1.1340961180498033,7240.740288628473,11.618111111111112,8.038888888888888,178.4777561951761,-8.642433870982124,53.327267332755845,1553.0,1537.0,1350.0,1528.0,1471.0,998.0,60.0,292.7,1649239649.724182,1649239650.8691697,f1de3c7e-fe6f-457c-94b6-8a572bbdd71b
-0.0243454242202551,0.0951307106800472,-0.1818642858012976,-0.4432325930942251,-0.3094319406363733,0.5661827236021826,-0.3054746881333331,-0.3263735329510409,-15.69355528273505,16.41993873268109,33.706381042794405,2.369379701790339,0.2124549902042236,1.1417398690677265,7245.5,11.631,8.061111111111112,178.4986262176401,-8.638222490176382,53.42709775711971,1553.0,1537.0,1350.0,1528.0,1471.0,998.0,60.0,292.7,1649239650.999789,1649239652.0982902,f1de3c7e-fe6f-457c-94b6-8a572bbdd71b
-0.0314507776211685,0.0981270962281275,-0.178766756123712,-0.4407292829908588,-0.3071309184391519,0.5646655664874823,-0.3041092464201552,-0.3296480644330988,-15.723072763389904,16.49452747532494,34.25188059543127,2.3610443844207305,0.2189568472825147,1.1335420580251494,7245.5,11.62325,8.055,178.5499831689193,-8.645069897114928,53.476612644325286,1553.0,1537.0,1350.0,1528.0,1471.0,998.0,60.0,292.7,1649239652.2140815,1649239653.3195076,f1de3c7e-fe6f-457c-94b6-8a572bbdd71b
0.0008014579088102,0.0980512383644024,-0.2134085169129926,-0.7444263345276148,-0.3746064989092892,0.8560608763767997,-0.2596059607227327,-0.2814909570141296,-15.656721643267192,16.11327131731419,35.95124514939388,3.696966662003692,0.2383303306840551,1.2092312312437663,7245.5,11.599555555555556,8.033333333333333,178.56321552207137,-8.518615347934489,53.64765367233832,1553.0,1645.0,1350.0,1528.0,1471.0,998.0,60.0,292.7,1649239655.2541685,1649239656.388383,965f60ae-bd42-412f-9c6a-9253580b9949
0.0015347506046655,0.100933837117797,-0.210677633531759,-0.7424540292340096,-0.3721537608547398,0.8490566676405036,-0.2585818794176431,-0.2834632617957733,-15.648744378458638,16.093256603604082,35.63009179835878,3.676734353886787,0.251861692554098,1.200636867835477,7240.910278320312,11.6095,8.0625,178.62047413624845,-8.523313023979576,53.71200572255967,1553.0,1645.0,1350.0,1528.0,1471.0,998.0,60.0,292.7,1649239656.497192,1649239657.6220653,965f60ae-bd42-412f-9c6a-9253580b9949
-0.0353953865605537,0.1025142092355235,-0.2102857011436771,-0.7456400608536323,-0.3732789859713736,0.8491704544309273,-0.2584554495978534,-0.2805174476230352,-15.590469740466675,16.1483671489814,35.450460379880944,3.68456250451138,0.2593867137699029,1.2013832789638246,7233.2705078125,11.60475,8.07875,178.65599111993248,-8.551149673385375,53.749799720558286,1553.0,1645.0,1350.0,1528.0,1471.0,998.0,60.0,292.7,1649239657.730091,1649239658.8509452,965f60ae-bd42-412f-9c6a-9253580b9949
-0.0011708465970463,0.1100620664737229,-0.2366968833275986,-1.0111427219816156,-0.432410202100461,1.1038126396648664,-0.2217149536979206,-0.2390611203561977,-15.72145538067708,16.21569248490082,37.983765513658106,4.85515554599042,0.297186106216498,1.26765195373495,7233.2705078125,11.589777777777778,8.068888888888889,178.70376411917223,-8.474864950660924,53.79362999309964,1553.0,1761.0,1350.0,1528.0,1471.0,998.0,60.0,292.7,1649239659.7588546,1649239660.8961246,3b3651ed-8f9b-472e-a3b6-5c2896b38d91
0.0093228246544344,0.1109091459350724,-0.2399587719050873,-1.0051499470949865,-0.4352295866891122,1.0942166204351154,-0.2251412009042675,-0.2511225220370477,-15.4908674832668,16.0977863482981,37.496819370372975,4.819168193338298,0.3021002913356435,1.2804945104766388,7233.2705078125,11.592333333333334,8.06777777777778,178.72474190684306,-8.445317457447711,53.81020041148104,1553.0,1761.0,1350.0,1528.0,1471.0,998.0,60.0,292.7,1649239661.0044773,1649239662.1302197,3b3651ed-8f9b-472e-a3b6-5c2896b38d91
-0.0196295936208221,0.1121987295751819,-0.2420575063179293,-1.010371499999193,-0.436531813591761,1.0968084306278771,-0.2260388523599966,-0.2412736417610498,-15.588444619705994,15.971856365058311,37.35195314537194,4.835759362574756,0.3094192873917242,1.286296442646046,7233.2705078125,11.598,8.059999999999999,178.75357744769906,-8.461995925627235,53.84988646674349,1553.0,1761.0,1350.0,1528.0,1471.0,998.0,60.0,292.7,1649239662.2385018,1649239663.3578007,3b3651ed-8f9b-472e-a3b6-5c2896b38d91
