raw_voltage_G-,raw_voltage_G0,raw_voltage_G1,raw_voltage_G2,raw_voltage_G3,raw_voltage_G4,raw_voltage_G5,raw_voltage_G6,load_x,load_y,load_z,load_l,load_m,load_n,rpm,voltage,current,roll,pitch,yaw,aileron1_pwm,elevator_pwm,throttle_pwm,rudder_pwm,aileron2_pwm,pbaro,pdiff,Tt,sample_start_time,sample_end_time,uid
0.0613562616942929,0.1732385158936439,0.06173757373458,-0.2558429057977165,-0.1179525143975861,0.2742730926395557,-0.1647224303235245,-0.188337490942256,-13.046185874905058,20.81088893399942,29.03459929707048,1.3325403557614708,0.520521047956924,0.3530348024345416,3144.5582682291665,11.955,0.22,-179.8824164722054,-11.325222324753984,114.78102619701106,1553.0,1435.0,1200.0,1528.0,1471.0,995.0,60.0,293.1,1649247888.1333802,1649247889.181625,b9536ec2-c648-4ec9-a272-79e2ef84a955
0.0430927225909242,0.1603133479189752,0.0573459090146951,-0.2537654109000058,-0.1193331278273324,0.286317297936392,-0.1656822853867186,-0.1893630893555661,-13.150845555604196,20.85351483748393,29.197729748688804,1.3549561913325971,0.4708052747237167,0.3608618639976935,3465.216742621528,11.956555555555555,0.2077777777777777,-179.7433765880012,-11.296396365135587,113.62635995052318,1553.0,1435.0,1200.0,1528.0,1471.0,995.0,60.0,293.1,1649247889.2897606,1649247890.5548503,b9536ec2-c648-4ec9-a272-79e2ef84a955
0.011826134155518,0.1401902803612827,0.0503239996075064,-0.2653332311509151,-0.1232767253884199,0.3136392755103613,-0.1635319676064935,-0.1809413485483637,-13.225047934812428,20.837641070608942,28.74664410115043,1.441882360809904,0.4008335090201363,0.3695253134354095,3505.6971028645835,11.955666666666666,0.21,-179.66709703535045,-11.292545845990997,112.58123627794396,1553.0,1435.0,1200.0,1528.0,1471.0,995.0,60.0,293.1,1649247890.663201,1649247891.7811077,b9536ec2-c648-4ec9-a272-79e2ef84a955
0.1268893629570725,0.3114970499190382,0.0854052267003989,-0.3253469253084246,-0.1271040079001227,0.2067545403438559,-0.1695611507884961,-0.1914800294834447,-12.898037884618573,20.44919337153709,29.671591337572057,1.33655807462726,1.0424321129339984,0.3573975083905836,3515.1207411024307,11.95011111111111,0.21,-179.72507775230483,-11.228609109216675,111.25831591035188,1647.0,1435.0,1200.0,1528.0,1543.0,995.0,60.0,293.1,1649247892.6861658,1649247893.8317726,a8fa3ff6-3be3-44d1-83ed-b744308f1cfa
0.1214589514761294,0.3042258213423123,0.0829201233036844,-0.3363392361805549,-0.1290368660224768,0.2212838493650863,-0.1653930136734555,-0.1908883380648373,-12.771278582474825,20.31989718004671,29.2928800146892,1.393025909175548,1.0188135762865,0.3561144328126854,3514.31982421875,11.951666666666668,0.2133333333333333,-179.7856691193419,-11.18424665110249,110.67184323508856,1647.0,1435.0,1200.0,1528.0,1543.0,995.0,60.0,293.1,1649247893.9497385,1649247895.0654745,a8fa3ff6-3be3-44d1-83ed-b744308f1cfa
0.1070348319726991,0.2790723669248148,0.0798827742137344,-0.3369703741631427,-0.1290631638235468,0.2457930179721726,-0.1637625755686855,-0.1878115429812721,-13.015168665817402,20.660051242088137,29.18266792462661,1.4514883223796204,0.9270667537252372,0.3544543834303664,3514.8003743489585,11.951,0.21,-179.9023651780413,-11.12393579614006,110.10899921980392,1647.0,1435.0,1200.0,1528.0,1543.0,995.0,60.0,293.1,1649247895.1735,1649247896.228349,a8fa3ff6-3be3-44d1-83ed-b744308f1cfa
0.2225339876017489,0.4632815418774437,0.127294443653444,-0.3891459273100693,-0.1260708237417316,0.111490721759831,-0.1660479201443819,-0.196074993676224,-12.41119079897802,20.5090105938383,29.09138227630745,1.269037388787447,1.6239244264024526,0.3111926922454489,3515.761474609375,11.9285,0.19125,179.92663511689204,-11.186292363906713,109.46982214872013,1745.0,1435.0,1200.0,1528.0,1614.0,995.0,60.0,293.1,1649247897.196544,1649247898.2712152,afefa74d-40ee-42ab-9a4b-0e243224ebd2
0.2121586552111325,0.4439701545006734,0.1118209568357249,-0.4040681847444836,-0.1381883598309429,0.1409847634323353,-0.1726905413114331,-0.2011048761032258,-12.596528161723192,20.48865963353352,28.55732379260625,1.367891583900772,1.5583960692656893,0.354904936965881,3514.500030517578,11.931,0.20125,179.83172793082747,-11.0048054864796,109.05344271785872,1745.0,1435.0,1200.0,1528.0,1614.0,995.0,60.0,293.1,1649247898.3837326,1649247899.5661995,afefa74d-40ee-42ab-9a4b-0e243224ebd2
0.210238945700056,0.4493742682402699,0.1174748961328334,-0.3995581860010563,-0.1328894351510686,0.1336214918595917,-0.1695217050705149,-0.1997505605153861,-12.618517533654758,20.475299615818656,28.887743203598408,1.3414064424408323,1.5756948435768643,0.3366184961064619,3509.6832139756943,11.937111111111111,0.2,179.76052339845754,-11.036438701278737,108.72596180386716,1745.0,1435.0,1200.0,1528.0,1614.0,995.0,60.0,293.1,1649247899.6755512,1649247900.7866066,afefa74d-40ee-42ab-9a4b-0e243224ebd2
0.2836349643211325,0.5533147026624675,0.1450871577747174,-0.4816323658360678,-0.1388194973682391,0.0937677945367359,-0.1626580847449653,-0.1867070524304082,-12.36980159991152,20.651221363301964,27.086558803093016,1.439368295483957,1.9915967114933628,0.3067030591557356,3507.9278971354165,11.909777777777778,0.1955555555555556,179.4969615765849,-10.958278949331511,108.2814045224486,1849.0,1435.0,1200.0,1528.0,1686.0,995.0,60.0,293.1,1649247901.6994388,1649247902.8373363,2e693c5d-658c-4356-ab06-f7ab4bda0def
0.2897359589490811,0.581150489931858,0.1546462597378491,-0.4832628078171999,-0.1361897578467662,0.0715464974187781,-0.1622373266010113,-0.1857603460926044,-12.27148330890112,20.73365463647088,27.62801842593736,1.3942701937776063,2.0913111585120645,0.2936445232255654,3503.14892578125,11.909888888888888,0.1888888888888888,179.4270917770153,-10.976381322225503,108.00126355473064,1849.0,1435.0,1200.0,1528.0,1686.0,995.0,60.0,293.1,1649247902.9462955,1649247904.059665,2e693c5d-658c-4356-ab06-f7ab4bda0def
0.2880792233333709,0.5917483381061238,0.1474407745796866,-0.4439350403930053,-0.1383066974879211,0.0297730917019835,-0.1794358227961884,-0.2018937979802102,-12.220314205823808,20.47403451927484,28.22249928240992,1.2097266482343831,2.120125219174593,0.3334447048123382,3497.5897623697915,11.911666666666669,0.1966666666666666,179.33317819374744,-10.907333991268462,107.81517125624408,1849.0,1435.0,1200.0,1528.0,1686.0,995.0,60.0,293.1,1649247904.1676073,1649247905.3005726,2e693c5d-658c-4356-ab06-f7ab4bda0def
0.32771090843284,0.6714481412462379,0.1712793596152413,-0.5321506758859115,-0.1468685229685385,0.0182993373596494,-0.1705993929755069,-0.1909419448107115,-12.100270969390408,21.03856794879305,26.26449707264033,1.387614123472591,2.447934071878141,0.3059912780143884,3506.811577690972,11.871,0.19,179.0957729607563,-10.813816748699942,107.36126041021218,1962.0,1435.0,1200.0,1528.0,1760.0,995.0,60.0,293.1,1649247907.2245004,1649247908.391196,890e3068-1d67-41ff-9c6c-ed1b0b2bdb43
0.3602524122125889,0.6799234865898564,0.1690177843807014,-0.536067983430856,-0.150613878365504,0.0140472490932108,-0.1742815333708146,-0.1994744375875558,-12.08432114799536,20.968995795368663,26.30560865755044,1.3863363680651322,2.4795822627249806,0.3205068092181783,3495.687744140625,11.869,0.19,179.0224956557008,-10.8526950392293,107.06690354210168,1962.0,1435.0,1200.0,1528.0,1760.0,995.0,60.0,293.1,1649247908.5050085,1649247909.601688,890e3068-1d67-41ff-9c6c-ed1b0b2bdb43
0.3502199576626362,0.6916784199025667,0.1786163322069513,-0.5198687819514958,-0.142487983375249,-0.0081608978904922,-0.1735057606326279,-0.1968052523209138,-12.138400112658267,21.116331256221773,26.94451431745475,1.3014195382557063,2.517007089493823,0.2976178505638345,3492.997504340278,11.868222222222222,0.19,178.96300774366964,-10.897368555541938,106.84588848638889,1962.0,1435.0,1200.0,1528.0,1760.0,995.0,60.0,293.1,1649247909.715952,1649247910.829693,890e3068-1d67-41ff-9c6c-ed1b0b2bdb43
-0.075508520355352,-0.0368382032042191,0.0138631703595751,-0.1600546434725266,-0.1116937347380609,0.3962798369429313,-0.161948055124215,-0.1804877184987906,-13.461754754553372,20.913930038755,29.483454898895744,1.38879255892311,-0.2832580954606761,0.3815388205030202,3491.735649956597,11.959555555555555,0.21,179.30553869490612,-10.845876802890334,106.47023339440751,1459.0,1435.0,1200.0,1528.0,1394.0,995.0,60.0,293.1,1649247912.7600057,1649247913.8934,349b607b-d3c7-4dad-abea-183937438465
-0.0658968230385199,-0.0262009076720516,0.0177420359722229,-0.1486021281553192,-0.1091428872458809,0.3805145513263319,-0.1639861031147459,-0.1825783612054574,-13.429473442462143,20.971533678350628,30.22892417661651,1.3282418732555796,-0.2513604978335045,0.3781167820499593,3514.328314887153,11.961222222222222,0.21,179.22322429066875,-10.82514253043616,106.4491986884936,1459.0,1435.0,1200.0,1528.0,1394.0,995.0,60.0,293.1,1649247914.0022657,1649247915.331005,349b607b-d3c7-4dad-abea-183937438465
-0.0678691275127104,-0.0218223916989337,0.0176368463731143,-0.1497723620527496,-0.1091954820542877,0.3793574661685325,-0.1629342073647056,-0.1800275141081782,-13.33667893100728,20.805934391450148,30.52609260168581,1.327272574711867,-0.2380943698879266,0.377905656145257,3542.2397189670137,11.963555555555557,0.21,179.18150549521832,-10.8140664300596,106.41617700058632,1459.0,1435.0,1200.0,1528.0,1394.0,995.0,60.0,293.1,1649247915.439468,1649247916.559795,349b607b-d3c7-4dad-abea-183937438465
-0.117689540217669,-0.0787430998233864,-0.0516173383575754,-0.1505481353704569,-0.1757936333168002,0.4239972864001805,-0.2276652452916852,-0.2446270655436518,-13.501924570829472,21.98420358110653,28.31413843056238,1.433260879760998,-0.4350824198779536,0.6445659046673744,3566.968994140625,11.93422222222222,0.2,179.10242101154847,-10.758994709645526,106.40915253047991,1364.0,1435.0,1200.0,1528.0,1312.0,995.0,60.0,293.1,1649247918.6959794,1649247919.8344924,b9182ce0-3ab8-4613-b6a4-539462448cae
-0.130627858228335,-0.0893803958685975,-0.0524062601815277,-0.1404367868991811,-0.1727825816702832,0.427402798446408,-0.2269683643920034,-0.2576968712008661,-13.58909878449482,21.98047668194165,28.640173494641548,1.4180488966744285,-0.4785463904244433,0.6397498744509648,3569.610053168403,11.932222222222222,0.2,179.0462343576161,-10.74630867676335,106.33883952752416,1364.0,1435.0,1200.0,1528.0,1312.0,995.0,60.0,293.1,1649247919.9430764,1649247921.0611212,b9182ce0-3ab8-4613-b6a4-539462448cae
-0.146800756079814,-0.1334548289913802,-0.0424001020984788,-0.110010701951685,-0.1504955400235168,0.4447459273501548,-0.2073505076379709,-0.2352125983241605,-13.63787062643932,21.96128728569683,29.063722134425625,1.3888014264467077,-0.6503731081356708,0.5633278893069399,3569.445068359375,11.933666666666666,0.2,179.03065090156977,-10.755303656445305,106.2884441150981,1364.0,1435.0,1200.0,1528.0,1312.0,995.0,60.0,293.1,1649247921.173446,1649247922.3077476,b9182ce0-3ab8-4613-b6a4-539462448cae
-0.1990142331328425,-0.2395516682428212,-0.0716559523093087,-0.0694338225262773,-0.1617245272475564,0.4995233912623985,-0.2191974839973288,-0.2373689841338138,-13.687719117325642,22.844991897207432,27.21674943307113,1.4244441312994534,-1.0384138340616915,0.6198842023428045,3570.6015896267363,11.90111111111111,0.1822222222222222,179.03434831064047,-10.769518987655392,106.14247766016555,1262.0,1435.0,1200.0,1528.0,1222.0,995.0,60.0,293.1,1649247924.2232056,1649247925.3770993,1e0762a0-9ab8-4d90-b531-b5020291eafd
-0.2048391061178308,-0.2323198843403112,-0.077796393582071,-0.0725106175348002,-0.1670103033855903,0.4952500653859197,-0.2258244273797091,-0.2585383878258784,-13.774750504888384,22.6225585055271,27.167825444563164,1.4199499942328735,-1.0102548729345964,0.6456985669078648,3570.105441623264,11.902,0.19,179.0208215004442,-10.7577057960309,105.99137338515736,1262.0,1435.0,1200.0,1528.0,1222.0,995.0,60.0,293.1,1649247925.4856565,1649247926.591615,1e0762a0-9ab8-4d90-b531-b5020291eafd
-0.2226818888416135,-0.2816669476982156,-0.0785458693457125,-0.0414402471099846,-0.1546505280162964,0.519456812974854,-0.2165151495549072,-0.2363170884302934,-13.902203263125989,22.71290201562405,27.834862734989425,1.4048623970914065,-1.2042176269031344,0.6117473119415525,3565.321044921875,11.895777777777775,0.19,179.0513069114397,-10.752849246939808,105.85106536249724,1262.0,1435.0,1200.0,1528.0,1222.0,995.0,60.0,293.1,1649247926.700515,1649247927.8218737,1e0762a0-9ab8-4d90-b531-b5020291eafd
-0.3214174848311812,-0.4038623539524947,-0.0996217133225934,0.0165546075210209,-0.1540118046833984,0.5840598915801162,-0.2194518605050556,-0.239453052677082,-14.11342988046221,23.852715487787822,27.48508199136973,1.425556399157077,-1.6663867601229598,0.6284012898193369,3568.453857421875,11.865555555555556,0.18,179.11002073536497,-10.730259155169897,105.5748289862548,1153.0,1435.0,1200.0,1528.0,1121.0,995.0,60.0,293.1,1649247929.6038878,1649247930.6835306,f9b9da8f-b272-46ce-9101-8869d48663a6
-0.2777749327263458,-0.3807555386701128,-0.094074480348581,0.0098265207562779,-0.1535986321459598,0.5680149436443811,-0.2195393499231249,-0.2448900392575466,-14.040393305093495,23.786145278186687,27.56335892100719,1.4045623298918395,-1.5797539478742992,0.6233273461415102,3567.46435546875,11.859333333333334,0.1733333333333333,179.0996221518086,-10.742301537586538,105.38501727031024,1153.0,1435.0,1200.0,1528.0,1121.0,995.0,60.0,293.1,1649247930.7917695,1649247931.920493,f9b9da8f-b272-46ce-9101-8869d48663a6
-0.3012645761042577,-0.4331055661127151,-0.0984459164278523,0.0343559196187716,-0.1431135576111217,0.5987004577210505,-0.2099190547900502,-0.2341556445679996,-14.185418640845583,23.672010211358376,27.866903526919284,1.4171855643469125,-1.781061389262739,0.5955620573906334,3560.712782118056,11.860777777777775,0.18,179.105148533757,-10.73614601932454,105.21069870013298,1153.0,1435.0,1200.0,1528.0,1121.0,995.0,60.0,293.1,1649247932.0294428,1649247933.14298,f9b9da8f-b272-46ce-9101-8869d48663a6
0.0344934751819108,0.149228997267151,0.0520864308223668,-0.2593667561005076,-0.121910272027402,0.3066320323694001,-0.163328668181176,-0.183696000496643,-13.12235682697875,20.71858084766234,29.79836993160732,1.4121950799033838,0.4240610597666188,0.3677223574742479,3559.071099175347,11.955555555555556,0.2055555555555555,178.85759212183945,-10.729944017830691,105.02908397010236,1553.0,1435.0,1200.0,1528.0,1471.0,995.0,60.0,293.1,1649247934.2587855,1649247935.3987503,bccf62c6-3ef1-4d6e-b430-c9573082e7d8
0.0420013807881863,0.1589195861400143,0.0611853284509144,-0.2577626154352726,-0.1140867974781235,0.2958369532103873,-0.1566754276253105,-0.1791202538465895,-13.071121035670629,20.62110222263794,29.88505024523347,1.384165022234848,0.4596534444668569,0.3365756262462145,3559.890923394097,11.956555555555555,0.2077777777777777,178.86008893543607,-10.734856062208792,105.18186847164635,1553.0,1435.0,1200.0,1528.0,1471.0,995.0,60.0,293.1,1649247935.5069902,1649247936.5592844,bccf62c6-3ef1-4d6e-b430-c9573082e7d8
0.0337571482255659,0.153370836515247,0.0525334861283265,-0.2497287630360536,-0.1197275889977622,0.2949954362095003,-0.1645777945534066,-0.1845638148777953,-13.079128772414537,20.54319151901004,29.98139318819897,1.3632156617432143,0.4365061103121369,0.3668645899072648,3559.562255859375,11.956333333333331,0.2,178.78933121127434,-10.711039192572956,105.34741024874012,1553.0,1435.0,1200.0,1528.0,1471.0,995.0,60.0,293.1,1649247936.6737263,1649247937.857932,bccf62c6-3ef1-4d6e-b430-c9573082e7d8
0.0556891735894116,0.1622725035982548,0.0437370082428342,-0.4509301465685634,-0.1497329159648087,0.4842446073998088,-0.1198985217259877,-0.1441710165140076,-13.017475444213847,19.996982143043063,31.92957273012293,2.2386275369839064,0.4763950244862552,0.3584377087485572,3564.3321668836807,11.944333333333333,0.2,178.7528929109622,-10.62407257573717,105.60783853160356,1553.0,1537.0,1200.0,1528.0,1471.0,995.0,60.0,293.1,1649247939.17498,1649247940.3182776,4f3da47e-e571-4156-9d8c-59b885428dcf
0.0510476838238988,0.1538836356616499,0.0472477102595228,-0.4632767772260432,-0.1466166745576009,0.5022846166884962,-0.1106681361451955,-0.1278140373095904,-12.99894293372737,20.0274188228358,31.75807763278379,2.3073753898519085,0.4480636679769173,0.3349009791207091,3563.838080512153,11.935666666666666,0.1822222222222222,178.72330149583811,-10.608354223454723,105.72275798220883,1553.0,1537.0,1200.0,1528.0,1471.0,995.0,60.0,293.1,1649247940.425996,1649247941.752408,4f3da47e-e571-4156-9d8c-59b885428dcf
0.0538615047744155,0.1688337027317372,0.0449203909729535,-0.4582013779667686,-0.1501668228763708,0.4862037628237186,-0.118807179735332,-0.1418568458263435,-13.050518637043412,19.95843717943722,32.17939996942097,2.2592587335283425,0.4999927801653163,0.3569370081640529,3562.521240234375,11.950333333333331,0.2,178.71955855217297,-10.61491594824486,105.8056385332374,1553.0,1537.0,1200.0,1528.0,1471.0,995.0,60.0,293.1,1649247941.860574,1649247942.9760869,4f3da47e-e571-4156-9d8c-59b885428dcf
0.0531909212663879,0.1519507773609641,0.0363605897470744,-0.6785341463755052,-0.1801327039532713,0.7124533579715602,-0.0622414856254257,-0.0864745339690935,-12.855231687815792,19.63196741712274,33.33535313598762,3.262380666504913,0.4516236658390327,0.3268082711259272,3559.562255859375,11.936111111111112,0.1922222222222222,178.7407336564198,-10.554386242637776,105.95230697983465,1553.0,1645.0,1200.0,1528.0,1471.0,995.0,60.0,293.1,1649247945.1157424,1649247946.2627552,67327991-4601-456c-a1e1-34d58a117124
0.0444207408845171,0.1499258781518143,0.0259073763262967,-0.6900129636298771,-0.1912696504506099,0.7247079417500407,-0.0705514617865165,-0.0937063171937012,-12.95234692072162,19.681868179443544,33.22050590562907,3.3155548572086446,0.44648576491582,0.3674616733746514,3560.712592230903,11.939222222222222,0.1922222222222222,178.72284766771324,-10.54784453409646,105.97240594983226,1553.0,1645.0,1200.0,1528.0,1471.0,995.0,60.0,293.1,1649247946.373863,1649247947.4906352,67327991-4601-456c-a1e1-34d58a117124
0.0704288620086602,0.173514638497431,0.0388588421389139,-0.6797306793714551,-0.1821970494090327,0.6946500249803281,-0.066856677963566,-0.0889201913150895,-12.82229441824825,19.64524718274676,33.6427942647695,3.225351302557805,0.529849210872397,0.3358355820489137,3559.562255859375,11.934,0.19,178.73375623872766,-10.5263118884193,105.98468055868068,1553.0,1645.0,1200.0,1528.0,1471.0,995.0,60.0,293.1,1649247947.5985005,1649247948.7117877,67327991-4601-456c-a1e1-34d58a117124
0.0566884745014683,0.159379790480251,0.0229620682645546,-0.8226570702181786,-0.2139906000337532,0.8459257614604865,-0.0449115030334847,-0.0747721933644591,-12.91677474983297,19.888684632768104,34.48959817300513,3.8886046511887766,0.4865920995260041,0.3676281954717456,3562.0279134114585,11.921,0.19,178.7608311085976,-10.445952720695594,106.01931872469152,1553.0,1761.0,1200.0,1528.0,1471.0,995.0,60.0,293.1,1649247950.6494448,1649247951.784365,b853f0bc-501c-4e54-b8be-0d965267d8c7
0.0628420643766023,0.1771436785324974,0.0206873434866541,-0.8219601864878067,-0.2181587374990969,0.8289113497283893,-0.0521958814978259,-0.0764552270363332,-12.898934077230894,19.73035191588395,34.60136077719189,3.847662920595598,0.5518679670956409,0.3891680855021785,3558.0849609375,11.924,0.19,178.7845591857742,-10.442534495607218,105.9858348606504,1553.0,1761.0,1200.0,1528.0,1471.0,995.0,60.0,293.1,1649247951.8977013,1649247953.2116516,b853f0bc-501c-4e54-b8be-0d965267d8c7
0.0612116260263389,0.1725810810672039,0.0221731464029983,-0.8281006330883551,-0.2174487076206365,0.8381548825549562,-0.0471599302862924,-0.071406127141749,-12.772365101817638,19.7501446712819,34.500320682094745,3.8825385130420966,0.535605692345427,0.3783375312063669,3555.4611002604165,11.927222222222222,0.19,178.78457284615257,-10.5208509624504,105.9457105349162,1553.0,1761.0,1200.0,1528.0,1471.0,995.0,60.0,293.1,1649247953.319966,1649247954.656701,b853f0bc-501c-4e54-b8be-0d965267d8c7
0.0673652158416612,0.1686496210374514,0.0214631165164858,-0.8500195208102403,-0.2255088596624777,0.8624799686462162,-0.0477779192420381,-0.0714324245868241,-12.856058636562448,20.4094577488811,34.528805863205505,3.9909415927807688,0.5238650793880334,0.3902066418493169,3552.1865234375,11.898,0.18,178.80418004252996,-10.452453353238152,105.88952691662352,1553.0,1887.0,1200.0,1528.0,1471.0,995.0,60.0,293.1,1649247955.7777927,1649247957.1075296,1571f55e-7812-42aa-85b4-8401819184d7
0.0755042587947344,0.1671243723623638,0.0177420354871815,-0.8404604144890803,-0.2264687145759489,0.8535783020510285,-0.0533398179509153,-0.0749036806014958,-12.9426741702623,20.32201503909924,34.26817600230846,3.948525258264299,0.5196531585923141,0.4040121808963942,3537.04296875,11.895333333333332,0.18,178.86820623580965,-10.494469546508704,105.7328810814687,1553.0,1887.0,1200.0,1528.0,1471.0,995.0,60.0,293.1,1649247957.2152855,1649247958.551159,1571f55e-7812-42aa-85b4-8401819184d7
0.0573590580740737,0.1554220331000787,0.0166243965406938,-0.8477184982325836,-0.2275863535261289,0.8699878735393013,-0.0505785913901297,-0.0742067994353879,-12.979306256452482,20.493575530619232,34.02539556820177,4.002796719128938,0.4789989838235686,0.4012084386619601,3518.1666666666665,11.891,0.18,178.87474955703453,-10.437066644585409,105.6397605590545,1553.0,1887.0,1200.0,1528.0,1471.0,995.0,60.0,293.1,1649247958.6639318,1649247959.7744167,1571f55e-7812-42aa-85b4-8401819184d7
0.0483916471456677,0.1971296960814776,0.0567016231459258,-0.0793610887902109,-0.111917262304914,0.0860889590369948,-0.2292825351811751,-0.2549619421244667,-13.114655947605447,21.52004726679564,28.437088684368405,0.515886366734501,0.5938719205694051,0.4468555329809087,3511.9205729166665,11.958,0.2,178.86963602207592,-10.676459652352476,105.52748818620752,1553.0,1335.0,1200.0,1528.0,1471.0,995.0,60.0,293.1,1649247960.6794522,1649247961.756713,50fecf89-bf10-4457-80ae-eedc500dcfe3
0.0401737120021296,0.1803782576095355,0.0448546476307192,-0.105579590659169,-0.1249870674145464,0.1245620433454866,-0.2319911668789033,-0.2503204518267643,-13.21063787925327,21.742657562151315,28.08291400079712,0.6622640787368463,0.5373430183211734,0.4817474960436935,3507.13037109375,11.957666666666666,0.2,178.8235777797728,-10.686116401474012,105.6872918454886,1553.0,1335.0,1200.0,1528.0,1471.0,995.0,60.0,293.1,1649247961.8641045,1649247963.0464904,50fecf89-bf10-4457-80ae-eedc500dcfe3
0.0425273286654492,0.2125136699772966,0.0493383532313137,-0.0905637787276818,-0.1227123426671921,0.0801588969868128,-0.2383419878075571,-0.2582228188678455,-13.021595658209645,21.38881400140088,28.208421958630687,0.5266050398639548,0.6538494588601153,0.4860541621287284,3507.84912109375,11.958000000000002,0.195,178.83538945357748,-10.69424916463699,105.84202864277036,1553.0,1335.0,1200.0,1528.0,1471.0,995.0,60.0,293.1,1649247963.1545746,1649247964.4833536,50fecf89-bf10-4457-80ae-eedc500dcfe3
0.0271170565221996,0.1780772358852349,0.0748599725611991,0.1102957078080454,-0.0726552533383901,-0.0821091674006369,-0.2602214210189134,-0.2758815205217136,-13.372998419749464,22.22607889975449,26.644315998800604,-0.2847278362844003,0.5179436999183523,0.4090364070005111,3514.31982421875,11.958000000000002,0.2,178.79983604221783,-10.715743959682497,106.1507839291062,1553.0,1236.0,1200.0,1528.0,1471.0,995.0,60.0,293.1,1649247966.619836,1649247967.9607065,7ea6c6e7-74f1-48a9-9a67-8ee1b33ff872
-0.0018626703379898,0.1405508580438554,0.0705866461539996,0.1167385674108995,-0.0673037339771624,-0.0522090323668602,-0.2517931058726403,-0.277170092845445,-13.46644685768658,22.10006362626051,26.529292470564723,-0.2331852818645379,0.3778115257028613,0.3909122672586461,3520.0927734375,11.959444444444443,0.1988888888888889,178.83130803609342,-10.755711855111947,106.2425535918846,1553.0,1236.0,1200.0,1528.0,1471.0,995.0,60.0,293.1,1649247968.068534,1649247969.1963942,7ea6c6e7-74f1-48a9-9a67-8ee1b33ff872
0.0122064348834584,0.1495840121318103,0.0759250169863943,0.1177115726209449,-0.0645162099463866,-0.0589411629014148,-0.2487689052520739,-0.2720815466580932,-13.33904985539714,22.1217433374392,26.98884392698176,-0.2499612232129664,0.4069356621672078,0.3773628491922439,3521.217664930556,11.957111111111113,0.2,178.81248099910124,-10.79086769254365,106.3354851457318,1553.0,1236.0,1200.0,1528.0,1471.0,995.0,60.0,293.1,1649247969.3046186,1649247970.6316798,7ea6c6e7-74f1-48a9-9a67-8ee1b33ff872
0.033445625293274,0.1620879161198711,0.0921848967800264,0.2788584469574371,-0.0386067032202882,-0.2220436728821534,-0.2838804803285136,-0.3081802857454097,-13.33493254781041,22.91858987935023,26.557162711290875,-0.9739569227125112,0.4388334171243576,0.3718934749131243,3561.541259765625,11.949666666666666,0.19,178.79703566465813,-10.805840795296657,106.47425941146828,1553.0,1133.0,1200.0,1528.0,1471.0,995.0,60.0,293.1,1649247971.7381127,1649247972.882249,66879ce5-b071-4b61-9d31-db727d3b3af1
0.0242637894516287,0.1574600809142576,0.0896128094512767,0.2822412021748551,-0.0397835116423553,-0.2189739569046467,-0.2868080885760494,-0.3156037373902787,-13.472163174743674,22.99801543679268,26.77022886248809,-0.9743261936130874,0.4199809069351504,0.3808122954306071,3580.8809950086807,11.943888888888887,0.19,178.818819414651,-10.86364193519406,106.52926444267422,1553.0,1133.0,1200.0,1528.0,1471.0,995.0,60.0,293.1,1649247972.9903357,1649247974.3112097,66879ce5-b071-4b61-9d31-db727d3b3af1
-0.0121712483789945,0.1436276528855626,0.087114557294474,0.2793090431195818,-0.0397703628315713,-0.2055359877800927,-0.2843492819151787,-0.3097525668942134,-13.514217737318283,22.99800440816509,26.37030466233548,-0.9377244390920484,0.3721456972205839,0.3784060644576961,3590.5442165798613,11.945444444444444,0.19,178.80747674716935,-10.861117990568264,106.56857294025755,1553.0,1133.0,1200.0,1528.0,1471.0,995.0,60.0,293.1,1649247974.4232852,1649247975.547784,66879ce5-b071-4b61-9d31-db727d3b3af1
0.0030943881606652,0.1428781771561193,0.0962791984532418,0.3230416039593308,-0.0309870334777445,-0.2473094009270286,-0.2919492295004124,-0.3095947823998379,-13.54145988955285,23.63832084004769,26.05094624876173,-1.1256083664762406,0.3675654208149649,0.3643316324710688,3593.889404296875,11.94,0.19,178.80576009295794,-10.804545620675292,106.59233516838,1553.0,1026.0,1200.0,1528.0,1471.0,995.0,60.0,293.1,1649247976.1083982,1649247977.172181,cd2717fd-15fc-4e0f-90fa-0f09e0f9b501
-0.0067013906784883,0.1376581449116185,0.095805845322099,0.3131537848384131,-0.0315787248843591,-0.2369087812719964,-0.2878599844415913,-0.316655633324146,-13.463098812910127,23.576265060274263,25.52258457480725,-1.0804120120139784,0.3533017035762703,0.3585772956347844,3584.540228949653,11.93588888888889,0.1855555555555555,178.8344499231116,-10.864248209346638,106.5950270218229,1553.0,1026.0,1200.0,1528.0,1471.0,995.0,60.0,293.1,1649247977.2800283,1649247978.4142892,cd2717fd-15fc-4e0f-90fa-0f09e0f9b501
0.0193198795206825,0.1694253940664983,0.1014729334926217,0.3039759947450381,-0.0319468883449664,-0.2565397887267517,-0.2878731328421465,-0.3116722765677522,-13.30333599744215,23.34634389942452,25.97873091624453,-1.104911520161759,0.4687599730440589,0.3559854158971335,3566.1460232204863,11.934888888888889,0.19,178.8674609862802,-10.860192594799464,106.58906730231712,1553.0,1026.0,1200.0,1528.0,1471.0,995.0,60.0,293.1,1649247978.5266144,1649247979.6402938,cd2717fd-15fc-4e0f-90fa-0f09e0f9b501
0.0338623377220346,0.151687803315686,0.04856257991142,-0.262509296970733,-0.1244611198297981,0.3100769900487294,-0.1649722555070895,-0.1859970226856912,-13.1457518305403,20.543739067927337,30.201302146016943,1.42574310380807,0.4300380389083202,0.3792338789089283,3558.0849609375,11.957,0.19,178.8658202230596,-10.720857684368587,106.57218383359876,1553.0,1435.0,1200.0,1528.0,1471.0,995.0,60.0,293.1,1649247980.7534206,1649247981.8984883,b4221534-faa1-4608-b932-3dd6b448ccd3
0.0377280544199015,0.1575915678534726,0.0543874525311206,-0.2586041323694721,-0.1191358971473513,0.2989794913644652,-0.1617639732972252,-0.1875485691409771,-13.115118654837472,20.4895190927074,29.99263827423861,1.3919092146668084,0.4537008509079067,0.3599708506436683,3565.4853515625,11.955,0.19,178.8561532286543,-10.69011519264184,106.58294365827126,1553.0,1435.0,1200.0,1528.0,1471.0,995.0,60.0,293.1,1649247982.012931,1649247983.1167088,b4221534-faa1-4608-b932-3dd6b448ccd3
0.0340332708025021,0.146612406873116,0.0545978316206186,-0.2535418846979993,-0.1167822804142931,0.304935850212183,-0.1592525724582231,-0.1872592976115721,-13.108459023723356,20.54726202809177,29.98252210166535,1.39426975789598,0.4119558912623059,0.3515852671750516,3566.3095974392363,11.959555555555555,0.1944444444444444,178.87924837496783,-10.688957190986308,106.60642812536749,1553.0,1435.0,1200.0,1528.0,1471.0,995.0,60.0,293.1,1649247983.225309,1649247984.3501816,b4221534-faa1-4608-b932-3dd6b448ccd3
0.0694295611674992,0.192475057785911,0.135409717728819,-0.2581833734684632,-0.0484879488167803,0.2638067311590487,-0.0847652030578837,-0.1069602034667642,-12.359313074084673,20.23522540257012,30.51366071647508,1.3147343287028508,0.5796481947706507,0.0492660536356344,3562.521240234375,11.95722222222222,0.1944444444444444,178.86789204710783,-10.66481380036265,106.60976353441217,1553.0,1435.0,1200.0,1435.0,1471.0,995.0,60.0,293.1,1649247985.1442506,1649247986.399171,3e6a0abf-e182-4ca2-a1a2-323252db51ec
0.0667209297082572,0.1798786072372833,0.1326879372536294,-0.2608525612351067,-0.0503813617265519,0.2777180504561146,-0.0863956421269247,-0.1140736489816223,-12.592949874268683,20.51770683424096,30.36847526042086,1.3536122811075364,0.5355051239830297,0.0558447644504415,3564.002685546875,11.961,0.19,178.8483668130005,-10.705520684314804,106.63073449189385,1553.0,1435.0,1200.0,1435.0,1471.0,995.0,60.0,293.1,1649247986.507687,1649247987.6210473,3e6a0abf-e182-4ca2-a1a2-323252db51ec
0.0695216020194255,0.1877678246313411,0.1284014627457122,-0.2553958526203455,-0.0545232007286948,0.2661209006135928,-0.0920758787224368,-0.1147047861208467,-12.424877582195222,20.32366141503652,30.49603456667325,1.3138480878617866,0.5618274883999428,0.0767960111455374,3565.4853515625,11.955444444444446,0.1944444444444444,178.8931379441,-10.685927907225668,106.65313675346157,1553.0,1435.0,1200.0,1435.0,1471.0,995.0,60.0,293.1,1649247987.7296607,1649247988.8548453,3e6a0abf-e182-4ca2-a1a2-323252db51ec
0.1047469588967359,0.1948418229914185,0.248041445267188,-0.271437262104149,0.053414448742145,0.2642143403287889,0.0354796272109836,0.0094715056204428,-11.49291447432708,20.353613006336342,30.057100614614363,1.3523042649430983,0.5952134237204942,-0.4141776212371328,3561.534586588541,11.953666666666669,0.19,178.86135783280184,-10.686605613773317,106.64045612781248,1553.0,1435.0,1200.0,1330.0,1471.0,995.0,60.0,293.1,1649247989.7665527,1649247990.8989356,f9a70a05-4f72-45e5-8687-36952dac2890
0.0787914328674252,0.1827844690517157,0.2401259306016736,-0.2631930284542607,0.0483522007534233,0.2679485698649149,0.0266700005962246,0.0064473056930289,-11.703607435352554,20.54892543418706,29.92215429436808,1.3428716472510829,0.5511647437798812,-0.3857543947058595,3561.041259765625,11.955,0.19,178.86541041170938,-10.638557604555736,106.64800196902551,1553.0,1435.0,1200.0,1330.0,1471.0,995.0,60.0,293.1,1649247991.0075228,1649247992.3328068,f9a70a05-4f72-45e5-8687-36952dac2890
0.0842481417649282,0.1775249907485551,0.2382588159353826,-0.2720421016773121,0.046340450335117,0.2815574699949835,0.028918427889654,0.0096161416204333,-11.691000609299817,20.554821196118382,29.96709135639474,1.393373627145152,0.531922243537799,-0.3843147271074669,3565.320610894097,11.949333333333334,0.19,178.88307176308322,-10.677018684363295,106.6308665422178,1553.0,1435.0,1200.0,1330.0,1471.0,995.0,60.0,293.1,1649247992.4473026,1649247993.7688313,f9a70a05-4f72-45e5-8687-36952dac2890
0.1383155797489695,0.2088714813279159,0.3568863460956819,-0.2551591737773358,0.1521480076021506,0.2313163041379372,0.1373031299710089,0.105180865358799,-10.906156490638663,20.74230896369084,30.268613309716656,1.2499841431131338,0.6467082092503605,-0.8396094071013465,3560.0552571614585,11.948666666666664,0.19,178.86437222295555,-10.676134933775684,106.6075232323644,1553.0,1435.0,1200.0,1210.0,1471.0,995.0,60.0,293.1,1649247994.6779966,1649247995.82595,eb812d63-d12a-4d0a-bf75-ae6eea240464
0.1362117884122373,0.2070964073496459,0.3585693790415165,-0.2495841251936983,0.1551722075769994,0.2272139111871114,0.1394200700796542,0.1083365526298338,-10.83201217863776,20.656175382735903,30.18329872104565,1.2277261112911064,0.639700795165726,-0.849235736188135,3562.85045030382,11.94811111111111,0.1922222222222222,178.85492834806317,-10.685959781441795,106.6152770148922,1553.0,1435.0,1200.0,1210.0,1471.0,995.0,60.0,293.1,1649247995.9343593,1649247997.0492432,eb812d63-d12a-4d0a-bf75-ae6eea240464
0.1247329768123055,0.195052202160726,0.3415944133956791,-0.2679002619007697,0.1388678246664837,0.253392964101134,0.1273232696625729,0.105904044002286,-11.123710569291225,20.80377105453861,29.717684164428743,1.3277827899930703,0.6019004917476147,-0.7892057878733472,3555.625325520833,11.952000000000002,0.2,178.85751471302885,-10.688933854506642,106.61097247789527,1553.0,1435.0,1200.0,1210.0,1471.0,995.0,60.0,293.1,1649247997.1627128,1649247998.2724802,eb812d63-d12a-4d0a-bf75-ae6eea240464
0.1688600001672422,0.2393633064138675,0.437382658006463,-0.2294929165199202,0.2212049572392922,0.174014288194412,0.2032832850856069,0.1847699217959441,-10.1551483131576,21.043378569020582,30.286026134200668,1.0697068938955787,0.7575493887688057,-1.132993734294939,3536.06689453125,11.94,0.19,178.84269623816954,-10.713809498327567,106.573687993036,1553.0,1435.0,1200.0,1071.0,1471.0,995.0,60.0,293.1,1649248000.2049515,1649248001.3393505,ba9c7145-8de4-48e6-a650-d1ac0cad947a
0.1847314874809041,0.2393744322713404,0.4230263059019226,-0.2682790459301577,0.1993594110855296,0.2026971565140532,0.1912299772951324,0.1590662444271678,-10.337860706687934,21.48926959959092,29.182377812336,1.2236262484392535,0.7725387666925284,-1.0687147903633218,3536.249328613281,11.94725,0.19,178.9289937810579,-10.678042192953608,106.53034778656756,1553.0,1435.0,1200.0,1071.0,1471.0,995.0,60.0,293.1,1649248001.451947,1649248002.576348,ba9c7145-8de4-48e6-a650-d1ac0cad947a
0.1900556976993996,0.2654897644097405,0.4077586478764666,-0.2927513013629996,0.1740405860069481,0.1994438660079077,0.1706087762584022,0.1458103360389375,-10.195709974444917,21.68553648266389,29.01277009561096,1.2721044508549466,0.8730327600751647,-0.9813329163597764,3530.241455078125,11.939,0.19,178.91874963566775,-10.701736190332188,106.51080775371702,1553.0,1435.0,1200.0,1071.0,1471.0,995.0,60.0,293.1,1649248002.6843636,1649248003.8026762,ba9c7145-8de4-48e6-a650-d1ac0cad947a
0.0359924265068143,0.2075303142237756,-0.0546678360859322,-0.27315974234504,-0.2394990732888118,0.2659236705692229,-0.2975637234948898,-0.3268721718117923,-13.63080169742278,21.11755212460303,29.39689332613708,1.34884079627149,0.6448206969374133,0.8703704565010199,3522.806701660156,11.9585,0.19,178.8980000901517,-10.715930106053314,106.53741020216935,1553.0,1435.0,1200.0,1613.0,1471.0,995.0,60.0,293.1,1649248004.7120054,1649248005.8470025,92ed8a4c-aa6b-4fa5-bf42-aceb2055a23f
0.0448152017648801,0.2209814299399561,-0.0508152682930436,-0.2835735090630433,-0.2407744973418669,0.2617555346941753,-0.2954204861918146,-0.3177601241572159,-13.448482713878375,21.14417341649588,29.3365803301766,1.3634158131584049,0.6960415440116715,0.8653724284591532,3520.0927734375,11.959222222222223,0.19,178.89565145371458,-10.681613978718635,106.54639531602253,1553.0,1435.0,1200.0,1613.0,1471.0,995.0,60.0,293.1,1649248005.955268,1649248007.2800162,92ed8a4c-aa6b-4fa5-bf42-aceb2055a23f
0.0372941474908818,0.2098707821500362,-0.0581127948462889,-0.2817984349884339,-0.2457841510178487,0.2694212243289168,-0.300219760887947,-0.3280687036421193,-13.486035077305054,21.18884056118723,29.06433589487905,1.3765079446465496,0.6563681251832203,0.8872188386402796,3518.64794921875,11.957333333333333,0.1977777777777777,178.8709534896758,-10.706382521378824,106.57023722968532,1553.0,1435.0,1200.0,1613.0,1471.0,995.0,60.0,293.1,1649248007.3881805,1649248008.5124178,92ed8a4c-aa6b-4fa5-bf42-aceb2055a23f
0.0007635289266388,0.1904587557953403,-0.1302556490315631,-0.2496559370523078,-0.3053988304591289,0.2655327504070359,-0.3763512302199281,-0.4040519984224416,-13.990208713367016,21.154019872305067,29.44727179312829,1.291248615140509,0.5752041975174854,1.1732846083155732,3521.0577256944443,11.953888888888889,0.19,178.91393207557314,-10.675883829459949,106.57715848804423,1553.0,1435.0,1200.0,1694.0,1471.0,995.0,60.0,293.1,1649248009.103213,1649248010.1650212,4c748ecb-ddb0-46f8-b85e-ace7d7bf12bf
0.0153408818178048,0.173213735619147,-0.1289913514938557,-0.2862194319477218,-0.3086733622898769,0.3096188090900608,-0.3660092733378098,-0.3964409248650027,-14.125190086333076,21.594639530768777,28.56669409919916,1.4755697210114698,0.5238741610003137,1.1573720665645657,3522.986572265625,11.954444444444444,0.19,178.86376813066897,-10.761328357611946,106.57303305378557,1553.0,1435.0,1200.0,1694.0,1471.0,995.0,60.0,293.1,1649248010.2777617,1649248011.381198,4c748ecb-ddb0-46f8-b85e-ace7d7bf12bf
0.0186659848804913,0.2235074967543848,-0.1134025593427886,-0.2941086534715239,-0.3022001566505162,0.2651028881656022,-0.3616853744683506,-0.381598066789682,-13.808010382449114,21.20213283538704,28.290945527324883,1.3916226014548303,0.7146582979428584,1.1271601373519502,3518.64794921875,11.956,0.19,178.85814764389195,-10.748952149699624,106.57503429921238,1553.0,1435.0,1200.0,1694.0,1471.0,995.0,60.0,293.1,1649248011.488394,1649248012.6168506,4c748ecb-ddb0-46f8-b85e-ace7d7bf12bf
-0.0354312927719289,0.1495971606907561,-0.1987775565383245,-0.2435488729611931,-0.3644380035112467,0.2920501291678271,-0.4450395276816338,-0.4676289935157068,-14.833862069241569,21.7247924853584,27.795118362743903,1.3367444161897737,0.4374763835331225,1.4368533295026251,3445.2775065104165,11.95188888888889,0.1944444444444444,178.89158066096925,-10.72266796908986,106.57995886560396,1553.0,1435.0,1200.0,1774.0,1471.0,995.0,60.0,293.1,1649248014.7490566,1649248015.8899872,6526246b-3800-4f0a-854a-3ed2e6584f74
-0.0191137602904126,0.1695305835400508,-0.1966211703633895,-0.2455474756043303,-0.3667127284674693,0.2769291287664402,-0.4474851863447956,-0.4776220052063207,-14.64185352295439,21.65505622284239,28.158928263127404,1.3070735963404545,0.5080370028470557,1.4435647335580883,3417.9369845920137,11.949333333333335,0.1922222222222222,178.83985791511446,-10.699980357396802,106.5623529146534,1553.0,1435.0,1200.0,1774.0,1471.0,995.0,60.0,293.1,1649248015.9978445,1649248017.201656,6526246b-3800-4f0a-854a-3ed2e6584f74
-0.0107117431312561,0.1940003065035723,-0.2046155783947646,-0.2281648958397491,-0.3768635237753744,0.2377197194731868,-0.4676026959287472,-0.4859582806885513,-14.541704572206648,21.578611313271576,28.160999793674225,1.178899889096233,0.5964378849297114,1.500148372800885,3415.0624186197915,11.952444444444446,0.1955555555555555,178.87072126324404,-10.71083675335506,106.54114290055078,1553.0,1435.0,1200.0,1774.0,1471.0,995.0,60.0,293.1,1649248017.3098,1649248018.2570517,6526246b-3800-4f0a-854a-3ed2e6584f74
-0.0384949390135458,0.1531736059947679,-0.242746801868074,-0.2241939906289077,-0.4072107208871574,0.2726821004270594,-0.5006979727713656,-0.5259829224340016,-15.09566900856451,22.06300674297682,27.68742375126436,1.2494657311995794,0.4485330475765234,1.6344206693403778,3410.834228515625,11.94,0.19,178.88337380922653,-10.68777158398288,106.4957335262188,1553.0,1435.0,1200.0,1856.0,1471.0,995.0,60.0,293.1,1649248019.2523022,1649248020.5960052,7504004c-0ce6-4e3b-b440-334cfd1df98f
-0.0272002086242295,0.1748295080384626,-0.2434436826136037,-0.2042474154204453,-0.4069740440577644,0.2352346156793425,-0.5111906348511103,-0.5414457931308744,-15.1018672196481,21.779444671415533,27.95172451727384,1.1184461899780118,0.5249523874179977,1.6532676245296174,3401.359619140625,11.937666666666663,0.19,178.84234713961197,-10.706348560160452,106.45022852923846,1553.0,1435.0,1200.0,1856.0,1471.0,995.0,60.0,293.1,1649248020.704008,1649248021.8268826,7504004c-0ce6-4e3b-b440-334cfd1df98f
-0.0468443614900793,0.1532787955227401,-0.2557771621027724,-0.2198943668084467,-0.4185580487688169,0.2708412829419209,-0.5147276361589012,-0.5445883329870661,-15.16902994624552,22.015684200643268,27.899879008611496,1.2346646773680732,0.44620758372108,1.6879314026321928,3402.7099609375,11.936555555555556,0.19,178.9035805444311,-10.6317885076333,106.37398919881288,1553.0,1435.0,1200.0,1856.0,1471.0,995.0,60.0,293.1,1649248021.934808,1649248023.057721,7504004c-0ce6-4e3b-b440-334cfd1df98f
0.0646960305637759,0.1959068673885347,-0.0162999392825129,-0.2365537651109725,-0.1572671189248231,0.2623209288613567,-0.2072190203649883,-0.2322804381317603,-12.61975888941624,16.281429890443984,32.604031047692324,1.2290422344970244,0.5634883344374004,0.583566080080963,7199.521755642361,11.62788888888889,8.05777777777778,-178.96243400777934,-10.862693392673073,93.27579006899278,1553.0,1435.0,1350.0,1528.0,1471.0,995.0,60.0,293.1,1649248027.1954975,1649248028.172433,7a1f6d03-d737-42d1-9b93-d412f11feb81
0.0381882588513573,0.185756074242602,-0.0143013378434526,-0.2534498419847384,-0.1595681415551963,0.2880134797650382,-0.1994875868223587,-0.2204466104527432,-12.42452939473988,16.627830338680518,32.662964393954255,1.327393752071252,0.5257254214831955,0.5716690147196072,7212.308539496527,11.627555555555556,8.023333333333333,-178.33815016418072,-10.691903943294475,87.78352946890834,1553.0,1435.0,1350.0,1528.0,1471.0,995.0,60.0,293.1,1649248028.2803276,1649248029.405852,7a1f6d03-d737-42d1-9b93-d412f11feb81
0.0525992300176684,0.1976950900240795,-0.0266085177133482,-0.2495709766476897,-0.170126545259744,0.2657527381513582,-0.2152528748832539,-0.2345946089711501,-12.409109392474608,16.245226020163198,31.56627265914329,1.2653049208764378,0.578850532073296,0.6253720510901768,7227.17236328125,11.625,8.04,-178.0494395857841,-10.588102048519469,82.86812387882595,1553.0,1435.0,1350.0,1528.0,1471.0,995.0,60.0,293.1,1649248029.5140316,1649248030.6381752,7a1f6d03-d737-42d1-9b93-d412f11feb81
0.1495971607752569,0.3785948420593639,0.0065393464869101,-0.3592574191552508,-0.1882060038554519,0.1941317922927423,-0.2188819158726616,-0.2435751697886252,-12.00386977841855,16.3122365541944,32.334045334452846,1.3542099714795846,1.263268935200759,0.6322456354831278,7229.205078125,11.624333333333334,8.04,-178.0988446207805,-10.42285558224355,75.93079636149238,1647.0,1435.0,1350.0,1528.0,1543.0,995.0,60.0,293.1,1649248031.7477045,1649248032.8867395,489b64ca-7d0a-4bf9-8f71-87cf46e0015e
0.1531341599751859,0.3697720675528286,0.0337965939353179,-0.3244922581016895,-0.1604885499792505,0.1861373860900677,-0.201025984314294,-0.2201310416231652,-12.266996417168292,17.025545099959125,34.684672040066744,1.264151877207088,1.2086666930290364,0.533991644123996,7233.2705078125,11.625,8.05,-178.25733688374095,-10.391329421173278,72.54130132549523,1647.0,1435.0,1350.0,1528.0,1543.0,995.0,60.0,293.1,1649248032.9944804,1649248034.1206172,489b64ca-7d0a-4bf9-8f71-87cf46e0015e
0.1551590591643601,0.3825394506102315,-0.0079242196959482,-0.3620317929770693,-0.2018017570583963,0.1791817257739604,-0.2334375238237166,-0.260747369133429,-11.820753876551684,16.003271717807053,30.28728898913389,1.3238710402841198,1.2943273480672528,0.6890241249360879,7233.2705078125,11.613666666666669,8.033333333333333,-178.5205222862993,-10.35766256498064,69.58033235802463,1647.0,1435.0,1350.0,1528.0,1543.0,995.0,60.0,293.1,1649248034.235651,1649248035.3842933,489b64ca-7d0a-4bf9-8f71-87cf46e0015e
0.2501057907786665,0.5153938661971733,0.0307197991764455,-0.4409108374283738,-0.2029062477162458,0.1178825055192746,-0.2264292678940279,-0.2474145896395498,-11.636720871429294,16.32631568980624,29.92387725341944,1.368155725632476,1.8066975520449,0.6427415008518851,7235.30712890625,11.617666666666668,8.056666666666667,-178.9666064944523,-10.366665892671575,66.31730282796973,1745.0,1435.0,1350.0,1528.0,1614.0,995.0,60.0,293.1,1649248036.2504978,1649248037.384082,5fcd1014-2c15-484b-805c-062687fb33ff
0.2405203916621634,0.5198644225107545,0.0319031815914962,-0.4174009623358302,-0.1988301517151046,0.1084154448699867,-0.2320569107923841,-0.2502415596842127,-11.957259979260463,16.44245450305629,32.26011171687986,1.2948893388629488,1.8022099871414905,0.6473594956905998,7239.38037109375,11.616,8.05,-179.24633461518044,-10.40541839388372,64.2742179390302,1745.0,1435.0,1350.0,1528.0,1614.0,995.0,60.0,293.1,1649248037.49224,1649248038.6268597,5fcd1014-2c15-484b-805c-062687fb33ff
0.2386532769307922,0.5192464338513801,0.0223046333082125,-0.4257766838102973,-0.2051020803552613,0.0935968643006651,-0.2348970293030459,-0.2514380908920078,-11.515143985436346,15.69568471526003,28.931776096276177,1.2747472085137563,1.826671989330216,0.6688028215167442,7236.664876302083,11.616666666666667,8.059999999999999,-179.5236418133028,-10.41423161464276,62.74926512924859,1745.0,1435.0,1350.0,1528.0,1614.0,995.0,60.0,293.1,1649248038.7352536,1649248039.8481848,5fcd1014-2c15-484b-805c-062687fb33ff
0.3182554793412611,0.6518773202212549,0.0555839838145212,-0.4590428927483403,-0.2062986117249061,0.0125745980439502,-0.2457841509137298,-0.2699909036591658,-11.78185664373619,16.374775938574142,31.611112243196736,1.1741714876201632,2.3084763227356864,0.6596404707905374,7239.38037109375,11.591666666666669,8.046666666666667,59.97236672427024,-10.475864964983234,60.56082394894241,1849.0,1435.0,1350.0,1528.0,1686.0,995.0,60.0,293.1,1649248040.7565975,1649248042.1076832,f62d8eab-03d3-4021-a9e2-03872bb42751
0.3047649178556424,0.6498655698922979,0.0582531692047258,-0.4708898716729199,-0.2057200689406834,0.0220942537097066,-0.240695604794366,-0.2634560007567583,-11.749369682748156,16.457311300363198,31.162335973473688,1.2229121669875989,2.3063078224447606,0.6469776637525939,7239.38037109375,11.592,8.04,179.68721877264534,-10.52027143987207,59.32195968382606,1849.0,1435.0,1350.0,1528.0,1686.0,995.0,60.0,293.1,1649248042.215448,1649248043.4233434,f62d8eab-03d3-4021-a9e2-03872bb42751
0.3012542162151897,0.6460655970478186,0.0337702967444112,-0.4867209058949779,-0.2256797919206944,0.0145994971362076,-0.2538837488447841,-0.2765915501244158,-11.186688100398602,15.509918908938166,27.36089407548464,1.2339591883655678,2.322146164072352,0.72113560572365,7238.022623697917,11.592,8.063333333333333,179.4460660425296,-10.512572583448865,58.40703459502543,1849.0,1435.0,1350.0,1528.0,1686.0,995.0,60.0,293.1,1649248043.534443,1649248044.7663424,f62d8eab-03d3-4021-a9e2-03872bb42751
0.3616699427212918,0.7679899055380456,0.0799717809995925,-0.5342241232487003,-0.2184909944181095,-0.0490877315510798,-0.2488341430320543,-0.2730833761424104,-11.350170393251108,16.621255534596976,29.255361849937632,1.2078885083661672,2.772599355755353,0.6576148129001125,7233.2705078125,11.538555555555554,8.026666666666666,179.10192164882918,-10.64695029436213,57.271981616194175,1962.0,1435.0,1350.0,1528.0,1760.0,995.0,60.0,293.1,1649248045.6730926,1649248046.814564,3cdcddcb-ad8f-4fd0-ae0d-d32a86ca630d
0.3818820159032015,0.7590260355853861,0.0839720189708525,-0.5270216697622586,-0.2134383543688107,-0.0480145955257414,-0.2436672104414071,-0.2708324205348554,-11.242451117416795,16.71534887345763,29.13583425807849,1.1949111288547505,2.738644766255712,0.636770211224414,7228.527506510417,11.539444444444444,8.037777777777778,178.92532634892856,-10.633591582710444,56.63536320986444,1962.0,1435.0,1350.0,1528.0,1760.0,995.0,60.0,293.1,1649248046.922526,1649248048.0446718,3cdcddcb-ad8f-4fd0-ae0d-d32a86ca630d
0.3576115473455509,0.7634763631272866,0.0850289716930194,-0.5304944446306692,-0.2132062294420427,-0.0437018237605534,-0.2412357131049897,-0.2577600859656122,-11.186088508373263,16.63917992053566,29.92778086533632,1.2121385404983591,2.7484115631320623,0.6332470598762168,7233.2705078125,11.543888888888889,8.04,178.7749468328823,-10.602896333125454,56.03902774143961,1962.0,1435.0,1350.0,1528.0,1760.0,995.0,60.0,293.1,1649248048.1527717,1649248049.451888,3cdcddcb-ad8f-4fd0-ae0d-d32a86ca630d
-0.0628594741608661,0.0148493226394824,-0.1055138468908459,-0.2333323348846313,-0.2100854364291308,0.3959642681355063,-0.241037470993321,-0.2705168519021919,-12.591510761153554,16.26939101125838,26.334779561522296,1.5165827051392538,-0.0662757732009836,0.7945679156212292,7227.17236328125,11.625,8.08,178.92442779959777,-10.656432114749922,55.07154207024601,1459.0,1435.0,1350.0,1528.0,1394.0,995.0,60.0,293.1,1649248051.1043637,1649248052.137792,c08f9219-8cd8-41e9-a566-d4ff3535f723
-0.0627542845082115,0.0022002767613454,-0.0507626736113379,-0.2102432217078386,-0.158884409029537,0.4197765551028885,-0.1892841974365756,-0.2180666960460648,-12.781168937084404,17.261800641135157,31.3765561863147,1.5280219764504108,-0.1564151718561118,0.581755712191288,7233.2705078125,11.623222222222225,8.074444444444444,178.74811026072337,-10.657965207627374,54.775264780613874,1459.0,1435.0,1350.0,1528.0,1394.0,995.0,60.0,293.1,1649248052.245797,1649248053.365104,c08f9219-8cd8-41e9-a566-d4ff3535f723
-0.0732600932421085,-0.0181933513836773,-0.0540761446659497,-0.1418568456884602,-0.1433689457695181,0.3814481089651382,-0.195661315123704,-0.218014101114929,-12.937325838525176,16.629696271777433,32.01008927371023,1.2832970291966632,-0.2460540273307318,0.573395125581282,7240.060329861111,11.622333333333334,8.06,178.62820097747448,-10.662319642950736,54.48558203862538,1459.0,1435.0,1350.0,1528.0,1394.0,995.0,60.0,293.1,1649248053.4735596,1649248054.793042,c08f9219-8cd8-41e9-a566-d4ff3535f723
-0.1874302305232894,-0.2122418226992176,-0.072444874057031,-0.0568768172002351,-0.1216998928568138,0.4973407078856919,-0.1728351763729455,-0.1998163035241588,-13.12265766630776,17.60106392342448,32.58654020562414,1.357552320881849,-0.9892619783471744,0.5139701210158993,7245.5,11.601333333333336,8.042222222222222,178.5113227803972,-10.695969044215497,54.12680624135791,1364.0,1435.0,1350.0,1528.0,1312.0,995.0,60.0,293.1,1649248055.7066767,1649248056.847021,f600fcef-e40c-4c7e-a071-94c544b76d40
-0.1821707514915135,-0.2106113842006625,-0.0933381534987911,-0.0651867935938518,-0.1374257347156217,0.4895303829978263,-0.1884163829011931,-0.2076397787605993,-13.048982627899331,16.867173120013046,30.484804979972097,1.3525434095530875,-0.9653545030642622,0.5835662775198888,7245.5,11.603555555555554,8.05777777777778,178.4164863626815,-10.68966297720054,53.89170050538736,1364.0,1435.0,1350.0,1528.0,1312.0,995.0,60.0,293.1,1649248056.955381,1649248058.2788324,f600fcef-e40c-4c7e-a071-94c544b76d40
-0.192360992014502,-0.2082183212349345,-0.0886046225713985,-0.0740490152166334,-0.134572467376139,0.4960389870678945,-0.1835776621892299,-0.2041422251432321,-13.158366945592102,16.95791334616918,30.61954205142336,1.387963755415068,-0.9554062892437204,0.5666265475383474,7245.5,11.604555555555557,8.045555555555556,178.3795031650556,-10.668509691613536,53.76236556108382,1364.0,1435.0,1350.0,1528.0,1312.0,995.0,60.0,293.1,1649248058.3874474,1649248059.516565,f600fcef-e40c-4c7e-a071-94c544b76d40
-0.3013636970333267,-0.4087096720317414,-0.1083934114863678,0.0261440529629491,-0.1131926858692005,0.6029641749335928,-0.1665895451630578,-0.1909146354653661,-13.408027818701386,18.18674309308311,30.98466367392248,1.4093211559192855,-1.7224093526647508,0.5167484223862915,7249.586588541667,11.554,8.029999999999998,178.34013699031928,-10.686062329143084,53.489614478592834,1262.0,1435.0,1350.0,1528.0,1222.0,995.0,60.0,293.1,1649248061.1061287,1649248062.182649,60ffd6d5-477d-45bb-83db-e245fe9d1afd
-0.3014162919265393,-0.4182030326874898,-0.1166507932617701,0.0092348289320009,-0.12141062159194,0.6128651422163373,-0.1722171876103542,-0.1960689250222532,-13.592060975796812,18.25935801368863,28.804301824363048,1.4693430287397056,-1.73582854860039,0.5426791632358458,7245.5,11.556111111111113,8.04,178.31614633031458,-10.671673587019066,53.38541007697549,1262.0,1435.0,1350.0,1528.0,1222.0,995.0,60.0,293.1,1649248062.2924569,1649248063.6038787,60ffd6d5-477d-45bb-83db-e245fe9d1afd
-0.3058079570815114,-0.4154286572189085,-0.1247503905636343,0.0018847080252587,-0.1287081483863154,0.6041475574683511,-0.1788704284692246,-0.2097698676300472,-13.484896560149298,17.94815403986418,26.936804616801822,1.4636234631665903,-1.7092436484320976,0.5709720781547053,7245.5,11.56,8.042222222222222,178.33034705250896,-10.656146574897122,53.32821521123066,1262.0,1435.0,1350.0,1528.0,1222.0,995.0,60.0,293.1,1649248063.7131832,1649248064.8410208,60ffd6d5-477d-45bb-83db-e245fe9d1afd
-0.3552996579645021,-0.5183303789373302,-0.1385696714209494,0.0781602951500549,-0.1330735159849743,0.655177642658238,-0.1920717208177471,-0.2211829371843371,-13.601891968660066,20.26201399339437,29.709868816848907,1.4212697405338,-2.129165186442015,0.6056482614103599,7245.5,11.492888888888888,7.9944444444444445,178.3483802697376,-10.623366884386677,53.245617733597705,1153.0,1435.0,1350.0,1528.0,1121.0,995.0,60.0,293.1,1649248066.599879,1649248067.6432931,54cd2408-c090-420d-be2b-66460e671e92
-0.3227040343738824,-0.3999789363299561,-0.1499169970656383,0.0172423852669476,-0.1723486746718991,0.5752861719673246,-0.2319385720058616,-0.2564740420360972,-13.345588903404837,19.88805281818525,26.67117113111904,1.3757593939131774,-1.6533828722393442,0.7412053100335197,7245.5,11.508555555555557,8.014444444444443,178.31306515608898,-10.641240256216,53.18572152803614,1153.0,1435.0,1350.0,1528.0,1121.0,995.0,60.0,293.1,1649248067.7523906,1649248068.9291737,54cd2408-c090-420d-be2b-66460e671e92
-0.2975222543969756,-0.3955559165164647,-0.1475765289422438,0.0152650238077622,-0.1719901198298886,0.5750454496744525,-0.2315638341757975,-0.2523615339816842,-13.382889994952844,20.00811976035795,27.00319443099308,1.3806255297426258,-1.6390786999643447,0.73790385737244,7239.38037109375,11.510333333333332,8.016666666666667,178.32465978166005,-10.61998594074752,53.17679409133598,1153.0,1435.0,1350.0,1528.0,1121.0,995.0,60.0,293.1,1649248069.037646,1649248070.3695776,54cd2408-c090-420d-be2b-66460e671e92
0.0640780418417063,0.2404677969100321,-0.0719057774666025,-0.3050847791853081,-0.2286645461470519,0.2459639515191505,-0.2632850675238788,-0.286650303937725,-11.867582341739542,15.821948698213166,27.08950097344916,1.3405599226421314,0.7790750617181036,0.8341627674332897,7245.5,11.62188888888889,8.06,178.08283921082543,-10.662102879308325,53.1966889145684,1553.0,1435.0,1350.0,1528.0,1471.0,995.0,60.0,293.1,1649248071.2721908,1649248072.4115822,5852f849-a12e-4fe5-9e1d-c0dece449786
0.0664448069617709,0.2421376811303737,-0.0654497673451205,-0.3056370246704067,-0.2229974575341441,0.2491853819676399,-0.2572366666181741,-0.2789188697004883,-11.930050279785384,15.893054499901082,27.75497905682485,1.349912108943964,0.7803606358346913,0.8100950449932227,7245.5,11.62377777777778,8.051111111111112,178.0752835037836,-10.631966566870412,53.27363554902805,1553.0,1435.0,1350.0,1528.0,1471.0,995.0,60.0,293.1,1649248072.5194347,1649248073.6355278,5852f849-a12e-4fe5-9e1d-c0dece449786
0.0812239415870359,0.2576794393513661,-0.034274207430762,-0.2746060970554705,-0.2010391324777332,0.2464373045380406,-0.2487163102548335,-0.2686628849858016,-12.67057368537889,17.43571843546192,33.72584519608164,1.2860965122807997,0.7891552406025127,0.7349831335119821,7245.5,11.619555555555555,8.055555555555555,178.13338412850337,-10.626580014072474,53.40254778051296,1553.0,1435.0,1350.0,1528.0,1471.0,995.0,60.0,293.1,1649248073.7445197,1649248074.8679574,5852f849-a12e-4fe5-9e1d-c0dece449786
0.0681015428592311,0.2317502117068657,-0.0557197318490356,-0.5346742131691339,-0.2381973522394068,0.5097925220964203,-0.1839326771337568,-0.2156867815673845,-12.382800765721806,16.090731669058425,33.68956222834473,2.454695952928536,0.7208272707351806,0.7178728320159433,7243.460123697917,11.610333333333331,8.06,178.18025592222764,-10.571443217133808,53.52457821695413,1553.0,1537.0,1350.0,1528.0,1471.0,995.0,60.0,293.1,1649248075.769584,1649248076.9195695,a84ffa4e-03b4-4210-9905-716d7980e90d
0.0710337021207259,0.2572586811131918,-0.0818593411250149,-0.5689528750560524,-0.269846268029765,0.5004043537727891,-0.2076660760930161,-0.2328721294641774,-11.991382427153091,15.51469115655161,31.23509947353875,2.5056093023582986,0.8380365745855184,0.8302365790274928,7245.5,11.609,8.06,178.2202899376828,-10.577879816652898,53.57308394370984,1553.0,1537.0,1350.0,1528.0,1471.0,995.0,60.0,293.1,1649248077.0291274,1649248078.1439483,a84ffa4e-03b4-4210-9905-716d7980e90d
0.0844059260686615,0.2659894149380124,-0.0854752326918928,-0.5729369308057527,-0.275421315827175,0.4938957497211628,-0.2134120569531002,-0.2444561322139041,-11.949877199710697,15.47719747902423,30.96876753555339,2.4995204941291336,0.873109522545565,0.8516301694432384,7245.5,11.606222222222222,8.038888888888888,178.18882097944683,-10.572739624983772,53.657178371135885,1553.0,1537.0,1350.0,1528.0,1471.0,995.0,60.0,293.1,1649248078.252359,1649248079.369043,a84ffa4e-03b4-4210-9905-716d7980e90d
0.0881927505124882,0.2360629838159516,-0.0867112104368322,-0.813124258614464,-0.2968668427276561,0.7796431894205534,-0.1392402550414893,-0.1634996016528644,-12.32905888570211,15.39072406606971,36.26059104452544,3.683454800785837,0.7461420473126091,0.7784265678894967,7239.38037109375,11.585888888888888,8.064444444444446,178.22780769922923,-10.535897489736984,53.81248662757824,1553.0,1645.0,1350.0,1528.0,1471.0,995.0,60.0,293.1,1649248080.2838795,1649248081.6243238,21385cba-e461-4d98-b652-58c8ed9fd6a9
0.0780288083924644,0.2265696256247197,-0.1083802629522141,-0.8180155752769407,-0.3135525405650438,0.7720037975781119,-0.1530069409899692,-0.1822233464008219,-11.924067921934984,14.754345637705278,33.08294665516299,3.671721402908241,0.7350508685817185,0.8451622522213151,7245.5,11.587333333333332,8.056666666666667,178.28979849613629,-10.50718764333448,53.84487652298729,1553.0,1645.0,1350.0,1528.0,1471.0,995.0,60.0,293.1,1649248081.7333386,1649248083.0639832,21385cba-e461-4d98-b652-58c8ed9fd6a9
0.0737160360881972,0.2101863508438257,-0.0989526473658797,-0.824274357750063,-0.30505848174602,0.7865068081976105,-0.1378596420738856,-0.1652220809520253,-11.703776028926264,14.95204399141096,32.1349666953312,3.720169658521149,0.6818179812844352,0.7958742517239107,7239.38037109375,11.597333333333331,8.056666666666667,178.31317595693548,-10.511424352758398,53.91983101893901,1553.0,1645.0,1350.0,1528.0,1471.0,995.0,60.0,293.1,1649248083.171976,1649248084.2969837,21385cba-e461-4d98-b652-58c8ed9fd6a9
0.090212592553237,0.2152642760140056,-0.0800756701601269,-1.0083865546071018,-0.3138949127238193,0.9822504219304836,-0.0781160087749018,-0.098496488620018,-12.0996438907049,15.670197298931203,36.86092586074462,4.58159845095978,0.6856561178553181,0.7022102701395572,7245.5,11.582,8.044444444444444,178.4527182394987,-10.432436914693,54.05186995924398,1553.0,1761.0,1350.0,1528.0,1471.0,995.0,60.0,293.1,1649248086.22392,1649248087.366557,b6aa5da9-5a04-49a7-8288-c92e1c260d23
0.0843138851358263,0.2383245593591634,-0.101148479977347,-1.021859929451079,-0.3420194730699343,0.9744148105779984,-0.1084854529788335,-0.1277088478521532,-12.291310326264677,15.963341538421004,36.994724587264834,4.595202270304053,0.7726448426971205,0.8150876384895689,7240.060329861111,11.589222222222222,8.06,178.4788232225065,-10.470103605554591,54.10169505087437,1553.0,1761.0,1350.0,1528.0,1471.0,995.0,60.0,293.1,1649248087.474995,1649248088.590896,b6aa5da9-5a04-49a7-8288-c92e1c260d23
0.0952141542826579,0.2494352072502385,-0.1156777898309105,-1.0402549666172751,-0.356522487103193,0.9757691261331174,-0.1174528638308628,-0.1459986851991967,-12.084265905162088,15.38522570717057,36.24269545282647,4.635168775997957,0.8208502708026473,0.8679184888679085,7245.5,11.582333333333334,8.03111111111111,178.41485015292034,-10.419955502894709,54.19196472822002,1553.0,1761.0,1350.0,1528.0,1471.0,995.0,60.0,293.1,1649248088.6992714,1649248089.779837,b6aa5da9-5a04-49a7-8288-c92e1c260d23
