raw_voltage_G-,raw_voltage_G0,raw_voltage_G1,raw_voltage_G2,raw_voltage_G3,raw_voltage_G4,raw_voltage_G5,raw_voltage_G6,load_x,load_y,load_z,load_l,load_m,load_n,rpm,voltage,current,roll,pitch,yaw,aileron1_pwm,elevator_pwm,throttle_pwm,rudder_pwm,aileron2_pwm,pbaro,pdiff,Tt,sample_start_time,sample_end_time,uid
-0.1133241728023569,0.0137053862606008,-0.2074425481320318,-0.182644104867843,-0.3124349009678848,0.3815270010840225,-0.4173746647565501,-0.4423045985481211,-17.577326435088754,20.315166015403925,29.662969007056887,1.3895653726604111,-0.0774094400248926,1.32383119594342,2963.749891493056,11.95022222222222,0.2377777777777777,-179.53665408258155,-11.25925626288626,114.20307228546255,1553.0,1435.0,1200.0,1528.0,1471.0,995.0,60.0,293.1,1649251589.609742,1649251590.5586455,0b89e7b3-57ee-4762-aaca-c5eb58676f6d
-0.103487303810275,0.0153851322748495,-0.2118955737396154,-0.1795306028669034,-0.3171673366606982,0.3767003342333968,-0.423562223434031,-0.4482160344910094,-17.54729504228645,20.347778222040347,29.57689575715399,1.3716917658549397,-0.0712241447021309,1.345273440880299,3263.0553385416665,11.952333333333334,0.2255555555555556,-179.404603758628,-11.211511248449362,113.26283755123752,1553.0,1435.0,1200.0,1528.0,1471.0,995.0,60.0,293.1,1649251590.6678336,1649251591.7158232,0b89e7b3-57ee-4762-aaca-c5eb58676f6d
-0.1059800776225572,0.0049346579285923,-0.2151416584239619,-0.1696964727970723,-0.3154415699573563,0.3811106257701833,-0.4243155341608753,-0.4481201583195009,-17.665438981605423,20.232101709832648,30.02189851705052,1.3585018901899235,-0.1149461699687184,1.347834419094203,3309.5743001302085,11.954777777777776,0.2277777777777778,-179.3052169171052,-11.188157788175968,112.52475896151694,1553.0,1435.0,1200.0,1528.0,1471.0,995.0,60.0,293.1,1649251591.8247235,1649251593.0520012,0b89e7b3-57ee-4762-aaca-c5eb58676f6d
-0.0298167991948715,0.1564476313796034,-0.1863520373351801,-0.2677687736707179,-0.3251102461530172,0.3261578452255015,-0.4185580476543762,-0.4468014535561053,-17.255110804661573,19.660004742252045,30.613376672630874,1.4541846026095095,0.4590633470972343,1.3323918066573075,3324.2625325520835,11.955,0.23,-179.30943645619246,-11.029806777322127,111.16487892250612,1647.0,1435.0,1200.0,1528.0,1543.0,995.0,60.0,293.1,1649251594.1647787,1649251595.3111856,62a2b1e9-9170-4b48-bde8-aa79d0e3d784
-0.0199815741450261,0.1555009253033811,-0.1910592710004837,-0.2603792055360365,-0.3276084988255061,0.3220817496533334,-0.4261185495729418,-0.4464201411304219,-17.496868159829845,19.692658702895155,30.82292990729432,1.4282498040950131,0.4541587840885095,1.353038867277847,3327.4169921875,11.957777777777778,0.23,-179.35023089937522,-11.017206596123271,110.60512291163624,1647.0,1435.0,1200.0,1528.0,1543.0,995.0,60.0,293.1,1649251595.442793,1649251596.526369,62a2b1e9-9170-4b48-bde8-aa79d0e3d784
-0.0257319374587748,0.1573225675428571,-0.1919944721487224,-0.2632302813103465,-0.3304256074770166,0.3240918564947981,-0.426000211348986,-0.457324247999242,-17.30282446978315,19.716260139782985,30.984636719025456,1.4394314546463405,0.4584765950578083,1.3585316713459477,3328.710205078125,11.958333333333334,0.22,-179.3873780215412,-10.980298625441984,110.19514156561614,1647.0,1435.0,1200.0,1528.0,1543.0,995.0,60.0,293.1,1649251596.6353076,1649251597.6073978,62a2b1e9-9170-4b48-bde8-aa79d0e3d784
0.0464850862879045,0.2953110059107426,-0.1714677118024741,-0.3633861074383752,-0.3462796505391135,0.2801768574031864,-0.4273413785088691,-0.4566892751297642,-17.149732762165407,19.3386884928838,30.92892685064984,1.565262903039746,0.9890535546009308,1.3700566424405791,3337.49609375,11.950666666666669,0.2155555555555555,-179.61696192902275,-10.857605376060109,109.29029783603043,1745.0,1435.0,1200.0,1528.0,1614.0,995.0,60.0,293.1,1649251599.6956556,1649251600.831299,3a8edda0-21d0-41a5-92b8-42d7b4a5db0f
0.0571355302163994,0.2906432190334314,-0.171362522236898,-0.3665943900822307,-0.3455170260423392,0.2881449667902654,-0.423672891520729,-0.4467751561093266,-17.077811689595297,19.27875149385284,31.00632097200529,1.5900618567992253,0.9707521942327956,1.3632425112942912,3339.227593315972,11.931222222222225,0.21,-179.69262221118868,-10.83929079298315,108.95029481369676,1745.0,1435.0,1200.0,1528.0,1614.0,995.0,60.0,293.1,1649251600.939984,1649251602.0606043,3a8edda0-21d0-41a5-92b8-42d7b4a5db0f
0.0627894696126384,0.293772608549474,-0.1688642697874926,-0.359638728555924,-0.3428609889944853,0.2790723669498411,-0.4250798024971579,-0.4556899745629841,-17.184492750340542,19.345657177191377,31.06693065428744,1.5545081284642288,0.9820103075562804,1.358645706176853,3339.6613498263887,11.94422222222222,0.22,-179.7724155167124,-10.824595925575084,108.68922297523154,1745.0,1435.0,1200.0,1528.0,1614.0,995.0,60.0,293.1,1649251602.1692734,1649251603.2890682,3a8edda0-21d0-41a5-92b8-42d7b4a5db0f
0.1550538695914164,0.4478753170157269,-0.1380305746737841,-0.475662848438306,-0.358547386292071,0.2318948474262781,-0.4214244640535773,-0.4462360594776557,-16.844622653037224,19.400734083283936,30.76761084037162,1.7122397235043676,1.576477183382628,1.3501990466157994,3340.38427734375,11.931111111111113,0.21,179.95524602041536,-10.730524109591451,108.17824058631484,1849.0,1435.0,1200.0,1528.0,1686.0,995.0,60.0,293.1,1649251605.0188465,1649251606.1567743,5d938ee9-180b-44ff-a8ec-9adbcb838e07
0.1479930199362376,0.4480331013568268,-0.1365710693464222,-0.4763860268971074,-0.357350854799569,0.2327495125845029,-0.4199912558795936,-0.4420810704861089,-16.85735523082265,19.420847944103883,30.827345672222496,1.7160007073120445,1.5768115650619754,1.344619120425802,3343.859619140625,11.912666666666668,0.2066666666666666,179.889579063915,-10.739550963489531,107.97103161964434,1849.0,1435.0,1200.0,1528.0,1686.0,995.0,60.0,293.1,1649251606.2654746,1649251607.3854952,5d938ee9-180b-44ff-a8ec-9adbcb838e07
0.1559742783330273,0.4479016144116058,-0.1424353882132451,-0.4794759712189654,-0.3635307430694484,0.2365757830556935,-0.4251718432253086,-0.445552326987691,-16.854076241339083,19.4333375585433,30.90573772341553,1.7313739432435715,1.5756092979738006,1.3684708456654655,3345.4560546875,11.919111111111112,0.21,179.81673433750692,-10.709049046203546,107.78921046611876,1849.0,1435.0,1200.0,1528.0,1686.0,995.0,60.0,293.1,1649251607.492964,1649251608.6127546,5d938ee9-180b-44ff-a8ec-9adbcb838e07
0.2439132609309316,0.5863861991725763,-0.1120497606160423,-0.5728990017926875,-0.3760098695662778,0.1812420256599094,-0.4242681230972551,-0.4471139878253025,-16.502679080767955,19.709183945049183,30.21528519711088,1.8211795129659416,2.112076388975076,1.357858419798742,3348.21337890625,11.912222222222224,0.2066666666666666,179.64356627474984,-10.66950670950488,107.50472853372828,1962.0,1435.0,1200.0,1528.0,1760.0,995.0,60.0,293.1,1649251609.5248935,1649251610.6592667,cd9a4d7d-9ae9-4478-8297-c69e5ebee886
0.2340643822044533,0.5816369916877309,-0.1153359234683801,-0.5745805175689539,-0.3773368767232635,0.1857692229532716,-0.4253427763445371,-0.4465779253872896,-16.574643998508172,19.616824732520666,29.96208571791874,1.8342933412656304,2.097014563035024,1.3647163957752957,3350.394775390625,11.856333333333334,0.1866666666666666,179.58591796033514,-10.66391914044512,107.24712263681194,1962.0,1435.0,1200.0,1528.0,1760.0,995.0,60.0,293.1,1649251610.7680428,1649251611.8909252,cd9a4d7d-9ae9-4478-8297-c69e5ebee886
0.2145385692256394,0.5852791801984363,-0.1088930618447889,-0.577959733443183,-0.3733002261372232,0.1853090186285946,-0.4196362408511359,-0.4448817431613415,-16.50243931744171,19.70156876268969,30.006972836228705,1.841807974973373,2.1105920380799024,1.3428012106861908,3349.521728515625,11.860888888888889,0.19,179.53807627974874,-10.646862260812826,107.02293002531523,1962.0,1435.0,1200.0,1528.0,1760.0,995.0,60.0,293.1,1649251611.9989235,1649251613.120898,cd9a4d7d-9ae9-4478-8297-c69e5ebee886
-0.2292430888087055,-0.1924530328863082,-0.2388416382220708,-0.0362859582038999,-0.2892931921911723,0.4504261638207643,-0.4175324491925131,-0.4491550705312441,-18.06532124471839,20.96887104682721,29.77388699643308,1.2167849313563497,-0.868157280107061,1.311221392291861,3346.03515625,11.900333333333334,0.2066666666666666,179.71929789444715,-10.678319455945228,106.61430788693995,1459.0,1435.0,1200.0,1528.0,1394.0,995.0,60.0,293.1,1649251615.0536983,1649251616.192524,e426c288-bec5-4dfa-ae02-3441edb024f1
-0.216396811209296,-0.1897181038146024,-0.2352783414396474,-0.0413350578823825,-0.286847534680216,0.4533451740851468,-0.4131802300684558,-0.4367426986697292,-18.05020701016914,20.949509470510563,29.93937240571997,1.234816934624804,-0.8586260832124387,1.2973750943048823,3344.58447265625,11.956888888888887,0.2177777777777777,179.62112986223627,-10.641151843211745,106.65025213690213,1459.0,1435.0,1200.0,1528.0,1394.0,995.0,60.0,293.1,1649251616.3011672,1649251617.4216423,e426c288-bec5-4dfa-ae02-3441edb024f1
-0.2239047175530096,-0.1888239923757517,-0.2385786643254863,-0.0421634256885787,-0.2899111810965698,0.4533320253984251,-0.4166909324222166,-0.4406215647095539,-18.09040296076116,20.926075512545705,29.927887030195823,1.2363142375520462,-0.8549939605408773,1.3111113199733604,3351.2696940104165,11.959666666666667,0.22,179.54918064951937,-10.629962570395184,106.66821857005888,1459.0,1435.0,1200.0,1528.0,1394.0,995.0,60.0,293.1,1649251617.5312643,1649251618.65538,e426c288-bec5-4dfa-ae02-3441edb024f1
-0.3292389374261282,-0.3731687391308058,-0.2567238679043055,0.0827886361105038,-0.2639162057004331,0.5136187923030291,-0.409485445812253,-0.4314043270099728,-18.453067685416222,21.86411146007776,29.12658913060213,1.0949299703447042,-1.5532487806561752,1.2672011463566293,3355.203450520833,11.952666666666666,0.2166666666666666,179.52100384246333,-10.62279457145247,106.58821201085104,1364.0,1435.0,1200.0,1528.0,1312.0,995.0,60.0,293.1,1649251619.5589688,1649251620.7182665,6a62fbe4-56f8-4aae-8066-a43f50668fd7
-0.3341302532087741,-0.3760614528691824,-0.2494657863376165,0.0919927230327564,-0.2553695516449525,0.5081883812119874,-0.4026481222294397,-0.4316673007410838,-18.39132221665045,21.849928120811068,29.210605430585737,1.0622768011762007,-1.565953206501891,1.2358300209207849,3355.750732421875,11.93,0.21,179.4874607834494,-10.62512060660388,106.4870665853445,1364.0,1435.0,1200.0,1528.0,1312.0,995.0,60.0,293.1,1649251620.8267753,1649251621.8005905,6a62fbe4-56f8-4aae-8066-a43f50668fd7
-0.3369703720893933,-0.3810974044668554,-0.251161968425614,0.0989878293989996,-0.2546595220468151,0.5071627829732247,-0.403844653930223,-0.4220161556057451,-18.41767757047896,21.804265601022376,29.268561923972022,1.0438017099239336,-1.5861377676720918,1.238412659449248,3367.6536729600693,11.929333333333332,0.2011111111111111,179.45354434076086,-10.592713279982872,106.40198310858112,1364.0,1435.0,1200.0,1528.0,1312.0,995.0,60.0,293.1,1649251621.9097106,1649251623.1549942,6a62fbe4-56f8-4aae-8066-a43f50668fd7
-0.4244618134616628,-0.5510048979955202,-0.2528318527713547,0.2241897116841708,-0.2187504281652098,0.5490019306794375,-0.3881714045856014,-0.4089857948310139,-18.66407700006116,23.05001000328525,27.980459365226395,0.863240768339993,-2.225733562504897,1.147502656887327,3378.56787109375,11.920555555555556,0.2077777777777777,179.48398573498167,-10.63249571680361,106.12571637594236,1262.0,1435.0,1200.0,1528.0,1222.0,995.0,60.0,293.1,1649251625.0898602,1649251626.2284682,d0a5ca28-edba-4531-8d82-3344aef584de
-0.433429226268582,-0.5416956183493066,-0.2692282791496161,0.2105150681138562,-0.2393149914326033,0.5496725141148255,-0.4062245682927639,-0.4358222898229367,-18.59607403682495,23.134562507596,27.448706295334688,0.8952878470903916,-2.1859408687819366,1.2238357146004384,3376.2019856770835,11.897777777777778,0.1988888888888889,179.43966539636736,-10.631029787452997,105.95432264454968,1262.0,1435.0,1200.0,1528.0,1222.0,995.0,60.0,293.1,1649251626.3374546,1649251627.462118,d0a5ca28-edba-4531-8d82-3344aef584de
-0.3949166870138079,-0.4806988002647304,-0.2715818964463029,0.1074818854051171,-0.2676372868734625,0.5755622942955542,-0.4083546590593769,-0.4269337697083902,-18.45278933102713,23.24625899124019,26.119281660897524,1.1863667198896275,-1.9338589145178025,1.2733092803222688,3380.7889811197915,11.899333333333333,0.1933333333333333,179.3793001844828,-10.551281921660006,105.83946846019649,1262.0,1435.0,1200.0,1528.0,1222.0,995.0,60.0,293.1,1649251627.57147,1649251628.7025368,d0a5ca28-edba-4531-8d82-3344aef584de
-0.4685099558436408,-0.5876634742364644,-0.2628248639902474,0.1896480874862817,-0.2408139436043757,0.5852923288003398,-0.3959291383148306,-0.4185054534557937,-18.435870064856555,24.548480825812103,23.42674340932028,1.0315325237230348,-2.3208365118707985,1.190604316504238,3357.393798828125,11.873666666666669,0.1966666666666666,179.37841529553032,-10.513827061526426,105.50914078027704,1153.0,1435.0,1200.0,1528.0,1121.0,995.0,60.0,293.1,1649251630.6182022,1649251631.757355,33074b7a-e2cd-4bdb-8546-02fdb8a7ce57
-0.4542699146674169,-0.5869139986548121,-0.2615231437509139,0.2023497266502887,-0.2388021936738086,0.5777712750618698,-0.3979145923785354,-0.4301814985402348,-18.451629344027424,24.64039182558741,24.120592695786254,0.9867567025786704,-2.325543313952777,1.1900486421375234,3347.4874674479165,11.84222222222222,0.1877777777777777,179.37659998303096,-10.502850852666477,105.30241675703763,1153.0,1435.0,1200.0,1528.0,1121.0,995.0,60.0,293.1,1649251631.8661375,1649251632.986557,33074b7a-e2cd-4bdb-8546-02fdb8a7ce57
-0.4165725942522382,-0.5437073697391506,-0.2609446027825181,0.1587092055901912,-0.2515038370299394,0.569553340746561,-0.4022142196472703,-0.4197808786927151,-18.32860532833347,24.528659045808567,23.24473476287521,1.0659426581373117,-2.151192349367069,1.2164238104984015,3344.439778645833,11.85222222222222,0.1855555555555555,179.36466840146082,-10.50924390972961,105.11294882728129,1153.0,1435.0,1200.0,1528.0,1121.0,995.0,60.0,293.1,1649251633.0946443,1649251634.215947,33074b7a-e2cd-4bdb-8546-02fdb8a7ce57
-0.1091165897804655,0.0208714258159833,-0.2385786644400523,-0.1978834465595048,-0.3455170263366103,0.396503364541273,-0.4489578404375371,-0.4700220566553033,-17.802461754646103,20.409310140860114,30.55328778198476,1.4566977988602376,-0.0569258331473629,1.45809301983839,3340.3885091145835,11.880666666666666,0.1833333333333333,179.13050826723534,-10.479200943210351,104.7598455021195,1553.0,1435.0,1200.0,1528.0,1471.0,995.0,60.0,293.1,1649251636.1497204,1649251637.2885523,7bf6008f-b135-4d59-a017-afe4ef7192b0
-0.106631485969744,0.0228963250758424,-0.2310050146850728,-0.2003685501398853,-0.3377461456818513,0.3953988743235481,-0.4409371339774796,-0.4670635992914037,-17.851319947838213,20.31474216322232,30.414534790719973,1.4595251493360804,-0.0469711646130346,1.4257974734411536,3362.662109375,11.947,0.21,179.0498710538942,-10.510466703318516,104.93305682274132,1553.0,1435.0,1200.0,1528.0,1471.0,995.0,60.0,293.1,1649251637.3971624,1649251638.5183735,7bf6008f-b135-4d59-a017-afe4ef7192b0
-0.1053429136952115,0.019411920538071,-0.2349890701795778,-0.1937284578586581,-0.3402706959012036,0.3904286673706103,-0.4461440185149743,-0.4712711829396565,-17.871808720691796,20.335501388105005,30.05654716079088,1.4332498665453854,-0.057791703595458,1.4411890518208728,3362.223931206597,11.952777777777776,0.2144444444444444,179.00962606148468,-10.4645512309418,105.08546566388095,1553.0,1435.0,1200.0,1528.0,1471.0,995.0,60.0,293.1,1649251638.6306045,1649251639.7465928,7bf6008f-b135-4d59-a017-afe4ef7192b0
-0.1065394451205655,0.0081040416093149,-0.2438644410068724,-0.3827146948192253,-0.3654898994427227,0.5869885104993449,-0.3969678842287341,-0.4252901816977033,-17.738749787846203,19.796893199392805,31.844664257013136,2.2975923095601547,-0.0942964546408669,1.41743107315365,3339.0841471354165,11.951666666666666,0.2166666666666666,178.9133628931423,-10.363696183338698,105.38264719466822,1553.0,1537.0,1200.0,1528.0,1471.0,995.0,60.0,293.1,1649251641.6813326,1649251642.8161154,37e10008-efc3-4040-9c3e-c0ee506b682c
-0.1018585089803176,0.0106548887246875,-0.2492685558222588,-0.3935492229023952,-0.3730109551316876,0.5919718659088801,-0.4022273637291199,-0.4291558991309077,-17.77722275513298,19.86575762466833,31.4486630576235,2.333335545998964,-0.0799546380706273,1.442129765937005,3337.782958984375,11.946777777777775,0.21,178.9122700628751,-10.393621329094772,105.44862909878027,1553.0,1537.0,1200.0,1528.0,1471.0,995.0,60.0,293.1,1649251642.924481,1649251644.2496426,37e10008-efc3-4040-9c3e-c0ee506b682c
-0.1089062105676558,0.0061711832356356,-0.2398672369532068,-0.3862253976879387,-0.3614138029769442,0.5924452189227134,-0.3906828062407951,-0.4225946985702515,-17.7143168798627,19.75597787205008,31.93148053952921,2.3177274868720223,-0.1018032791567592,1.397373708821198,3331.5845540364585,11.942333333333332,0.2188888888888889,178.8953539610307,-10.400222422336372,105.53844608636594,1553.0,1537.0,1200.0,1528.0,1471.0,995.0,60.0,293.1,1649251644.358197,1649251645.4797003,37e10008-efc3-4040-9c3e-c0ee506b682c
-0.0900378304096307,-0.0015865476991452,-0.256776463064174,-0.5838635035973523,-0.3988612980839064,0.7931337507293155,-0.3533536510632062,-0.3722483305475967,-17.710690688992205,19.592155202748867,33.588168725796145,3.2128625037049363,-0.1223495897273968,1.4180137130327488,3331.296630859375,11.943222222222223,0.21,178.89311214116316,-10.359016270528638,105.64766991811337,1553.0,1645.0,1200.0,1528.0,1471.0,995.0,60.0,293.1,1649251646.5953104,1649251647.733937,fed76da8-975e-4443-8113-48dc11dfe277
-0.0937720603411466,-0.0072536358530158,-0.2413398908738198,-0.5733313911517475,-0.3798219808525172,0.7885317071935215,-0.3346956473436001,-0.3568906504067741,-17.57261877997583,19.32634763725025,33.656975472792205,3.177850269955675,-0.1455143273872016,1.344184029295496,3332.1600748697915,11.937333333333337,0.2033333333333333,178.904979974301,-10.354219580456522,105.6827452162311,1553.0,1645.0,1200.0,1528.0,1471.0,995.0,60.0,293.1,1649251647.8419063,1649251648.9615538,fed76da8-975e-4443-8113-48dc11dfe277
-0.0956786214004036,-0.0127497910045974,-0.2466914109237401,-0.5738573395203885,-0.3840821592905344,0.793620252203727,-0.3382983908731472,-0.3605459886962286,-17.57890532592314,19.331625964057487,33.51152687996691,3.1902134915506566,-0.1650690618210751,1.3615294444060202,3339.950520833333,11.934666666666669,0.21,178.9178389437784,-10.348000124034794,105.70366836238856,1553.0,1645.0,1200.0,1528.0,1471.0,995.0,60.0,293.1,1649251649.0693576,1649251650.189206,fed76da8-975e-4443-8113-48dc11dfe277
-0.0948765508842123,-0.0056889409668478,-0.2344499731816274,-0.6911306015256139,-0.3886447576303413,0.8987966641982267,-0.298576173149453,-0.3295019114069726,-17.457743878174348,19.364562941912176,34.29361206579708,3.692112223224581,-0.1311602842994631,1.2955018428721246,3335.185546875,11.935555555555556,0.2077777777777777,178.92690488153676,-10.309965267004191,105.73625291818897,1553.0,1761.0,1200.0,1528.0,1471.0,995.0,60.0,293.1,1649251652.1228096,1649251653.262182,ec85d4c8-082b-48d1-a07a-7cc9191d5001
-0.0743484006689808,-0.0101726464970267,-0.2405024199292482,-0.6917683135960513,-0.3941778312883045,0.9057857014367144,-0.3040333885186135,-0.3356787654932259,-17.54513312668246,19.465498173624823,34.53393764992201,3.709618105453053,-0.1497918511275961,1.3187464508737388,3336.48388671875,11.927888888888887,0.2,178.93753113806548,-10.31507813791664,105.71783493363706,1553.0,1761.0,1200.0,1528.0,1471.0,995.0,60.0,293.1,1649251653.3703496,1649251654.4945033,ec85d4c8-082b-48d1-a07a-7cc9191d5001
-0.0937852090588285,-0.0102909847486838,-0.242470678904375,-0.691932673741797,-0.3960606239035433,0.9050554433264502,-0.3040986264648253,-0.3265566031541781,-17.360627568638836,19.351525740274017,34.38477404824064,3.707563428864776,-0.1503260170344283,1.324036384458242,3334.609157986112,11.921444444444443,0.2,178.96089949194578,-10.321662819731486,105.6969899552001,1553.0,1761.0,1200.0,1528.0,1471.0,995.0,60.0,293.1,1649251654.6024106,1649251655.718324,ec85d4c8-082b-48d1-a07a-7cc9191d5001
-0.0920627297352906,-0.0156819503360293,-0.2318728286038799,-0.7145484391017266,-0.3912350515118952,0.9343770334455396,-0.2911734561651349,-0.3110542877162622,-17.550604163024914,19.89087855454532,34.92641378700672,3.8285624309919615,-0.1705358683219121,1.2841741703287997,3332.160400390625,11.913666666666666,0.1966666666666666,178.97064996644096,-10.321195900410729,105.6546503714451,1553.0,1887.0,1200.0,1528.0,1471.0,995.0,60.0,293.1,1649251657.6507213,1649251658.7956018,527d6659-057f-475b-9222-e738e6fe5164
-0.0910502800918673,-0.0132757388814468,-0.2292430890486589,-0.7115636837365927,-0.3888156908766353,0.9317867404522728,-0.290042668261812,-0.3134079048247241,-17.585366531068487,19.921274713394187,35.29813697178893,3.816383019557,-0.1647599064227137,1.2764891080783582,3340.38427734375,11.9,0.2,178.98624101158637,-10.325245633406112,105.57014954776342,1553.0,1887.0,1200.0,1528.0,1471.0,995.0,60.0,293.1,1649251658.9045591,1649251660.0223167,527d6659-057f-475b-9222-e738e6fe5164
-0.0854752325761627,-0.0143933780809756,-0.2299531185363986,-0.7252514819866694,-0.3909720773262015,0.9438703913477976,-0.2868080882593704,-0.3096210795682932,-17.536722131736408,19.8909206439663,35.07840739065984,3.874165800541357,-0.1657088342372242,1.2752699965244796,3357.1036241319443,11.893111111111113,0.1855555555555555,178.99882980913657,-10.353348257018654,105.5058387632683,1553.0,1887.0,1200.0,1528.0,1471.0,995.0,60.0,293.1,1649251660.130437,1649251661.2512014,527d6659-057f-475b-9222-e738e6fe5164
-0.1194646143060068,0.0172160882551727,-0.1955824231277417,0.0284845208735282,-0.2802994828842717,0.1860584942275198,-0.4649729560734631,-0.493886946078837,-17.838148204036774,20.97234075815132,29.85809526832325,0.4789139445381785,-0.0893569787045915,1.3337638473645888,3369.271240234375,11.924555555555555,0.1922222222222222,178.98357571999023,-10.591736183476607,105.479351289667,1553.0,1335.0,1200.0,1528.0,1471.0,995.0,60.0,293.1,1649251662.160962,1649251663.2081738,a011e95d-2aa2-436a-a837-c731b8920ca9
-0.1222126919954176,0.0118382714292643,-0.20447094258302,0.0333100924032538,-0.2861243560585609,0.1865975907344302,-0.4739140714378063,-0.4948205037192262,-18.004844787772118,20.93278098075758,29.75013183424412,0.4684341029901055,-0.1085486336402332,1.3656827917135723,3375.610894097222,11.954666666666666,0.2077777777777777,178.9713345031778,-10.582233493066347,105.61268872482415,1553.0,1335.0,1200.0,1528.0,1471.0,995.0,60.0,293.1,1649251663.317568,1649251664.5266848,a011e95d-2aa2-436a-a837-c731b8920ca9
-0.1176632428108255,0.0168084786711358,-0.20411592762711,0.0309170296464269,-0.2874260770304112,0.1839941489777575,-0.4738877739647137,-0.4928481988587541,-17.882695615966597,20.907127483652253,29.760187105874465,0.4678926919147036,-0.0905442878164215,1.3676249618627956,3375.90625,11.955333333333334,0.2066666666666666,178.9552137389167,-10.600069393718975,105.75443488175954,1553.0,1335.0,1200.0,1528.0,1471.0,995.0,60.0,293.1,1649251664.6353674,1649251665.9594276,a011e95d-2aa2-436a-a837-c731b8920ca9
-0.1254565851593959,0.0216170665066824,-0.1863925791498385,0.2199569273576538,-0.2547110207795637,-0.0063239136393261,-0.5137677799220596,-0.5373669569920495,-17.98822281692972,21.6941103492952,28.02781397529405,-0.3804348617401625,-0.0785462300103135,1.3550868382604029,3382.1228841145835,11.954666666666665,0.2033333333333333,178.9175338619955,-10.673845397447652,105.9486763548358,1553.0,1236.0,1200.0,1528.0,1471.0,995.0,60.0,293.1,1649251667.0735528,1649251668.2141564,11dd6872-a12c-4fb1-8639-f3a5053abdc5
-0.115993358283356,0.0228437303056763,-0.1853921824518852,0.2177862969187822,-0.2542782094743676,-0.0048079784633292,-0.5137677800228851,-0.545390403529158,-18.096411412062263,21.76403822126648,28.133556181921385,-0.3716561726015331,-0.07378509637364,1.3533078585730265,3379.011962890625,11.955333333333332,0.21,178.9105397482854,-10.659123209282908,106.0493055318776,1553.0,1236.0,1200.0,1528.0,1471.0,995.0,60.0,293.1,1649251668.3222313,1649251669.4401925,11dd6872-a12c-4fb1-8639-f3a5053abdc5
-0.1229227216167579,0.0290367662967531,-0.180159000974472,0.2127109003676726,-0.2508595481431431,-0.0067013907495346,-0.5079560548133482,-0.5323074467620356,-17.96571436154911,21.67339712543669,28.105560736310228,-0.3647410380264945,-0.0502792562030453,1.3340374291819783,3378.56884765625,11.952666666666667,0.2066666666666666,178.91715592486142,-10.682470788004515,106.14821350124856,1553.0,1236.0,1200.0,1528.0,1471.0,995.0,60.0,293.1,1649251669.5480857,1649251670.671054,11dd6872-a12c-4fb1-8639-f3a5053abdc5
-0.1217524875919738,0.0280111679821127,-0.1648539171928832,0.3744530030502311,-0.2244438142866595,-0.1626580847135025,-0.5428264067848066,-0.5662442416830733,-18.081137382781712,22.66573398802118,26.879125968466774,-1.072960299509409,-0.0613659019451759,1.3259199847622616,3375.167860243056,11.951777777777778,0.2,178.88323113416385,-10.74470709226672,106.32870125006612,1553.0,1133.0,1200.0,1528.0,1471.0,995.0,60.0,293.1,1649251672.60271,1649251673.7446,346a8024-9aaa-44f3-8727-f335c43e220c
-0.1314967678833346,0.0267121863564717,-0.1664366914834832,0.3883424081438497,-0.2245374986236007,-0.1725864469290732,-0.548502262085258,-0.5764021604238316,-18.164535220092503,22.77244725080937,27.07608074783949,-1.1259837311290948,-0.0692018213834859,1.3364265652026637,3372.217122395833,11.938444444444444,0.2,178.90747982353722,-10.74829711558547,106.36466143713636,1553.0,1133.0,1200.0,1528.0,1471.0,995.0,60.0,293.1,1649251673.858034,1649251675.0800543,346a8024-9aaa-44f3-8727-f335c43e220c
-0.1210873826812385,0.04246322881159,-0.1816535698928289,0.348827839257167,-0.2488488935162526,-0.1541097885780344,-0.5625138458730831,-0.5865924032907903,-18.14862240115973,22.94708310264024,26.609561887273333,-0.9949953989742876,-0.0022003357943343,1.4110722350837002,3362.9554578993057,11.939777777777778,0.2,178.9162968388458,-10.77453367459852,106.39865832427516,1553.0,1133.0,1200.0,1528.0,1471.0,995.0,60.0,293.1,1649251675.189003,1649251676.5064745,346a8024-9aaa-44f3-8727-f335c43e220c
-0.1148828412402861,0.0316292509238875,-0.1403995317828564,0.3844662823398304,-0.2050335973730173,-0.1774761187529306,-0.5250811405017265,-0.5455985910643529,-17.90569006790613,23.112443255117245,26.743616088651844,-1.124600235858337,-0.0475116389282885,1.2411568880945114,3352.141845703125,11.932,0.19,178.90246039340718,-10.792425449993107,106.41569964625432,1553.0,1026.0,1200.0,1528.0,1471.0,995.0,60.0,293.1,1649251677.623397,1649251678.7680686,21bc554d-cf49-46d1-8e50-b9f6606fee01
-0.1142938892011001,0.034409652325277,-0.1380437234064842,0.3834390402088228,-0.2041981070390532,-0.1813248527965383,-0.5226705456429087,-0.548735104240991,-17.723837136816087,23.09200883769419,26.46709207023744,-1.1309023466604513,-0.0356442535179347,1.2334484904181202,3354.4740939670137,11.92088888888889,0.2,178.9290389361974,-10.779179151871512,106.38698325425383,1553.0,1026.0,1200.0,1528.0,1471.0,995.0,60.0,293.1,1649251678.8767197,1649251679.9872491,21bc554d-cf49-46d1-8e50-b9f6606fee01
-0.1189649638270535,0.0301544054666514,-0.1406997602204117,0.3889691620805346,-0.2052335670417734,-0.1805403142537866,-0.5269033310178923,-0.5480990353801632,-17.915795456577488,23.20011983118148,26.68289759638493,-1.1410917822001292,-0.0530054829898297,1.244165245559318,3354.1822916666665,11.917222222222222,0.1955555555555556,178.94750928553293,-10.77702460664333,106.3705680329486,1553.0,1026.0,1200.0,1528.0,1471.0,995.0,60.0,293.1,1649251680.096347,1649251681.2196968,21bc554d-cf49-46d1-8e50-b9f6606fee01
-0.1060792407174529,0.0077621755309617,-0.2104930460207473,-0.1692324334495461,-0.3095158899950573,0.3841567401650432,-0.4184528581518617,-0.4505751302838495,-17.750793490961374,20.08324503733908,30.95167357203942,1.3636500841110746,-0.1117426749126051,1.3267386243764667,3349.521728515625,11.943,0.1944444444444444,178.96852501869915,-10.58058219997076,106.32728057071878,1553.0,1435.0,1200.0,1528.0,1471.0,995.0,60.0,293.1,1649251682.1269996,1649251683.2739716,adab5299-c450-407a-8113-a057eac65c10
-0.1038965570056095,0.0093794651916054,-0.2105719382874573,-0.171362522271615,-0.3094238491868792,0.3849456618972609,-0.4179663562847828,-0.4370582672835214,-17.769996939488948,20.01295832044081,31.01273940453761,1.3697580553632092,-0.1058260968655483,1.3263066862240551,3358.709228515625,11.957,0.21,178.9774983694487,-10.596060926449823,106.35215156621652,1553.0,1435.0,1200.0,1528.0,1471.0,995.0,60.0,293.1,1649251683.382309,1649251684.4930923,adab5299-c450-407a-8113-a057eac65c10
-0.1027526203645265,0.0040016483481871,-0.2172383278939968,-0.1708891693394609,-0.315209276343242,0.389666043447354,-0.4240673526030873,-0.4432118584479652,-17.831857449851736,20.09056983257906,30.94694731411663,1.3794385424891409,-0.1254548097816273,1.351145715128697,3368.389702690972,11.955777777777778,0.21,178.9799041138564,-10.582398840562508,106.37667877552605,1553.0,1435.0,1200.0,1528.0,1471.0,995.0,60.0,293.1,1649251684.601785,1649251685.7211654,adab5299-c450-407a-8113-a057eac65c10
-0.0804129842801008,0.0207004927895888,-0.1176237967212294,-0.1803825287471167,-0.224496408953974,0.3768986604091878,-0.3200348485869867,-0.3371544541097194,-17.089103390382423,19.86894002200228,30.9979529506208,1.376036162889006,-0.0610529754867543,0.9463054688896676,3372.512125651041,11.956666666666669,0.2077777777777777,178.95962604112057,-10.604655960610378,106.3816124488365,1553.0,1435.0,1200.0,1435.0,1471.0,995.0,60.0,293.1,1649251686.495991,1649251687.5655737,d6fe59e0-6c23-4095-b3f4-2a677382207e
-0.0757188995060607,0.0227779868155394,-0.1139421616286291,-0.179146551325666,-0.2224189148158154,0.3737561222221597,-0.3182860718463527,-0.3418353906453027,-17.05630783277813,19.991298583052448,31.02163138132222,1.3672011311974124,-0.0536197941333879,0.936235814408232,3373.2490234375,11.955,0.2,178.9596017560035,-10.588448870347325,106.39378839939693,1553.0,1435.0,1200.0,1435.0,1471.0,995.0,60.0,293.1,1649251687.6746335,1649251688.797754,d6fe59e0-6c23-4095-b3f4-2a677382207e
-0.0717479930560801,0.0264727705115455,-0.1104446081198472,-0.1820392648698387,-0.2206306918395684,0.372033643072936,-0.315800967747089,-0.3471211674613619,-17.030407439274587,20.03795764680796,30.93512984096681,1.370338455734614,-0.03860009200983,0.9257930467600296,3373.2490234375,11.954,0.2,178.9719932369777,-10.582335661312683,106.4084391551666,1553.0,1435.0,1200.0,1435.0,1471.0,995.0,60.0,293.1,1649251688.9064877,1649251690.0225086,d6fe59e0-6c23-4095-b3f4-2a677382207e
-0.0389814407582946,0.0347958952813049,0.0016611803192672,-0.1800538113531473,-0.1169400644704836,0.3564261418398843,-0.199803154834832,-0.2259427658172602,-16.181212706141253,19.996866374722792,31.0097731508674,1.336536702206765,-0.0071935065481416,0.4683344766027215,3368.3887532552085,11.955666666666666,0.2,178.97278553892147,-10.589905503051568,106.3613495542988,1553.0,1435.0,1200.0,1330.0,1471.0,995.0,60.0,293.1,1649251692.1646936,1649251693.2993977,9b2293ca-e426-4a94-9196-7057197e4e66
-0.0505785912479534,0.0388456937530124,0.0035677412242506,-0.1854710748969988,-0.1169532132498647,0.3566628183297959,-0.19760732255885,-0.2284147209537196,-16.088004606314406,19.99005782809921,30.913805971104384,1.3493699853853305,0.0089742820729171,0.4630022867790215,3365.8906521267363,11.94877777777778,0.2055555555555555,178.9878726678881,-10.570921561435949,106.36810385247806,1553.0,1435.0,1200.0,1330.0,1471.0,995.0,60.0,293.1,1649251693.4083395,1649251694.4467213,9b2293ca-e426-4a94-9196-7057197e4e66
-0.0326306202752519,0.0388325450604007,0.0025947376280125,-0.1782524397081838,-0.1172950794537216,0.3520476263638721,-0.2014335935841568,-0.2256140484539935,-16.19268718447266,20.086072148164835,31.18160638578133,1.3232935962332075,0.0063435523179641,0.4705688250245397,3363.982177734375,11.952666666666666,0.2,179.00041137738444,-10.562161274642971,106.35418696258918,1553.0,1435.0,1200.0,1330.0,1471.0,995.0,60.0,293.1,1649251694.5555522,1649251695.7601738,9b2293ca-e426-4a94-9196-7057197e4e66
-0.0088183307984261,0.0506269256318514,0.0978570421199553,-0.179580458323,-0.0313814941680922,0.3352304449970655,-0.1051456834178722,-0.1240535098706149,-15.466748362480768,20.15011921419765,30.99286281112297,1.294002163667312,0.0533181792449133,0.0882355923548474,3364.2757703993057,11.952333333333334,0.21,178.9842040973939,-10.585689473922637,106.31773044843928,1553.0,1435.0,1200.0,1210.0,1471.0,995.0,60.0,293.1,1649251696.5314338,1649251697.6004083,a01a06ac-8d61-43c8-9e34-d2f0a56003df
-0.0083055316530733,0.0514289960923271,0.0978044473277046,-0.1804088261670175,-0.0314209402652891,0.334888578951805,-0.1061186869730705,-0.1335337203614378,-15.561618899947089,20.175733650283416,30.943826144166177,1.295214150103252,0.0575316021973382,0.0896901292174174,3364.4224446614585,11.949666666666666,0.2,178.97004435633454,-10.593506151109024,106.29615995213048,1553.0,1435.0,1200.0,1210.0,1471.0,995.0,60.0,293.1,1649251697.7087166,1649251698.8289783,a01a06ac-8d61-43c8-9e34-d2f0a56003df
-0.0092653864644114,0.0521521743995402,0.0984618822299183,-0.1822890905313215,-0.0320389289092079,0.3360851100622216,-0.1051851294085222,-0.1345461701123464,-15.472372112363855,20.223366287869624,30.973576110923453,1.302542496265289,0.0596226069841306,0.0884623500224675,3367.947509765625,11.950666666666669,0.2088888888888888,178.97865950160764,-10.57065556351327,106.30203846827614,1553.0,1435.0,1200.0,1210.0,1471.0,995.0,60.0,293.1,1649251698.9372566,1649251700.059927,a01a06ac-8d61-43c8-9e34-d2f0a56003df
0.0150071072285279,0.0620531426529532,0.1856771820645028,-0.1774240720129182,0.0467480601101771,0.3180451001578407,-0.0196528568525143,-0.0463052651140677,-14.901299290267046,20.42805353949082,31.084523799353693,1.25703468082555,0.0966654864594201,-0.2577996482548123,3367.947509765625,11.946333333333332,0.1966666666666666,178.96228070797795,-10.580066615552164,106.25756482986046,1553.0,1435.0,1200.0,1071.0,1471.0,995.0,60.0,293.1,1649251701.178397,1649251702.3117054,2d0aa356-6e34-497a-9426-5289b6328a72
0.0121932861854165,0.0606462321626005,0.1836917290649339,-0.1773583283774871,0.045262257511662,0.3188603193041648,-0.0211781055800929,-0.0508678628726799,-14.907829827952494,20.41161688215316,30.99981849286877,1.2584936728495535,0.0920514389241199,-0.2511848615002043,3367.653510199653,11.943333333333335,0.19,178.96078413763982,-10.574328972058137,106.23670694995504,1553.0,1435.0,1200.0,1071.0,1471.0,995.0,60.0,293.1,1649251702.4199178,1649251703.5610554,2d0aa356-6e34-497a-9426-5289b6328a72
0.0134950071048431,0.0617770200285906,0.1796945255191556,-0.1755701056255162,0.0415017303213843,0.3156783350298907,-0.0268714912378769,-0.0513675131746427,-14.97795629994365,20.43750886190725,30.90188060796253,1.2472312321751244,0.0971838090923154,-0.2325533866935256,3365.890326605903,11.943888888888887,0.2,178.96664595776753,-10.557820309970475,106.23201536890517,1553.0,1435.0,1200.0,1071.0,1471.0,995.0,60.0,293.1,1649251703.6692965,1649251704.7681885,2d0aa356-6e34-497a-9426-5289b6328a72
-0.1555577880591591,-0.0124342222795305,-0.3467530039330594,-0.1464325926854865,-0.434139256179239,0.3889428651207107,-0.5651660483744648,-0.596959605997463,-18.72448653426392,20.49759082858895,30.714388395984823,1.3184082463752904,-0.1899351095994979,1.8876762912764573,3366.62451171875,11.946333333333332,0.1955555555555555,178.98467765717635,-10.569463600639365,106.25377103923148,1553.0,1435.0,1200.0,1613.0,1471.0,995.0,60.0,293.1,1649251705.678716,1649251706.8206415,fa04e4a3-071c-4c8b-9585-0a7f6e0f8fd2
-0.1374257345385479,-0.0123421814208047,-0.3414146321646089,-0.1467218638387109,-0.4285642075953969,0.389297879949723,-0.5579211143419094,-0.5787749529393657,-18.614732954318693,20.385522383844044,30.78897481876505,1.319448573625557,-0.1906556276932516,1.8627273893039915,3360.3556213378906,11.953,0.20875,178.98539748322386,-10.573123870556453,106.24452059150182,1553.0,1435.0,1200.0,1613.0,1471.0,995.0,60.0,293.1,1649251706.9331434,1649251708.04133,fa04e4a3-071c-4c8b-9585-0a7f6e0f8fd2
-0.1568595090733571,-0.0138148354182994,-0.3437551005027001,-0.1443288006873957,-0.4303918767679694,0.3882065382974835,-0.5606823413103885,-0.5846392734527872,-18.6256927162122,20.40466697183624,30.72219574352169,1.3115922293024982,-0.1959522296181898,1.8720715392241885,3367.947509765625,11.948,0.2,179.00026111322268,-10.570537078703918,106.25079155893354,1553.0,1435.0,1200.0,1613.0,1471.0,995.0,60.0,293.1,1649251708.1505969,1649251709.2738564,fa04e4a3-071c-4c8b-9585-0a7f6e0f8fd2
-0.1797513911636022,-0.0254251345042159,-0.4459862340580699,-0.1124695077658482,-0.5227351932044288,0.3765436455284486,-0.6774428032431598,-0.7036613137051636,-19.551930453327017,20.83015924795832,30.77420971638214,1.210789651354116,-0.2437994792538408,2.301566270869232,3374.1344401041665,11.939333333333334,0.19,178.99259308751448,-10.578281090266636,106.22079564482856,1553.0,1435.0,1200.0,1694.0,1471.0,995.0,60.0,293.1,1649251711.208402,1649251712.3460512,6b4cf714-f3d4-4078-bf55-676184792bbe
-0.1739659642838383,-0.0242549004913326,-0.4473405501719252,-0.1059214569480467,-0.5245628625865077,0.367878655267992,-0.6812033319372928,-0.7020440234133488,-19.45252039139315,20.89027364634222,30.54177893224541,1.1768915222984375,-0.2389450041429802,2.3111719331866767,3367.5069173177085,11.942888888888888,0.1988888888888889,178.98912486923595,-10.591659438712185,106.18784074099317,1553.0,1435.0,1200.0,1694.0,1471.0,995.0,60.0,293.1,1649251712.4542143,1649251713.5746872,6b4cf714-f3d4-4078-bf55-676184792bbe
-0.1981332702077702,-0.0289226877950536,-0.4531522751809681,-0.1032391222421434,-0.52859951330482,0.3689699971793552,-0.6867652325550918,-0.7067512588314515,-19.5332797290214,20.88989468540852,30.35463529845028,1.1729308421170288,-0.2549204920966407,2.33164942491346,3368.831000434028,11.940444444444443,0.19,179.01445576413778,-10.577434051945817,106.17579608184678,1553.0,1435.0,1200.0,1694.0,1471.0,995.0,60.0,293.1,1649251713.6829822,1649251714.7994783,6b4cf714-f3d4-4078-bf55-676184792bbe
-0.2170279486600275,-0.0270424241789239,-0.5206051037671147,-0.0680400607063279,-0.5928440622075591,0.3388068901555677,-0.7730470128890643,-0.7984240082181645,-20.035983988654618,21.46823646372816,30.34017484208123,1.0259696975763328,-0.2527822797419381,2.63387215443952,3364.5693630642363,11.939333333333334,0.1955555555555556,178.99938077772964,-10.602387673759766,106.11886645511474,1553.0,1435.0,1200.0,1774.0,1471.0,995.0,60.0,293.1,1649251716.4970284,1649251717.668806,e63bc3ed-6314-4a3f-ba54-deda5a6d8f0c
-0.2035636823120933,-0.0280417251293985,-0.5204473193912318,-0.0603480732396164,-0.5917264227186891,0.3339155754381809,-0.774927277330178,-0.798424008409534,-20.089988962208807,21.52036077929697,30.50549064524056,0.997979583690884,-0.2585493833556274,2.634932439657995,3367.653510199653,11.924555555555555,0.19,179.01624830933991,-10.607291180401404,106.06566838839925,1553.0,1435.0,1200.0,1774.0,1471.0,995.0,60.0,293.1,1649251717.7777088,1649251718.8995962,e63bc3ed-6314-4a3f-ba54-deda5a6d8f0c
-0.203353303159754,-0.0300140296175786,-0.5198161816582926,-0.0581259432476357,-0.590135429811461,0.3323508807656535,-0.774125206283624,-0.7946766280402932,-20.10101295095044,21.4872486784151,30.30531830722142,0.9892253895080292,-0.2643287194306606,2.6302675511714204,3367.3598361545137,11.922777777777778,0.19,179.02584851967336,-10.602651774407672,106.02542719053923,1553.0,1435.0,1200.0,1774.0,1471.0,995.0,60.0,293.1,1649251719.0084722,1649251720.1282568,e63bc3ed-6314-4a3f-ba54-deda5a6d8f0c
-0.2177379783929501,-0.0299088400457338,-0.5429184475944175,-0.0201788047094836,-0.6110287150545145,0.2970992284114786,-0.8131242576822796,-0.8397635291298884,-20.34246697055686,21.96335672511108,30.0327570992779,0.8262516218716646,-0.2659381302411753,2.7453390023023205,3358.5630696614585,11.917555555555555,0.1877777777777778,178.99623585507183,-10.625110669627274,105.95370716861449,1553.0,1435.0,1200.0,1856.0,1471.0,995.0,60.0,293.1,1649251722.0673623,1649251723.2003956,e2c19a26-6933-4d4b-aa87-c647d97a4cc6
-0.2285199104417024,-0.03117111493271,-0.5507287752605048,-0.0234528300624755,-0.6174321321349301,0.3006888223029766,-0.8200404749738979,-0.849506717839729,-20.47392196293917,21.886826756458863,29.88365257263214,0.840717149890473,-0.2685138411724139,2.774101982507558,3356.3712565104165,11.874222222222222,0.1722222222222222,179.0305522432818,-10.609118730323074,105.76894372137647,1553.0,1435.0,1200.0,1856.0,1471.0,995.0,60.0,293.1,1649251723.309304,1649251724.4298809,e2c19a26-6933-4d4b-aa87-c647d97a4cc6
-0.2259953604967573,-0.0293171486926466,-0.5489011061076448,-0.0209414290564865,-0.6165511693521148,0.2989663432082262,-0.818870240580731,-0.8392770270190566,-20.379428683089515,21.930967740913545,30.23607562274378,0.8316687694260136,-0.2655452515142946,2.7695359777672457,3350.9769151475693,11.872444444444444,0.18,179.03088919928084,-10.622399179390518,105.6607595962027,1553.0,1435.0,1200.0,1856.0,1471.0,995.0,60.0,293.1,1649251724.5380182,1649251725.5561607,e2c19a26-6933-4d4b-aa87-c647d97a4cc6
-0.1028052151570888,0.024763439955586,-0.2645473427990131,-0.1645909434527105,-0.3299884134763344,0.3989358735859756,-0.4402402526545597,-0.4614096584249513,-17.966190080471552,16.37222302802631,35.77924408170051,1.3597594671227404,-0.0933008656036494,1.469604660168753,7181.425564236111,11.630333333333333,7.989999999999999,-178.95115053527044,-10.70724359953294,93.39026328057228,1553.0,1435.0,1350.0,1528.0,1471.0,995.0,60.0,293.1,1649251730.5164795,1649251731.5989912,1de09b00-004d-420a-994a-dd651641b889
-0.087889029860436,0.0269471349962432,-0.2774072751918132,-0.1672110744418472,-0.338472864020296,0.3848192320625512,-0.4516148889054486,-0.4827545489702073,-17.996688553594318,15.829978593379964,33.648299578276664,1.3293578826315793,-0.0665101665043967,1.512322313653367,7194.81884765625,11.624333333333333,8.076666666666666,-178.31882224664938,-10.629355537332698,87.65447000890133,1553.0,1435.0,1350.0,1528.0,1471.0,995.0,60.0,293.1,1649251731.7110555,1649251732.826892,1de09b00-004d-420a-994a-dd651641b889
-0.1240666582461733,0.0234880164119324,-0.284796337802428,-0.1847347484621256,-0.3474893311926413,0.396490216182895,-0.4548221601007622,-0.4731251496794907,-17.932774533817973,15.816635019221174,32.491389369238185,1.3945046299109478,-0.0679937801668286,1.537087894697864,7196.83154296875,11.625,8.08888888888889,-178.08873290516925,-10.479059216785076,83.09476169804549,1553.0,1435.0,1350.0,1528.0,1471.0,995.0,60.0,293.1,1649251732.9448495,1649251734.0587828,1de09b00-004d-420a-994a-dd651641b889
-0.0209414289965188,0.1718053081249025,-0.2892800435357915,-0.3080826818733455,-0.3875271182395109,0.3315488103583099,-0.4813825326830587,-0.5066674820450546,-17.824415794272856,14.852313661720304,27.666145427738783,1.5194848491105943,0.5451714921514375,1.6460797573001726,7196.83154296875,11.614666666666666,8.106666666666667,-178.18013297882257,-10.324066856591852,76.94126820768241,1647.0,1435.0,1350.0,1528.0,1543.0,995.0,60.0,293.1,1649251735.1702487,1649251736.314358,50d0911f-f4f8-4983-a2c3-d013503f6b26
-0.0262140563507383,0.1784191020860161,-0.2903713855722245,-0.2971955599780839,-0.3883949324423643,0.3225945487756269,-0.4835126220879696,-0.5064439547129571,-17.592982375151365,14.715355289376609,28.727007190278545,1.4741280981493703,0.5575248750524977,1.6543922026374336,7196.83154296875,11.609777777777778,8.103333333333332,-178.26869321160095,-10.277700876321129,73.65456979542367,1647.0,1435.0,1350.0,1528.0,1543.0,995.0,60.0,293.1,1649251736.4270215,1649251737.3686116,50d0911f-f4f8-4983-a2c3-d013503f6b26
-0.0193898828190886,0.186308319552734,-0.2552775107309297,-0.2445744706328169,-0.3574034497764363,0.3177558289051866,-0.4625798926770382,-0.4872600019136001,-17.639127861849758,15.740676303814574,36.22547694752965,1.3542710517337735,0.5167454662010658,1.5460789537512545,7196.83154296875,11.611555555555556,8.09,-178.47175473562544,-10.281793677453784,71.02984345169374,1647.0,1435.0,1350.0,1528.0,1543.0,995.0,60.0,293.1,1649251737.482658,1649251738.8977115,50d0911f-f4f8-4983-a2c3-d013503f6b26
0.0630655922135023,0.3434483796410941,-0.2403274414288073,-0.3627418215933918,-0.3838323342466687,0.2706440531606343,-0.4745978039388723,-0.4928613474944878,-17.73550695182617,15.431015512499153,35.96321578863834,1.5135625078895962,1.124614226612254,1.5964760598547831,7196.83154296875,11.60811111111111,8.09,-178.89734534062873,-10.272937009102524,67.5523368747815,1745.0,1435.0,1350.0,1528.0,1614.0,995.0,60.0,293.1,1649251739.496307,1649251740.6093817,b29e1a81-dcdc-44da-9354-85c4f71f74f6
0.0661555358429967,0.3423307405438603,-0.2567501649940371,-0.3951402152889631,-0.4009913862335575,0.2741153087702809,-0.4811590051009892,-0.5112300810433159,-17.329510698266148,14.85550046534577,31.978573548409443,1.5893820136461578,1.15580270470255,1.6460558732507535,7196.83154296875,11.592222222222222,8.08,-179.14419141287263,-10.284782644125572,65.59762097332361,1745.0,1435.0,1350.0,1528.0,1614.0,995.0,60.0,293.1,1649251740.7177598,1649251742.0433452,b29e1a81-dcdc-44da-9354-85c4f71f74f6
0.0706260925285671,0.3485237760404284,-0.2541467226744929,-0.3771264977899321,-0.3971388172832675,0.2644247201488927,-0.4840122727779261,-0.5077851217173427,-17.474837442147486,14.93049233978862,33.81948999521916,1.527818497001305,1.1616913860789022,1.6446935475080884,7200.863118489583,11.591333333333331,8.086666666666666,-179.41574152043455,-10.31554648019348,63.913151372206094,1745.0,1435.0,1350.0,1528.0,1614.0,995.0,60.0,293.1,1649251742.152152,1649251743.2674434,b29e1a81-dcdc-44da-9354-85c4f71f74f6
0.1918176230132898,0.5387065025113718,-0.2078764553797212,-0.5429447451909543,-0.4112868173481895,0.2251495665593338,-0.4660905953305426,-0.498922898364359,-17.07184590608883,15.00917434513181,33.26474163672183,1.8165472917168728,1.900407084188924,1.5964008425083325,7196.83154296875,11.59,8.087777777777777,-100.0178720754421,-10.343276099586348,61.04639272177732,1849.0,1435.0,1350.0,1528.0,1686.0,995.0,60.0,293.1,1649251744.9953277,1649251746.1389616,11560d75-3391-4574-8e5c-c4f6ffa26d86
0.1890958430036461,0.5357480461333928,-0.2301372005771595,-0.5555674972618863,-0.4346915017234288,0.2222042587039274,-0.4854717784537661,-0.5095996422072817,-16.756195799651685,14.87561254138378,30.6227706457849,1.83614653872638,1.9106333557168205,1.6822980298011416,7196.83154296875,11.568666666666669,8.073333333333332,179.74200144324828,-10.33488189196014,60.17801461326043,1849.0,1435.0,1350.0,1528.0,1686.0,995.0,60.0,293.1,1649251746.2474031,1649251747.3697398,11560d75-3391-4574-8e5c-c4f6ffa26d86
0.1781824255619437,0.5332760914652137,-0.2039449949091551,-0.5337932502440725,-0.4068557059252586,0.2197717500073513,-0.4644864541411327,-0.4893374961070463,-17.087215466499103,15.187118589279155,32.96125143764348,1.7851383490352035,1.8819638555928548,1.5816338746979854,7196.83154296875,11.565,8.08222222222222,179.47912567593227,-10.320625105296337,59.334314737124686,1849.0,1435.0,1350.0,1528.0,1686.0,995.0,60.0,293.1,1649251747.478464,1649251748.59558,11560d75-3391-4574-8e5c-c4f6ffa26d86
0.3083019169576727,0.688075677461936,-0.1381357646390836,-0.6466616943987735,-0.3929180851877114,0.1798128637321123,-0.4290638586554264,-0.4521266768717831,-16.77575728031531,15.804304859387669,34.447555284415806,1.95771092147314,2.465257865132789,1.4423128089394497,7196.83154296875,11.521,8.08,179.06588101730873,-10.280064216637692,58.09872061480095,1962.0,1435.0,1350.0,1528.0,1760.0,995.0,60.0,293.1,1649251749.7118149,1649251750.8205063,e99d2198-daff-4a93-a638-401264a12c69
0.3099849499768616,0.6972140204637611,-0.1428167006497688,-0.6686331740905957,-0.4031083266058917,0.1846515838266594,-0.4311019066537303,-0.454164724995083,-16.47323226450288,15.751265027004877,33.50584756069113,2.0175639296556414,2.5081448550828016,1.465292891574323,7196.83154296875,11.499555555555556,8.07888888888889,178.90493747534617,-10.329009826548695,57.54704168207958,1962.0,1435.0,1350.0,1528.0,1760.0,995.0,60.0,293.1,1649251750.9291737,1649251751.9752653,e99d2198-daff-4a93-a638-401264a12c69
0.3016537342667691,0.6921067639077063,-0.1464133751310648,-0.6739922814346998,-0.4062265911434321,0.1922540585360026,-0.4309056875487635,-0.4544469164088023,-16.375626265337083,15.682045581735316,33.16110489026093,2.04609276256227,2.4917847890545137,1.4731088399366536,7196.83154296875,11.501555555555557,8.07888888888889,178.76469396002818,-10.373968123804229,57.07315480945512,1962.0,1435.0,1350.0,1528.0,1760.0,995.0,60.0,293.1,1649251752.0869188,1649251753.308776,e99d2198-daff-4a93-a638-401264a12c69
-0.2215773980649777,-0.1745050609030015,-0.2919360807893926,-0.0559169624157449,-0.3093581058236792,0.4703069908362392,-0.4297081446210793,-0.4601473836293537,-17.97834835817676,16.75913346268173,32.32764607914826,1.275642796138377,-0.8251112500569084,1.4356497043487015,7196.83154296875,11.538666666666666,8.096666666666668,178.85256510261033,-10.484919234501731,56.09979972903476,1459.0,1435.0,1350.0,1528.0,1394.0,995.0,60.0,293.1,1649251755.0359528,1649251756.1818187,d8d3faee-f1c5-4c7d-80fb-31a3ea67a2e3
-0.2173040713497008,-0.1786731979755123,-0.2819693679277905,-0.0544048625052114,-0.2989443371102308,0.4770522713479567,-0.4202279329145261,-0.4413052972582227,-18.200588459354613,16.927538407019508,32.97754330393167,1.288993795013169,-0.8444828395654425,1.39458324825688,7196.83154296875,11.61911111111111,8.112222222222222,178.67630220524933,-10.551145507604083,55.85627274927253,1459.0,1435.0,1350.0,1528.0,1394.0,995.0,60.0,293.1,1649251756.2905471,1649251757.4044034,d8d3faee-f1c5-4c7d-80fb-31a3ea67a2e3
-0.2189739559411296,-0.1817762905504646,-0.309108280633945,-0.0862115603585591,-0.3230064546689288,0.4812598537449922,-0.4392278027839121,-0.459608286515811,-18.2604459179514,16.27943742185254,28.812798831284816,1.3638552206641423,-0.8166010102480387,1.4850975833767552,7196.83154296875,11.6205,8.125,178.56235947169534,-10.600261492789382,55.592384975594506,1459.0,1435.0,1350.0,1528.0,1394.0,995.0,60.0,293.1,1649251757.512787,1649251758.8320055,d8d3faee-f1c5-4c7d-80fb-31a3ea67a2e3
-0.334406375851301,-0.3717092335618713,-0.3078328569352715,0.0616192353123257,-0.2783534756220075,0.5406262119431289,-0.4151393860865003,-0.435204300742211,-18.444071558467165,17.59798871384264,30.23011218661713,1.1727271368569898,-1.5583248984535103,1.3678870082842984,7196.83154296875,11.614333333333333,8.107777777777777,178.5084040128919,-10.60568931131356,55.31265913159608,1364.0,1435.0,1350.0,1528.0,1312.0,995.0,60.0,293.1,1649251759.497515,1649251760.679623,3335ac07-91c0-4f5b-aecd-838e8a2756e9
-0.315866711232707,-0.3601252300854879,-0.2847963376793799,0.076963763643793,-0.2605764359615309,0.5351958008564766,-0.3996239212565241,-0.4170327987247884,-18.38604336206839,18.084367395675287,33.220805394538225,1.1307880531947974,-1.5422155888835298,1.2957772887165049,7196.83154296875,11.589222222222222,8.097777777777777,178.41214388018915,-10.666741241800931,55.15089331074845,1364.0,1435.0,1350.0,1528.0,1312.0,995.0,60.0,293.1,1649251760.7875164,1649251761.9082258,3335ac07-91c0-4f5b-aecd-838e8a2756e9
-0.3192196293570024,-0.3639777987786179,-0.2882149994969117,0.0392795999896632,-0.2646919786943972,0.558929195356305,-0.3939831299168691,-0.4246327469017999,-18.56266366542977,17.818413136129095,31.138989449360707,1.2667723709858154,-1.5325454147416886,1.294264374529578,7196.83154296875,11.590444444444444,8.065555555555555,178.34875972469146,-10.676776971557665,55.0382202334702,1364.0,1435.0,1350.0,1528.0,1312.0,995.0,60.0,293.1,1649251762.0165431,1649251763.143531,3335ac07-91c0-4f5b-aecd-838e8a2756e9
-0.4248168285468908,-0.5226431522826986,-0.3479363897918212,0.0878903260274586,-0.293632264785598,0.6193868946686352,-0.4265787600473847,-0.4589377057061912,-18.67840336246921,18.56037747946323,23.63719879908815,1.293665761066665,-2.070088055018294,1.4317597808467224,7215.00537109375,11.586,8.09,178.36451165873734,-10.736579262018145,54.94203940685284,1262.0,1435.0,1350.0,1528.0,1222.0,995.0,60.0,293.1,1649251765.0719807,1649251766.210437,61d9332b-fa85-4bac-955f-1084b114d1e7
-0.4358748843007198,-0.5388292018547728,-0.3341039573768482,0.1331481414395592,-0.2744483133514514,0.604870735650893,-0.4156258892391463,-0.4476035246950491,-18.43850552648895,18.761219113080173,25.33422622160069,1.1613669108675513,-2.1522261282637443,1.3720980190210137,7215.00537109375,11.547444444444444,8.07,178.32877914463947,-10.680596280532304,54.86484498830831,1262.0,1435.0,1350.0,1528.0,1222.0,995.0,60.0,293.1,1649251766.318598,1649251767.438531,61d9332b-fa85-4bac-955f-1084b114d1e7
-0.4140348953093863,-0.5235241153703101,-0.3467530058186389,0.1117683591644431,-0.2924094355047037,0.6052126015263232,-0.4328506859090283,-0.4556899752989217,-18.688015769863352,18.91466325402242,24.60086473380493,1.2105075422945988,-2.0847239831028475,1.4387208529817326,7215.00537109375,11.551,8.084999999999999,178.3182963220833,-10.722964987455017,54.81590174999077,1262.0,1435.0,1350.0,1528.0,1222.0,995.0,60.0,293.1,1649251767.5463517,1649251768.875695,61d9332b-fa85-4bac-955f-1084b114d1e7
-0.5640484084757308,-0.7447510062052356,-0.3327496402620978,0.386273679982618,-0.2149504547121398,0.5819131142334116,-0.4183608174407062,-0.4460914239549398,-19.153840791365955,20.513016337244768,26.49983932019638,0.5502949066605646,-2.96087553218316,1.2708352984170503,7215.00537109375,11.526333333333334,8.07888888888889,178.42485562114447,-10.725598025380055,54.79991493332845,1153.0,1435.0,1350.0,1528.0,1121.0,995.0,60.0,293.1,1649251770.1917777,1649251771.3293023,108ef37f-fcd3-4f08-9936-0946c956cab9
-0.5468104626576415,-0.7383738857796267,-0.3293967221772819,0.3974500709886945,-0.213017596243548,0.5751546850487911,-0.4194916055775246,-0.4450132304675772,-19.131591704683736,20.683234993664136,27.89593268034755,0.511425711957292,-2.9506490761515454,1.2680266731337344,7215.00537109375,11.506888888888888,8.072222222222223,178.3909262769875,-10.76103997184699,54.780353271545536,1153.0,1435.0,1350.0,1528.0,1121.0,995.0,60.0,293.1,1649251771.437035,1649251772.558306,108ef37f-fcd3-4f08-9936-0946c956cab9
-0.540065179581889,-0.7417268048676209,-0.3339461719048172,0.3814349601249973,-0.216646636796439,0.5841220949961515,-0.4203594196554807,-0.440187657758736,-19.30154677033268,20.53035329277884,26.58991685446897,0.5661691048255817,-2.9487656764932684,1.2779622867754148,7215.00537109375,11.512555555555556,8.06,178.45616520829984,-10.737663080230192,54.79727961867368,1153.0,1435.0,1350.0,1528.0,1121.0,995.0,60.0,293.1,1649251772.6660173,1649251773.7837043,108ef37f-fcd3-4f08-9936-0946c956cab9
-0.1195829525632026,0.0221468493927745,-0.3168791610990945,-0.1822759414440276,-0.3707756761278547,0.3758993595087863,-0.4818558858922792,-0.5087449766628437,-17.75643407897151,14.848149711175582,29.484217698653183,1.3342794476200883,-0.049972616223775,1.6471661540866551,7215.6806640625,11.526444444444444,8.056666666666667,178.25804722341462,-10.72200221537326,54.879203184308544,1553.0,1435.0,1350.0,1528.0,1471.0,995.0,60.0,293.1,1649251775.522762,1649251776.6563766,c4f5a47a-05e4-4b30-9238-5e71bf0fb74c
-0.1147573807677329,0.0182811326619053,-0.2689653051302008,-0.1265912083912576,-0.3271877405796287,0.3849588105584313,-0.4477744571583326,-0.4777666408523082,-17.98407573633976,16.26918046474417,37.81780902161809,1.242045937166817,-0.1405150220380789,1.484993137481089,7221.0830078125,11.628333333333334,8.114444444444443,178.23958294535836,-10.671911695002631,54.956402535767474,1553.0,1435.0,1350.0,1528.0,1471.0,995.0,60.0,293.1,1649251776.764251,1649251777.7787144,c4f5a47a-05e4-4b30-9238-5e71bf0fb74c
-0.1109048125707918,0.0134555610768815,-0.2823769770931315,-0.183998420908902,-0.3415592679109925,0.4069039828219043,-0.451837405153812,-0.4737036922964344,-18.38331362884443,15.907441898822524,32.69275515929458,1.4167725262119064,-0.1041532254020025,1.52018761919532,7221.0830078125,11.633111111111113,8.104444444444445,178.28954198458746,-10.67664634418979,55.05315482154539,1553.0,1435.0,1350.0,1528.0,1471.0,995.0,60.0,293.1,1649251777.8870325,1649251779.0085192,c4f5a47a-05e4-4b30-9238-5e71bf0fb74c
-0.1188516826859986,0.0159098158290381,-0.3065240556386445,-0.4559387885809431,-0.3947341224875531,0.6891988794503288,-0.3974523630335728,-0.4221061734993188,-18.06712416661955,15.341890986443945,37.685293535441566,2.660561227849373,-0.1094936383907958,1.5535034407535948,7221.0830078125,11.629,8.100000000000001,178.31551188163166,-10.5751423337518,55.3533033106171,1553.0,1537.0,1350.0,1528.0,1471.0,995.0,60.0,293.1,1649251781.1488123,1649251782.3916328,069fd767-9c17-4c19-9f33-8df7315fbc64
-0.0880918233030495,0.0174001699900082,-0.3048743999444902,-0.45628166634806,-0.3928128955452304,0.6844334889688113,-0.3947589028202983,-0.4191891855862043,-17.935232355900645,15.186354894227696,37.18875129264321,2.649664520955525,-0.1002924034262297,1.5444361520457754,7215.00537109375,11.614444444444445,8.104444444444445,178.323293743826,-10.568633353200251,55.44024706529191,1553.0,1537.0,1350.0,1528.0,1471.0,995.0,60.0,293.1,1649251782.499642,1649251783.7436416,069fd767-9c17-4c19-9f33-8df7315fbc64
-0.0845386407419265,0.0130398599732471,-0.3219611331584608,-0.475282548582302,-0.4073771022114724,0.6904126051434574,-0.4076678907702137,-0.4332193528897066,-18.14979523939176,14.885409147596938,34.83477723723186,2.7026326749019107,-0.0930132773480827,1.6019030669513936,7215.00537109375,11.62088888888889,8.11,178.37251056916534,-10.577161508425185,55.519807764928906,1553.0,1537.0,1350.0,1528.0,1471.0,995.0,60.0,293.1,1649251783.8514774,1649251785.0577078,069fd767-9c17-4c19-9f33-8df7315fbc64
-0.0986502269231467,0.0213053328084526,-0.383043411966839,-0.8008039236607558,-0.500421849635285,0.968905507168943,-0.3847790401951703,-0.4073159099937055,-17.77797355450381,13.784443284408567,32.82916667383307,4.05226741395718,-0.0106810292158708,1.7753354651816715,7215.00537109375,11.617333333333336,8.103333333333333,178.44415621791913,-10.492038568346608,55.597829774727856,1553.0,1645.0,1350.0,1528.0,1471.0,995.0,60.0,293.1,1649251786.167845,1649251787.3038328,8c42191c-0ba4-4404-a75b-a70a69dae8d9
-0.0794268320293136,0.0224887154924731,-0.3626760781013757,-0.7724027272178998,-0.4809354772329125,0.9684847489829744,-0.3719196130367537,-0.4002156127197247,-17.960159800572534,14.34098915156986,36.77186103613373,3.992496120698774,-0.0420933320223432,1.7083195317797095,7215.00537109375,11.604888888888889,8.11,178.48470477429177,-10.484419018008763,55.6098474925725,1553.0,1645.0,1350.0,1528.0,1471.0,995.0,60.0,293.1,1649251787.4119208,1649251788.5345504,8c42191c-0ba4-4404-a75b-a70a69dae8d9
-0.0821223149369545,0.0164534638618156,-0.330330279663885,-0.7590041997168452,-0.4504830893609018,0.9804237642358956,-0.3439523311363464,-0.3698552672591526,-18.29872301753464,15.002255972428149,39.60671923277272,3.995376577862919,-0.0870460842156533,1.585809313903788,7215.00537109375,11.608222222222222,8.087777777777777,178.5145693969827,-10.484419018008769,55.686638929956,1553.0,1645.0,1350.0,1528.0,1471.0,995.0,60.0,293.1,1649251788.6427653,1649251789.8598778,8c42191c-0ba4-4404-a75b-a70a69dae8d9
-0.0552595272632733,0.0349405309355195,-0.3696711860846311,-1.0085534393499056,-0.5203684278253522,1.1903295410061476,-0.3266091981567639,-0.3484754834920886,-18.12308874132161,14.633633244205532,39.27336702954861,5.025617542506011,0.0122276507416672,1.709781548251665,7208.9375,11.598999999999998,8.103333333333333,178.60011220396774,-10.425623231813482,55.862503020160446,1553.0,1761.0,1350.0,1528.0,1471.0,995.0,60.0,293.1,1649251792.2075613,1649251793.2586076,71a63848-31d7-498c-9d51-76d48a1e1d2b
-0.0622809313283696,0.0355453709617495,-0.3771002005130567,-1.0021500205122538,-0.5263247886029184,1.1788638782446652,-0.3356292050737639,-0.3624788472980497,-18.05947044415818,14.51841282298656,38.50409908464795,4.984183795967359,0.0196025844178711,1.7399995845909129,7215.00537109375,11.593333333333334,8.092222222222222,178.61630582357998,-10.400183243612384,55.901305324835285,1553.0,1761.0,1350.0,1528.0,1471.0,995.0,60.0,293.1,1649251793.368899,1649251794.574433,71a63848-31d7-498c-9d51-76d48a1e1d2b
