raw_voltage_G-,raw_voltage_G0,raw_voltage_G1,raw_voltage_G2,raw_voltage_G3,raw_voltage_G4,raw_voltage_G5,raw_voltage_G6,load_x,load_y,load_z,load_l,load_m,load_n,rpm,voltage,current,roll,pitch,yaw,aileron1_pwm,elevator_pwm,throttle_pwm,rudder_pwm,aileron2_pwm,pbaro,pdiff,Tt,sample_start_time,sample_end_time,uid
-0.0105772217497935,0.1341216515145843,9.345117606032472e-05,-0.1560852530519912,-0.1566921160111029,0.2284888295741616,-0.2496685793300993,-0.2697582726450893,-14.392618352965805,21.422488874008625,29.57128687675044,1.0050208750389966,0.3624022547004805,0.6064783671355009,3373.2490234375,11.964,0.22,179.89380922774097,-9.334874180169788,109.15320531464958,1553.0,1435.0,1200.0,1528.0,1471.0,998.0,60.0,292.7,1649237940.6960137,1649237941.6674652,508a6abb-39a0-4383-9eff-6e3389693ccf
-0.019477877887623,0.1295575368682167,-0.0061774656183439,-0.1549094560771083,-0.1594862141862178,0.230233560338923,-0.2536131886881341,-0.2689996939564695,-14.485746938835806,21.216392398361627,29.301305905947345,1.0045208048103311,0.3477902218662207,0.6235449885271452,3527.3466796875,11.964333333333334,0.2066666666666666,59.98408732888598,-9.343105127302085,108.67739612322872,1553.0,1435.0,1200.0,1528.0,1471.0,998.0,60.0,292.7,1649237941.7766569,1649237942.8998191,508a6abb-39a0-4383-9eff-6e3389693ccf
0.0250506884371575,0.1339825787720913,-0.0025995030044967,-0.1579184848808094,-0.1574886236300034,0.2290198345929668,-0.2508064474053503,-0.2747143202663409,-14.462579051487724,21.234858551400286,29.37542401508904,1.008905082754766,0.3641635486415505,0.6125730466834123,3546.307861328125,11.968,0.21,-179.97100402574046,-9.336256439703067,108.19929426497644,1553.0,1435.0,1200.0,1528.0,1471.0,998.0,60.0,292.7,1649237943.0083516,1649237944.3325653,508a6abb-39a0-4383-9eff-6e3389693ccf
0.0963823654000411,0.3123244063339558,0.0232680286252459,-0.2572164376158404,-0.1758715139577282,0.1484082153310625,-0.2587588810340361,-0.2762314778134739,-14.079035571039544,20.747304232836765,29.83101389344216,1.0500735276428386,1.0401586231757152,0.6354931035659255,3552.1865234375,11.964666666666666,0.2077777777777777,179.9630354717088,-9.316979274271832,107.5906674916852,1647.0,1435.0,1200.0,1528.0,1543.0,998.0,60.0,292.7,1649237945.2032452,1649237946.249829,c7cac10d-29ef-4fda-be3c-89af709083b0
0.1142342488365779,0.3176344563910147,0.0230404550416429,-0.2597071044558059,-0.1774771721877718,0.1434015965013688,-0.2595301027342647,-0.2918455567546073,-13.961729337669537,20.68262183803205,29.52936844722946,1.0440121666985311,1.0622088811453525,0.639392147164863,3551.2059733072915,11.954333333333333,0.2,179.94197116830847,-9.311924744558544,107.3701958154664,1647.0,1435.0,1200.0,1528.0,1543.0,998.0,60.0,292.7,1649237946.3816268,1649237947.404632,c7cac10d-29ef-4fda-be3c-89af709083b0
0.1263841496749811,0.3156495091081598,0.0233186005336718,-0.2585945223006164,-0.1769082381792275,0.146246266293697,-0.259454244866788,-0.2828184697393143,-14.034872620042242,20.753085125913536,29.80365986839842,1.048382671400962,1.052732619498421,0.6382064600815022,3547.449652777778,11.954777777777776,0.2022222222222222,179.91023355596516,-9.2889070070556,107.11956885406192,1647.0,1435.0,1200.0,1528.0,1543.0,998.0,60.0,292.7,1649237947.5130694,1649237948.6367218,c7cac10d-29ef-4fda-be3c-89af709083b0
0.2110794508215642,0.4684778050959254,0.0491482030175951,-0.3448828541504012,-0.1914097342965064,0.0723986379654352,-0.2667618865935792,-0.3000887790179836,-13.810968008926428,20.629576213440053,29.369391834642325,1.0775933954424604,1.6404551181073577,0.6504843862552634,3546.307861328125,11.947555555555551,0.2055555555555555,179.7612124886538,-9.250887138495678,106.76287360830662,1745.0,1435.0,1200.0,1528.0,1614.0,998.0,60.0,292.7,1649237949.1944523,1649237950.4803448,e35e19af-bbe5-49fd-873a-4be5ebc01187
0.177904280095153,0.4695651010373378,0.0479471201873292,-0.3438967017575357,-0.1941153316677418,0.0702240459052625,-0.2699226312960777,-0.2925535635399567,-13.783432861162336,20.77519723659909,29.322133194972512,1.07139413917925,1.6445620150054163,0.6603399886547664,3550.715087890625,11.931,0.19,179.7215655172516,-9.228932823501012,106.54132731565836,1745.0,1435.0,1200.0,1528.0,1614.0,998.0,60.0,292.7,1649237950.588395,1649237951.7019222,e35e19af-bbe5-49fd-873a-4be5ebc01187
0.1833281170893046,0.4666066446417073,0.0449001626835284,-0.3463620827408226,-0.1955819171594558,0.0743582994038106,-0.2703777785464543,-0.2916938411076803,-13.795636199103589,20.641746970594173,29.16332019603898,1.0851778196434425,1.6350680497046546,0.6665815567205057,3550.715087890625,11.936,0.1933333333333333,179.6666826705408,-9.213363691879184,106.36134500083936,1745.0,1435.0,1200.0,1528.0,1614.0,998.0,60.0,292.7,1649237951.811093,1649237953.1397464,e35e19af-bbe5-49fd-873a-4be5ebc01187
0.278694089153391,0.5956535005389549,0.0693769664342737,-0.4159743282295179,-0.2082248955761578,0.003608198860474,-0.2795565811913388,-0.2985084067715712,-13.638117750811327,20.92606898890191,28.023313176536963,1.0862222212298829,2.1381884738995227,0.6768957339791221,3552.1865234375,11.928,0.1966666666666666,179.4747224806473,-9.145561542353327,106.03026751793108,1849.0,1435.0,1200.0,1528.0,1686.0,998.0,60.0,292.7,1649237954.2639077,1649237955.3142607,f60208eb-e5a5-4d61-b6bd-696c45b24db9
0.2895670488822399,0.599142961898139,0.0754203094815287,-0.4188442845888208,-0.2036734233347843,0.0032794814699996,-0.2741833151664513,-0.3008473579319777,-13.638855660669774,20.963544637005068,28.13038290608663,1.092523512590676,2.1510694463467948,0.6553405133318748,3546.799235026041,11.91,0.19,179.41223535666063,-9.116859095322429,105.86680743071432,1849.0,1435.0,1200.0,1528.0,1686.0,998.0,60.0,292.7,1649237955.422727,1649237956.6216967,f60208eb-e5a5-4d61-b6bd-696c45b24db9
0.2900980538936628,0.5963741501674715,0.0733595042106206,-0.4133066594381716,-0.204368787158606,0.0007761719525931,-0.2766234100954687,-0.3065872704717177,-13.646974417423056,20.955569662754613,28.09658231075472,1.074241760046081,2.140229175822756,0.6622343542753193,3544.352783203125,11.914333333333332,0.19,179.35011250942964,-9.116633699079816,105.73668777356612,1849.0,1435.0,1200.0,1528.0,1686.0,998.0,60.0,292.7,1649237956.730053,1649237957.8462982,f60208eb-e5a5-4d61-b6bd-696c45b24db9
0.3200366218814831,0.7050911001889479,0.0925894722928721,-0.4819959700007254,-0.2176692005019582,-0.0499474537783956,-0.2814277420670625,-0.3049942548833231,-13.32692523853091,21.09214881745381,27.0900329638324,1.117068834516027,2.564318147893423,0.6722783820961962,3536.55419921875,11.899333333333333,0.1877777777777777,179.15592719568653,-9.054380224480948,105.33520925415276,1962.0,1435.0,1200.0,1528.0,1760.0,998.0,60.0,292.7,1649237959.7836874,1649237960.9216082,e786ccfe-bcc8-4b71-8bf2-a16c28f34ab1
0.3394815194158506,0.7013993512166292,0.0952444974557154,-0.4836016286608968,-0.2148245303599258,-0.044978763638086,-0.2764969803099312,-0.2969406776368992,-13.261660093531876,21.081224164084663,27.100942170246203,1.1319504907230558,2.55027904612058,0.6573691239088555,3529.11119249132,11.856111111111112,0.18,179.13898225526566,-9.04758779107885,105.0999183441647,1962.0,1435.0,1200.0,1528.0,1760.0,998.0,60.0,292.7,1649237961.029865,1649237962.1471107,e786ccfe-bcc8-4b71-8bf2-a16c28f34ab1
0.3572322580785516,0.6998316222006632,0.0961800777533427,-0.4791765853861757,-0.2150647469508249,-0.0452821950445212,-0.2775463475578243,-0.301757652225452,-13.24511207314408,21.29797559524756,27.41537258295993,1.122828735307656,2.541013366728057,0.6581302778406459,3525.4020182291665,11.854666666666668,0.18,179.08918106929735,-9.025834587209744,104.92389753906431,1962.0,1435.0,1200.0,1528.0,1760.0,998.0,60.0,292.7,1649237962.2582886,1649237963.3020532,e786ccfe-bcc8-4b71-8bf2-a16c28f34ab1
-0.1405217469832003,-0.0843489960662603,-0.0337012275888899,-0.0499853826900731,-0.1384609415926073,0.3417698981322185,-0.2396300542890648,-0.2583543057459501,-14.95173352782308,22.111087408889937,29.03685631018982,1.0227586665438224,-0.4634954676280526,0.586487934127506,3524.757269965278,11.874444444444444,0.1844444444444444,179.10132362782184,-8.986813526753984,104.4946854159811,1459.0,1435.0,1200.0,1528.0,1394.0,998.0,60.0,292.7,1649237965.313688,1649237966.6580422,6dfb98b7-3a8e-4639-838d-9d2e98a40616
-0.1127324813512037,-0.0972448334378538,-0.0371906893927961,-0.0391503509013266,-0.1373862884557121,0.3445134239787695,-0.2411724976816154,-0.2656366615576005,-15.028898265615783,22.077705882396632,29.03041127178753,1.0040476461112648,-0.5128152268434449,0.5904621009920417,3546.9605305989585,11.959333333333335,0.21,179.37768674201888,-8.970576174958357,104.48185907962971,1459.0,1435.0,1200.0,1528.0,1394.0,998.0,60.0,292.7,1649237966.7662966,1649237967.8865,6dfb98b7-3a8e-4639-838d-9d2e98a40616
-0.1317854492077477,-0.0981930567728184,-0.0371401174667248,-0.0380124829157393,-0.1364127791256023,0.3456007199386963,-0.2409828529796102,-0.2729695892316529,-15.10214172604254,22.055167455376587,29.203336262992188,1.0037679984546275,-0.517523143641638,0.5888943638821951,3554.478461371528,11.957555555555556,0.2,179.33824315847198,-8.95624074625536,104.46775473899363,1459.0,1435.0,1200.0,1528.0,1394.0,998.0,60.0,292.7,1649237967.9952917,1649237969.1206548,6dfb98b7-3a8e-4639-838d-9d2e98a40616
-0.2494789346696476,-0.2925409205214894,-0.0690130640742126,0.0618923239873145,-0.12419966236389,0.4416873388082765,-0.2367348121644398,-0.2628172774821855,-15.457996110970052,22.911297557451856,28.75562764207921,0.9981645277491104,-1.2542655906818745,0.5857858674240485,3565.4853515625,11.959,0.2,179.3467247356013,-8.895618738230743,104.38690806651792,1364.0,1435.0,1200.0,1528.0,1312.0,998.0,60.0,292.7,1649237970.695831,1649237971.774868,664155a3-08c3-4210-b2dd-f58f99776bab
-0.2581140891007598,-0.2918329137008829,-0.0666108983220689,0.0607418130748846,-0.1227583628870968,0.4422815586858473,-0.2348510083685576,-0.2565969316863792,-15.457123107402015,22.981072033581743,28.8037396045353,1.0026853539194065,-1.2517476083063797,0.5779816264365155,3565.4853515625,11.934,0.2,179.32354307355828,-8.892725299343597,104.29271634276888,1364.0,1435.0,1200.0,1528.0,1312.0,998.0,60.0,292.7,1649237971.8840256,1649237973.0056307,664155a3-08c3-4210-b2dd-f58f99776bab
-0.2261147101674509,-0.2868768659557432,-0.0676981944023229,0.0532950995131106,-0.1239847317531391,0.4433688546208952,-0.2338522130473074,-0.2514512394027889,-15.409518000891277,22.763285291496988,28.675927895914462,1.0204323289645516,-1.2315193337681594,0.5801888144671961,3565.4853515625,11.941,0.2,179.31634405417307,-8.89131486527999,104.18005578750407,1364.0,1435.0,1200.0,1528.0,1312.0,998.0,60.0,292.7,1649237973.1143296,1649237974.2322395,664155a3-08c3-4210-b2dd-f58f99776bab
-0.3754409353719265,-0.4822741154961466,-0.0957150331291584,0.1537814804583597,-0.1098498823956458,0.5313513248110339,-0.2312604024323023,-0.2473802003964341,-15.95003487969325,23.948532362614053,27.01234080697752,0.997392857664781,-1.959935885553588,0.5694636876366075,3568.6196560329863,11.916777777777778,0.19,179.35827230875805,-8.865975053186718,104.00651509998232,1262.0,1435.0,1200.0,1528.0,1222.0,998.0,60.0,292.7,1649237975.3514109,1649237976.6948884,a645fb54-dba2-4901-80ec-68c3ba9efc97
-0.3361844844014699,-0.4867750164878995,-0.0969161160286922,0.1606845457621388,-0.1084717978069733,0.5299985263772866,-0.2315891198655491,-0.2630954228594674,-15.958841464732709,23.859324538397484,27.09192645623746,0.9781383929383876,-1.97838760580434,0.5693505380631924,3564.6616482204863,11.895333333333332,0.1811111111111111,179.3335940763769,-8.860412338426435,103.80176120686347,1262.0,1435.0,1200.0,1528.0,1222.0,998.0,60.0,292.7,1649237976.8043234,1649237977.9217136,a645fb54-dba2-4901-80ec-68c3ba9efc97
-0.3459322214545915,-0.4835636994868392,-0.0975861938462513,0.1535665498390261,-0.1104693883123709,0.533715561314943,-0.2318040505059876,-0.2634367831923588,-15.982707180582508,23.85914838029236,27.13255458615675,1.0025074514238854,-1.9657004897031776,0.5736575770680639,3560.2203776041665,11.90488888888889,0.19,179.3399932047193,-8.843185273247324,103.65622429493877,1262.0,1435.0,1200.0,1528.0,1222.0,998.0,60.0,292.7,1649237978.030012,1649237979.1497777,a645fb54-dba2-4901-80ec-68c3ba9efc97
-0.392053810545344,-0.5793342781470247,-0.1074477166409953,0.2118886012873974,-0.1029088875736124,0.5723145669355266,-0.2314500471731201,-0.2621219135561187,-16.14765173536233,24.862858505112715,26.86682012251335,0.9637216009825076,-2.3291645913956223,0.5643192548289017,3547.77587890625,11.86322222222222,0.1822222222222222,179.35963834659208,-8.812032590715418,103.25216548183896,1153.0,1435.0,1200.0,1528.0,1121.0,998.0,60.0,292.7,1649237981.4937184,1649237982.6316593,bf390948-582f-4184-a1e8-72e5309bbed1
-0.4283518054198535,-0.579119347468036,-0.1121888333369817,0.2113955251992686,-0.1073465728037357,0.5695836841253274,-0.2368233130305436,-0.2579750165138501,-16.171736998432515,24.840201923770355,26.405733132806468,0.9582253085109814,-2.3243416362826497,0.5838404081958964,3546.307861328125,11.860666666666669,0.18,179.36030315167125,-8.821155446716833,103.06516628601264,1153.0,1435.0,1200.0,1528.0,1121.0,998.0,60.0,292.7,1649237982.7398784,1649237983.858137,bf390948-582f-4184-a1e8-72e5309bbed1
-0.4110182801705185,-0.575326453193404,-0.1078143629783262,0.2058199725240334,-0.1042237572585155,0.5733133620312808,-0.2314121182041423,-0.2507938046767147,-16.15032459586646,24.802534806253146,26.77217580311221,0.9792207846621628,-2.312552151397484,0.5668770696515946,3541.424858940972,11.866222222222223,0.18,179.35685314723048,-8.823167886064788,102.8900007723783,1153.0,1435.0,1200.0,1528.0,1121.0,998.0,60.0,292.7,1649237983.969737,1649237985.0886958,bf390948-582f-4184-a1e8-72e5309bbed1
0.0227370235927057,0.1347538003582813,-0.0065188260020737,-0.154302593127749,-0.1593724273797709,0.227452105499764,-0.2544981971959517,-0.2787474305452183,-14.526017686619324,21.09301203799054,29.705862882757444,0.9961108869383164,0.3638803667336963,0.6263425187888138,3543.701416015625,11.880555555555553,0.1766666666666666,179.10753909996654,-8.794196215744101,102.70949177408328,1553.0,1435.0,1200.0,1528.0,1471.0,998.0,60.0,292.7,1649237985.6963165,1649237986.932027,50f8a1e4-da92-4825-8e6c-144c1f935426
0.0182740525889151,0.1408982871030148,-0.0019294252108093,-0.1571725491733842,-0.1576276963931533,0.2249867250688106,-0.2511098789013683,-0.2826541110778208,-14.403678087719554,21.15803104847333,29.86474736947512,0.9977912157623532,0.3852972482749764,0.6138873124153541,3549.0816514756943,11.96288888888889,0.2,179.03136124124345,-8.774560749972654,102.92708794066158,1553.0,1435.0,1200.0,1528.0,1471.0,998.0,60.0,292.7,1649237987.0402544,1649237988.3683517,50f8a1e4-da92-4825-8e6c-144c1f935426
-0.0028776485237255,0.1327814959711532,-0.007214189761864,-0.1504591277749856,-0.1587402784690032,0.2267314558381895,-0.2556866371941987,-0.2723627263381389,-14.610328429211275,21.0919382364588,29.824961033326566,0.985756376965068,0.3555068795215446,0.6280259602487567,3561.041259765625,11.962,0.2055555555555555,178.98646413109927,-8.769586000663422,103.11262775273524,1553.0,1435.0,1200.0,1528.0,1471.0,998.0,60.0,292.7,1649237988.4768674,1649237989.6012928,50f8a1e4-da92-4825-8e6c-144c1f935426
-0.0077325518255692,0.128255310249647,-0.0230558405109629,-0.3710791074397672,-0.1958094907721596,0.4450503704474836,-0.2078203202634488,-0.2241424056705708,-14.409044196496309,20.50327050789049,31.47837151403441,1.969686477040789,0.348600937509041,0.632190312211091,3559.562255859375,11.964,0.21,178.9626768589498,-8.696414563540028,103.3065565549295,1553.0,1537.0,1200.0,1528.0,1471.0,998.0,60.0,292.7,1649237990.1944227,1649237991.2326348,c70c5761-46c3-4fa5-811f-c02b55270bc1
0.0148098767977016,0.13039197334217,-0.0200720978234259,-0.3709147487159762,-0.1946842656926231,0.4430401372497343,-0.206859453895976,-0.2283525176959961,-14.39484529020774,20.65155455115134,31.52503061766737,1.965944610024747,0.3562721204592438,0.625497333510793,3564.002685546875,11.957666666666666,0.2,178.93737480262448,-8.6987959279669,103.39585293031844,1553.0,1537.0,1200.0,1528.0,1471.0,998.0,60.0,292.7,1649237991.3413355,1649237992.4620926,c70c5761-46c3-4fa5-811f-c02b55270bc1
0.0082987434597199,0.1260301463199854,-0.0220317593335428,-0.3675137872465744,-0.1938245431622227,0.4435837852213987,-0.2077191764267901,-0.2404392049360199,-14.498315463027144,20.540570255911533,31.43104786916001,1.9585941517659136,0.3409330748714467,0.6275643312787716,3564.002685546875,11.9555,0.2,178.91267645913075,-8.694096888255572,103.45334756547685,1553.0,1537.0,1200.0,1528.0,1471.0,998.0,60.0,292.7,1649237992.5708418,1649237993.612882,c70c5761-46c3-4fa5-811f-c02b55270bc1
0.0125973557406541,0.1187098626971916,-0.040465220571168,-0.593469131042309,-0.2364440236547197,0.670727491612343,-0.1639365425052838,-0.1948865534040053,-14.37530744953965,20.32532879274961,33.22149752682335,2.976718887142382,0.3233859356237951,0.6482359796998673,3565.4853515625,11.96,0.2,178.87217685244715,-8.587040183039676,103.66936254326224,1553.0,1645.0,1200.0,1528.0,1471.0,998.0,60.0,292.7,1649237995.6942894,1649237996.7595422,7ccc824a-acc4-4b4a-8a8e-a274b72d399c
0.0372132325520219,0.1247532056551414,-0.0387710615756791,-0.5927990530375026,-0.2355969440956284,0.6647220780472961,-0.163784826764815,-0.1849618153872932,-14.336718272673751,20.27414073552789,33.30474047537163,2.9614901094046653,0.3450652727634159,0.6454594127663937,3564.002685546875,11.94788888888889,0.19,178.8548069224779,-8.60267676277956,103.67739939918562,1553.0,1645.0,1200.0,1528.0,1471.0,998.0,60.0,292.7,1649237996.8697217,1649237997.9911897,7ccc824a-acc4-4b4a-8a8e-a274b72d399c
0.0122054234718358,0.1249049213790332,-0.035939034607397,-0.5959724413245051,-0.2336878543303366,0.6662392351584094,-0.1617998791969724,-0.1924211725843388,-14.423439105690512,20.37161755597773,33.14406993201493,2.972775687281683,0.3482440072526763,0.6358359257531233,3565.320610894097,11.951,0.2,178.85702749286804,-8.59862949624137,103.69371292656324,1553.0,1645.0,1200.0,1528.0,1471.0,998.0,60.0,292.7,1649237998.099738,1649237999.2285411,7ccc824a-acc4-4b4a-8a8e-a274b72d399c
0.037984454157484,0.1254232834268688,-0.0364953256185242,-0.6973565113046717,-0.2490743593365195,0.766460105441015,-0.1390045896313716,-0.1671478591664853,-14.415781289284563,20.648767207333016,34.27336803550814,3.428676417496887,0.3525770227798538,0.6257537126176176,3575.069146050347,11.93911111111111,0.1944444444444444,178.86846274735848,-8.560270774407627,103.7347221412499,1553.0,1761.0,1200.0,1528.0,1471.0,998.0,60.0,292.7,1649238001.3592763,1649238002.4931445,00932160-a7df-4066-b67c-e624de466be5
0.0252276901009645,0.1252336387750985,-0.0336506556875939,-0.6963197867310117,-0.2465963355273205,0.7644878011906866,-0.1357553443006466,-0.1648468370340287,-14.306483279823356,20.63330439117523,34.12543996384163,3.421976367799256,0.352455670038017,0.6137350078593669,3566.8058268229165,11.934333333333337,0.1977777777777777,178.85891110725916,-8.572953961377648,103.70602548090704,1553.0,1761.0,1200.0,1528.0,1471.0,998.0,60.0,292.7,1649238002.601847,1649238003.604473,00932160-a7df-4066-b67c-e624de466be5
0.0483127550945823,0.1305841465845489,-0.0287254573436121,-0.6957326466807088,-0.2429571805327455,0.7583028573535657,-0.1329420288019706,-0.1621189881399543,-14.292135570402989,20.64814336797542,34.09788829821382,3.407099970809094,0.3729061610262523,0.5986768422834349,3563.3442654079863,11.933555555555555,0.1955555555555556,178.87384341860465,-8.55261489125795,103.67662455216978,1553.0,1761.0,1200.0,1528.0,1471.0,998.0,60.0,292.7,1649238003.7167225,1649238004.9544926,00932160-a7df-4066-b67c-e624de466be5
0.0391349650695024,0.1234509790346726,-0.0319944256217956,-0.706080168860599,-0.2499340818921648,0.7757274068172217,-0.1348703358180069,-0.1667812126263918,-14.268585317184396,21.070931611603648,34.201520443757055,3.472265050611684,0.3461412103028193,0.6144163671498154,3564.002685546875,11.909555555555556,0.1822222222222222,178.89840933231943,-8.549147716480523,103.56872425930156,1553.0,1887.0,1200.0,1528.0,1471.0,998.0,60.0,292.7,1649238005.8628151,1649238007.2074947,520778ec-00ac-4efe-bfc5-765ce2166d0e
0.0115353456918026,0.1263335777650674,-0.0313369908060603,-0.7085076214469989,-0.2514385963891238,0.7734516711452226,-0.1357553442907262,-0.1606367252100991,-14.212696203675836,21.180770953547103,33.959408036686604,3.4733773201728804,0.3590453869317822,0.6168095146622219,3558.905680338541,11.891555555555556,0.1755555555555555,178.90164987762566,-8.5666215222434,103.43927699633166,1553.0,1887.0,1200.0,1528.0,1471.0,998.0,60.0,292.7,1649238007.316646,1649238008.44406,520778ec-00ac-4efe-bfc5-765ce2166d0e
0.0321433986485074,0.1265232224205213,-0.0299715492158336,-0.7072306802073476,-0.2498708669991373,0.7726172347274818,-0.134326687761121,-0.1648089080865886,-14.1967344271123,21.15910124132991,34.04524098098288,3.4685678192963456,0.3588119363558119,0.6109541201461782,3558.0849609375,11.903125,0.18875,178.90087047715036,-8.560638193524698,103.35869480395878,1553.0,1887.0,1200.0,1528.0,1471.0,998.0,60.0,292.7,1649238008.5525396,1649238009.624088,520778ec-00ac-4efe-bfc5-765ce2166d0e
0.0215865126603776,0.1467899142999542,0.0128755012741679,0.01657989364462,-0.1292568535710672,0.0523215902892139,-0.2913019086173002,-0.3149948513115435,-14.69836729327916,22.001157058427207,28.779039908528432,0.2238516254749232,0.3986629754889969,0.6124422935520919,3556.6083984375,11.919,0.1866666666666666,178.90638699327002,-8.79425702340046,103.2653887280721,1553.0,1335.0,1200.0,1528.0,1471.0,998.0,60.0,292.7,1649238010.7260697,1649238011.7757847,9b4d3b42-b8e0-465e-a967-0c84e2885a05
0.0163396770756814,0.1431613799545997,0.0098411867201928,0.0183372674876519,-0.1317348772553594,0.0542559658013988,-0.2938557903521464,-0.3148684215178964,-14.687960450223802,22.04260537185588,28.756600853592097,0.2243595595971629,0.3847709585031684,0.6231247136429998,3557.4287109375,11.963333333333331,0.2,178.87728279830668,-8.786342921154663,103.420873431068,1553.0,1335.0,1200.0,1528.0,1471.0,998.0,60.0,292.7,1649238011.883823,1649238012.9420722,9b4d3b42-b8e0-465e-a967-0c84e2885a05
0.0211313654774136,0.1447164661037336,0.0132547906006091,0.0178694773289525,-0.1286499906181364,0.0519549439584805,-0.2903410421974959,-0.3141224857415035,-14.63715519811218,21.998079577800542,28.611891152851065,0.2201213905890464,0.391799692524814,0.6092993834284819,3559.562255859375,11.963666666666668,0.2,178.8654377324661,-8.784615262749604,103.57134325739328,1553.0,1335.0,1200.0,1528.0,1471.0,998.0,60.0,292.7,1649238013.050502,1649238014.3754408,9b4d3b42-b8e0-465e-a967-0c84e2885a05
-0.0129793874862206,0.1485725740311686,0.0260241976807978,0.2138229767534466,-0.0994573545659615,-0.1408378214388766,-0.3366143456933119,-0.3566661112793851,-14.81549183294815,22.80168638641894,27.256345243576074,-0.6494755953217027,0.3962359048050882,0.6178334947170019,3561.5962524414062,11.959125,0.19,178.84151101062108,-8.831163737137214,103.85067589119576,1553.0,1236.0,1200.0,1528.0,1471.0,998.0,60.0,292.7,1649238016.31007,1649238017.4533432,06f97014-8920-47e8-a49f-bb2b60bba65b
-0.0239914208350107,0.1512908140393976,0.027452854110099,0.2143413387922635,-0.0985217742072557,-0.1443272833977165,-0.3368545623033249,-0.3594728524077258,-14.862047835983647,22.82881822840969,27.211295103386643,-0.6582657985722212,0.4071869555883814,0.6151800217140966,3563.6734754774307,11.944666666666668,0.19,178.83355289160062,-8.830746170676392,103.92133125738366,1553.0,1236.0,1200.0,1528.0,1471.0,998.0,60.0,292.7,1649238017.5857074,1649238018.6758797,06f97014-8920-47e8-a49f-bb2b60bba65b
-0.0290233258913826,0.1452474711266995,0.0222818763930165,0.2163895009982446,-0.1024663833186093,-0.1402815304130175,-0.3407738858957622,-0.3621025920524512,-14.86209872738644,22.8629076066615,27.177379887817875,-0.653831533011338,0.3842422883541931,0.6324064678894422,3562.521240234375,11.958888888888891,0.1955555555555555,178.833648514249,-8.830949843122893,104.00221966990426,1553.0,1236.0,1200.0,1528.0,1471.0,998.0,60.0,292.7,1649238018.7849607,1649238019.832982,06f97014-8920-47e8-a49f-bb2b60bba65b
-0.0030925791288294,0.1490530071478801,0.0424979970045863,0.3386091540484418,-0.076093131611225,-0.2622862721403474,-0.3609394379693567,-0.3923066701919335,-14.939249770134309,23.73564893970873,26.3532502823933,-1.1970681426236616,0.3926141982890382,0.5975973959659202,3555.13330078125,11.94422222222222,0.19,178.8380061749395,-8.882932895076046,104.12501660535231,1553.0,1133.0,1200.0,1528.0,1471.0,998.0,60.0,292.7,1649238021.8431728,1649238022.9773705,df0d453e-80fb-427f-b813-59ec3d10ca0f
-0.0024098583672066,0.1488380765388521,0.0378453813917551,0.3332738180314196,-0.0809480350736316,-0.2572164377552259,-0.3637714653368301,-0.3922560982734907,-14.912273038875028,23.68758648320508,26.31724807112421,-1.1741827775230214,0.3922973577791889,0.6144992066652267,3552.1865234375,11.937,0.19,178.84583964300757,-8.86858570326948,104.13742174670487,1553.0,1133.0,1200.0,1528.0,1471.0,998.0,60.0,292.7,1649238023.086038,1649238024.2057295,df0d453e-80fb-427f-b813-59ec3d10ca0f
-0.0321967132462426,0.144855538839917,0.0406774082819486,0.3359035571318947,-0.0769022821979006,-0.2553832057556206,-0.3602187881382556,-0.3821796435146023,-14.957261550126104,23.69118030883154,26.392108072422136,-1.175841180581308,0.3768711745481664,0.5996839424840389,3543.375732421875,11.944333333333333,0.19,178.85656759346395,-8.874781538620326,104.16616318273228,1553.0,1133.0,1200.0,1528.0,1471.0,998.0,60.0,292.7,1649238024.3142045,1649238025.4352922,df0d453e-80fb-427f-b813-59ec3d10ca0f
0.004986283426916,0.1474852780222213,0.047239113456746,0.3963622693850318,-0.069227994710048,-0.317814235711148,-0.3764523737612121,-0.4065805944211507,-15.011506042151868,24.34038991003696,25.75329760742748,-1.4480108005773669,0.3857632113180758,0.6030430644028745,3541.91162109375,11.935666666666666,0.1866666666666666,178.85947725405038,-8.921467589144658,104.1916580021742,1553.0,1026.0,1200.0,1528.0,1471.0,998.0,60.0,292.7,1649238026.3453274,1649238027.483395,93c08c2b-7978-4eb0-bbe5-dda2d7c5ac54
-0.0085543453906513,0.1488127905869299,0.0451530221914305,0.3946175386562975,-0.0720853076986462,-0.3165120089759731,-0.3779695313854997,-0.4059231595269693,-14.929723315996636,24.33434911835351,25.880621266377187,-1.4412312932514526,0.3891173503351174,0.6123230910745481,3537.5263671875,11.93,0.19,178.85753292686664,-8.908417658961701,104.18017190071998,1553.0,1026.0,1200.0,1528.0,1471.0,998.0,60.0,292.7,1649238027.592064,1649238028.7112904,93c08c2b-7978-4eb0-bbe5-dda2d7c5ac54
-0.0264694444765015,0.1474726350450113,0.046240318243055,0.3927590211702322,-0.0712002992401643,-0.3129972607350132,-0.3765029457263404,-0.3974397201683344,-14.97325274540221,24.383500080803103,25.959737420579284,-1.4287701568287834,0.3839964239891963,0.607429985969344,3537.5263671875,11.929777777777778,0.1722222222222222,178.86133506550462,-8.922557099181013,104.1882702283459,1553.0,1026.0,1200.0,1528.0,1471.0,998.0,60.0,292.7,1649238028.8194923,1649238029.9409437,93c08c2b-7978-4eb0-bbe5-dda2d7c5ac54
0.0270735648000276,0.1395328456051235,-0.0042810190009045,-0.1652008403314062,-0.1598402175693524,0.2365676915833002,-0.2508443763447501,-0.2803025172337125,-14.507699024460546,21.135113783981083,30.262499043600823,1.0416670791869835,0.3782259713528342,0.619990351991388,3555.298773871528,11.956777777777775,0.19,178.88432548225086,-8.755132656333506,104.14664781445374,1553.0,1435.0,1200.0,1528.0,1471.0,998.0,60.0,292.7,1649238031.8745234,1649238033.2220235,25efa4ad-2840-4bde-ba61-28c7f061f5b0
0.0221175176938689,0.1355376649223857,-0.0047488091632956,-0.1646698352385819,-0.1593092124849862,0.2408536606258944,-0.250111083580309,-0.2719328649932301,-14.550275499330487,21.143422130592786,30.38588114538877,1.0501304266191265,0.3623545355200823,0.6185227742538847,3574.242513020833,11.96388888888889,0.1977777777777777,178.8877542372142,-8.754611190363123,104.20435001147192,1553.0,1435.0,1200.0,1528.0,1471.0,998.0,60.0,292.7,1649238033.3304422,1649238034.455453,25efa4ad-2840-4bde-ba61-28c7f061f5b0
0.0017370382385793,0.1442107470318515,-0.0003490530398016,-0.1679317236115341,-0.1575139095952321,0.235986114666018,-0.247456058067974,-0.2665848850394469,-14.46932301659643,21.1468607468914,30.5016156798278,1.0468514935801694,0.3939657402591996,0.6075392416835445,3580.37841796875,11.961111111111112,0.1922222222222222,178.90557799530836,-8.752210948052294,104.24286620711152,1553.0,1435.0,1200.0,1528.0,1471.0,998.0,60.0,292.7,1649238034.5890765,1649238035.6762657,25efa4ad-2840-4bde-ba61-28c7f061f5b0
0.0448875197121103,0.146612912624409,0.0728790710908926,-0.1698787422583714,-0.0890521838123371,0.2287796180385707,-0.170081029913156,-0.1878697004196404,-13.945401751621112,21.07142672438134,30.135049499835084,1.0384010367708552,0.4073967155719057,0.3044622803584355,3588.03955078125,11.964444444444446,0.19,178.89534637193162,-8.76444979327131,104.27417882990648,1553.0,1435.0,1200.0,1435.0,1471.0,998.0,60.0,292.7,1649238036.7905118,1649238037.9248292,7bcb6d98-0bd6-43b8-ad2e-82beb89f9df4
0.0521319456387531,0.1505828073417928,0.0702872607850752,-0.1723314800413867,-0.0925795746271065,0.2253407284155133,-0.1742026408175915,-0.1990460932297101,-13.971567469640664,21.077998856910728,29.852459184002694,1.036062463058619,0.4251138088227402,0.3187072201069935,3585.037516276041,11.967666666666666,0.1988888888888889,178.8823371382925,-8.766522565956933,104.34060166067496,1553.0,1435.0,1200.0,1435.0,1471.0,998.0,60.0,292.7,1649238038.0360725,1649238039.1565282,7bcb6d98-0bd6-43b8-ad2e-82beb89f9df4
0.0120284217880611,0.1459681208090573,0.0698447565923069,-0.170687892870487,-0.0932370094712188,0.2256441598502521,-0.1743922854926373,-0.1975415788671215,-13.894425881916524,21.173651454102405,29.464205552099617,1.0336257841362977,0.4104722306079915,0.3193989910945761,3560.057400173612,11.965111111111112,0.1988888888888889,178.8849143963393,-8.773043973658218,104.36132217788706,1553.0,1435.0,1200.0,1435.0,1471.0,998.0,60.0,292.7,1649238039.2645156,1649238040.3863728,7bcb6d98-0bd6-43b8-ad2e-82beb89f9df4
0.0722469222142885,0.1627200650469166,0.1722022975929564,-0.1796517644685951,-0.0005766266253765,0.2108771631989192,-0.0691394938568344,-0.0884326780078496,-13.184290882822198,21.055853174131546,29.32195934574085,1.025313281253748,0.477127339150836,-0.0938972181843314,3517.3650716145835,11.963333333333331,0.1944444444444444,178.885468400572,-8.773257227342304,104.36122276068916,1553.0,1435.0,1200.0,1330.0,1471.0,998.0,60.0,292.7,1649238042.3203442,1649238043.45821,854f06a3-57e3-424b-9b50-c0e4865c14b4
0.0448495907854287,0.158345595084405,0.1702047072613283,-0.1767438794491646,-0.0013731342091988,0.2114966690605361,-0.0706692941572893,-0.0931737945891015,-13.198721952554704,21.06655807597351,29.16782366762411,1.0200855805488034,0.461704179413081,-0.0886469958591607,3513.0396592881943,11.958222222222222,0.1988888888888889,178.89560136566064,-8.772777216825633,104.36747617832924,1553.0,1435.0,1200.0,1330.0,1471.0,998.0,60.0,292.7,1649238043.5666344,1649238044.6867352,854f06a3-57e3-424b-9b50-c0e4865c14b4
0.0552926899008666,0.161683340952338,0.1719747240117298,-0.1774139572936026,-0.001094988697942,0.2118886013339768,-0.0705681503298172,-0.0884832499053894,-13.238780786948247,21.17730060972669,29.60655861996788,1.0233498690906804,0.4708143741885254,-0.0906392506689179,3509.3639865451387,11.95811111111111,0.1955555555555555,178.928664034703,-8.763902334636587,104.35336197186436,1553.0,1435.0,1200.0,1330.0,1471.0,998.0,60.0,292.7,1649238044.795373,1649238045.9118364,854f06a3-57e3-424b-9b50-c0e4865c14b4
0.1083173356195879,0.1788525033501031,0.2756344888709444,-0.1778691045194362,0.0906677397697009,0.1892197442273482,0.0315238927495357,0.0005233123381796,-12.439386024231116,21.35713640629888,29.50171057889539,0.9801760200399652,0.5371110824750537,-0.4998695617272376,3513.2401428222656,11.955625,0.19,178.94668397100824,-8.778692516385883,104.2874169697466,1553.0,1435.0,1200.0,1210.0,1471.0,998.0,60.0,292.7,1649238047.8495257,1649238048.9875803,bc40536e-9b22-415d-8ea8-60a1a8f57448
0.0910470290825517,0.1757170451276857,0.2799457438281814,-0.1758462279914603,0.0952065685168336,0.1908254022683438,0.0362776522052778,0.0154799543343316,-12.430634915660557,21.409006928404672,29.59220967906451,0.9797983930463742,0.5245123092287264,-0.5189458479680851,3512.879638671875,11.95588888888889,0.19,178.9517971265119,-8.781877115802336,104.2854289103794,1553.0,1435.0,1200.0,1210.0,1471.0,998.0,60.0,292.7,1649238049.1003482,1649238050.4209635,bc40536e-9b22-415d-8ea8-60a1a8f57448
0.1151445432099282,0.1800915150671228,0.2801986033685804,-0.1774266002748975,0.0943342031180132,0.1902691112934946,0.0355822884699991,0.0096894709852345,-12.434517983982447,21.42598801058477,29.913488803768345,0.9822876851017748,0.5383101213725108,-0.5161533748833522,3519.4513346354165,11.955555555555556,0.19,178.9600813870652,-8.782584989018817,104.2767522934038,1553.0,1435.0,1200.0,1210.0,1471.0,998.0,60.0,292.7,1649238050.529567,1649238051.6506135,bc40536e-9b22-415d-8ea8-60a1a8f57448
0.1262956488310445,0.1860590000642984,0.3454363612349341,-0.150888989040412,0.1550710640784073,0.1583455950773273,0.0921596110677738,0.0658622187639705,-12.121322481835572,21.789196447473003,30.14323900067688,0.8565393680305031,0.5573133651446696,-0.7670107220151346,3546.307861328125,11.957,0.19,178.954873747278,-8.799473770106538,104.2107977100484,1553.0,1435.0,1200.0,1071.0,1471.0,998.0,60.0,292.7,1649238053.789119,1649238055.1413844,75fb4c51-21a8-468e-b00d-b7c8e13588a0
0.1354744500375476,0.1878795887027443,0.3547415917536397,-0.1546818824824024,0.1628338518140199,0.1572709420490623,0.1020464190633659,0.0778604040423302,-12.02327743368784,21.781972836248748,29.821199656129355,0.8630937881374438,0.5673587331388261,-0.8045403241737343,3540.9363606770835,11.946666666666664,0.1833333333333333,178.95887472031183,-8.809466431726001,104.1990027322617,1553.0,1435.0,1200.0,1071.0,1471.0,998.0,60.0,292.7,1649238055.2497451,1649238056.360202,75fb4c51-21a8-468e-b00d-b7c8e13588a0
0.1200247322784586,0.1914701940748561,0.3531612197075321,-0.1561863968783226,0.1615569111416291,0.1552986376766152,0.1010349808782151,0.0868369176874816,-11.991341710434147,21.63721886722236,29.835592288157613,0.8610356591069905,0.5805546874526173,-0.7986834767182531,3541.91162109375,11.943888888888887,0.19,178.94744250146107,-8.812517818737705,104.17820252950928,1553.0,1435.0,1200.0,1071.0,1471.0,998.0,60.0,292.7,1649238056.4686282,1649238057.5912788,75fb4c51-21a8-468e-b00d-b7c8e13588a0
-0.0073153335732479,0.1203281637410478,-0.1092177335044231,-0.1486638248933196,-0.255775138062648,0.2424972475669838,-0.3636450355477726,-0.3865035424871494,-15.296273054578698,21.53216767226638,29.75661085653011,1.0146175087879874,0.3075799904585576,1.050694870611389,3547.449652777778,11.95211111111111,0.19,179.0073660277793,-8.8125952275483,104.21809007535226,1553.0,1435.0,1200.0,1613.0,1471.0,998.0,60.0,292.7,1649238059.191246,1649238060.4566357,f4cdaa14-7b70-4aa1-8540-299b144ffbcd
-0.0456741273230586,0.1238176253679595,-0.1099130972931706,-0.1507499162980787,-0.2572922955115947,0.2414225945624791,-0.3648461185873412,-0.3880712719558853,-15.283493312626245,21.51676499824379,29.80959168937552,1.0167864788971603,0.3203200724046635,1.055913155311246,3548.9184299045137,11.964444444444444,0.19,179.01423871590416,-8.80910082687793,104.22575354760102,1553.0,1435.0,1200.0,1613.0,1471.0,998.0,60.0,292.7,1649238060.5653532,1649238061.6848114,f4cdaa14-7b70-4aa1-8540-299b144ffbcd
-0.0360022495057368,0.117774282407521,-0.1140979229880201,-0.1454777944038266,-0.2596312465829725,0.2436098295013976,-0.3690435877703889,-0.3829002933252367,-15.37314983576672,21.57731499657037,29.93629417994743,1.009976955706339,0.2962520880393333,1.0701857052716632,3549.244873046875,11.964777777777776,0.19,179.00518643852416,-8.795932886204314,104.22412492693891,1553.0,1435.0,1200.0,1613.0,1471.0,998.0,60.0,292.7,1649238061.7935314,1649238063.118666,f4cdaa14-7b70-4aa1-8540-299b144ffbcd
-0.0761057745650673,0.1058519551597658,-0.206796239007972,-0.1286247046542593,-0.3443771349793854,0.2433696129511299,-0.4692012739387449,-0.4835004847199292,-15.989370200125752,21.80679421271043,29.70578495890309,0.967979269649014,0.2499929026207877,1.4524288152562284,3553.1687825520835,11.962666666666667,0.1833333333333333,179.02985859962607,-8.789860942895912,104.23898893639269,1553.0,1435.0,1200.0,1694.0,1471.0,998.0,60.0,292.7,1649238064.2341566,1649238065.38327,3cd84291-a4f1-4011-9828-0115485990a8
-0.0678499101489256,0.1078116165834512,-0.204836577353185,-0.1313682308855408,-0.3425818319193179,0.244633910597478,-0.4653578079712265,-0.4892403980941506,-15.887311042424017,21.68157825987074,29.822569596623456,0.9763465347966064,0.2560453108172106,1.4423405779867515,3553.986762152778,11.964555555555556,0.19,179.0132597221231,-8.78443227059809,104.23976909577787,1553.0,1435.0,1200.0,1694.0,1471.0,998.0,60.0,292.7,1649238065.5170777,1649238066.5996618,3cd84291-a4f1-4011-9828-0115485990a8
-0.0448776197382232,0.1058898840890327,-0.2086926857769125,-0.1271201902698666,-0.3461218661249262,0.2435592576007743,-0.4711988648219533,-0.4976859085922424,-15.978756059020292,21.81158397892002,29.919739780635,0.9649883807305304,0.2478583773930795,1.4605594140900835,3557.7568359375,11.96388888888889,0.1877777777777777,179.00245132721653,-8.78702309415951,104.24750921792732,1553.0,1435.0,1200.0,1694.0,1471.0,998.0,60.0,292.7,1649238066.707646,1649238067.8274086,3cd84291-a4f1-4011-9828-0115485990a8
-0.0949817404096186,0.1012751974972165,-0.2876607306681454,-0.1045145457177239,-0.4190971441750512,0.2306634215364923,-0.5620892520663785,-0.5762367478558448,-16.575242329981645,22.131887681663173,29.748361138828923,0.8828805952953751,0.2285072452239407,1.7958545844248983,3554.478461371528,11.959444444444443,0.19,179.02705215078709,-8.786166854056058,104.23069329219076,1553.0,1435.0,1200.0,1774.0,1471.0,998.0,60.0,292.7,1649238069.7637565,1649238070.899192,3c2b88ac-3663-4236-900e-62bd9de4095f
-0.0963218960795072,0.0951054247317882,-0.2885710251837801,-0.1015687318741308,-0.418186849673251,0.232838013506978,-0.5620513231798154,-0.5824570947085727,-16.63508716767797,22.1352320444634,29.580752041229097,0.8810421608756974,0.2068555845797124,1.7948012240328244,3556.280598958333,11.95077777777778,0.1822222222222222,179.03669789571495,-8.78658577232515,104.1832371378375,1553.0,1435.0,1200.0,1774.0,1471.0,998.0,60.0,292.7,1649238071.0078747,1649238072.1308708,3c2b88ac-3663-4236-900e-62bd9de4095f
-0.0997481430548333,0.0991764633210984,-0.2861182872376602,-0.1004940787462941,-0.4169857665445964,0.2271233881115218,-0.5609134548507225,-0.5874005000934766,-16.535749953140048,22.13658326173216,29.48943747450545,0.8659430155288825,0.2222538893977374,1.788644013470415,3555.7888997395835,11.94788888888889,0.1855555555555555,179.03394912402902,-8.791145492778567,104.15564165577084,1553.0,1435.0,1200.0,1774.0,1471.0,998.0,60.0,292.7,1649238072.2395265,1649238073.5671146,3c2b88ac-3663-4236-900e-62bd9de4095f
-0.1053742682098274,0.0886954353864991,-0.3477401675092827,-0.0704037916197556,-0.4729056671807397,0.2147585570231272,-0.6344071047401463,-0.6493258230585771,-17.057932436330464,22.625354200724185,29.687315506407792,0.7702217264126447,0.1772827856940405,2.052154586655995,3555.13330078125,11.948,0.18,179.03970773240923,-8.794815391365109,104.118263066083,1553.0,1435.0,1200.0,1856.0,1471.0,998.0,60.0,292.7,1649238074.1920445,1649238075.148431,087e91ae-051e-45b9-9ebd-82c3676e42ad
-0.0928324341770609,0.0853071175434522,-0.3525697858678231,-0.0669522587036799,-0.4750423310787142,0.2146700561867119,-0.6384781451062296,-0.6669880686399132,-17.15429861244864,22.513261034246828,29.62223226506545,0.7611945957702267,0.165100390277671,2.066951491944434,3555.13330078125,11.933333333333334,0.18,179.050786299243,-8.793593072094893,104.04397109848075,1553.0,1435.0,1200.0,1856.0,1471.0,998.0,60.0,292.7,1649238075.2571118,1649238076.30375,087e91ae-051e-45b9-9ebd-82c3676e42ad
-0.113832420449877,0.0879242137902332,-0.3450724988659939,-0.0696704989192066,-0.4691127731034468,0.2141390511679333,-0.6311072865439603,-0.6503751907639183,-17.098900895035744,22.54098571595049,29.61207101180947,0.7667164116867539,0.1754244916518987,2.0384669259115613,3552.1865234375,11.933333333333334,0.18,179.02862005865657,-8.79227674285985,103.9971182775042,1553.0,1435.0,1200.0,1856.0,1471.0,998.0,60.0,292.7,1649238076.411947,1649238077.4547882,087e91ae-051e-45b9-9ebd-82c3676e42ad
-0.0018626702883913,0.1269682551979112,-0.1144549607723283,-0.1498775509112634,-0.2301897950996497,0.2455563421649151,-0.3268721717183617,-0.3492118103073551,-14.51997284034131,17.49777019614942,31.12250193824544,0.997832784773621,0.3146330529191086,0.975546858653528,7215.00537109375,11.637,8.0,-179.18422087486837,-8.924975745057104,91.11029073519876,1553.0,1435.0,1350.0,1528.0,1471.0,998.0,60.0,292.7,1649238082.2116594,1649238083.1894035,49dddc09-9f0a-43c8-ab17-67c77edf58cc
-0.0356735321000277,0.1263335777581256,-0.1132382006098425,-0.1478293884503628,-0.2290984532077198,0.2433822559192052,-0.3253747372865715,-0.3424933313632318,-14.413956394293375,17.48569938891857,31.00324949667452,0.9883420941247516,0.3123839584324487,0.97012186725952,7216.35595703125,11.637555555555556,7.956666666666667,-178.7749271012247,-8.838918586882052,86.2742602912809,1553.0,1435.0,1350.0,1528.0,1471.0,998.0,60.0,292.7,1649238083.2981956,1649238084.242898,49dddc09-9f0a-43c8-ab17-67c77edf58cc
-0.004344233896484,0.12575200081705,-0.110848677772535,-0.1448709315854323,-0.2257354209028693,0.246505071117688,-0.323769078909483,-0.345515003196583,-14.590169167076162,17.535573604103337,31.76871149787906,0.9891688455096844,0.3044536910681854,0.9608894843049616,7225.142578125,11.636666666666663,8.01,-178.4808070130054,-8.748903998129144,81.36140236175892,1553.0,1435.0,1350.0,1528.0,1471.0,998.0,60.0,292.7,1649238084.351928,1649238085.6433372,49dddc09-9f0a-43c8-ab17-67c77edf58cc
0.070944695602166,0.3150552892130777,-0.1000768606220312,-0.2558383531029221,-0.2618311250133916,0.1607856895751124,-0.3490803233678574,-0.3664644202512252,-14.2184167731014,16.99030543277417,31.37374182691112,1.0439071517464018,1.0296616452689764,1.053267223041971,7231.915364583333,11.627444444444444,8.04,-178.63521937630162,-8.582855174353227,73.39871242693478,1647.0,1435.0,1350.0,1528.0,1543.0,998.0,60.0,292.7,1649238086.967656,1649238088.104915,9e3a145b-9d77-472a-a633-525150ac80fb
0.071652702318646,0.3177229572223096,-0.0949438116157646,-0.2558636391047387,-0.2571026509699639,0.1609500482880242,-0.3436817711787242,-0.3633542470338686,-14.189813100325043,16.95175988095231,31.80597428657063,1.0444168939095837,1.0359615745595636,1.0331115868134826,7233.2705078125,11.625444444444446,8.037777777777778,-178.7663240985101,-8.574057700974775,70.40748723926089,1647.0,1435.0,1350.0,1528.0,1543.0,998.0,60.0,292.7,1649238088.213505,1649238089.335152,9e3a145b-9d77-472a-a633-525150ac80fb
0.1068128213943845,0.319240114378224,-0.0903417676841169,-0.2546625561179171,-0.2536890467080773,0.1601788267081278,-0.3405336693452122,-0.3686390124654526,-14.19876204635718,17.06410601218784,32.09325260749657,1.0409897033881552,1.0393148055865258,1.018253736683485,7235.986002604167,11.627222222222224,8.05,-178.92145894403848,-8.5333682719505,67.96000734013244,1647.0,1435.0,1350.0,1528.0,1543.0,998.0,60.0,292.7,1649238089.444177,1649238090.3905883,9e3a145b-9d77-472a-a633-525150ac80fb
0.2043660302424672,0.4810322803053031,-0.0649925972761524,-0.3523422121357591,-0.2721477957011669,0.0870771343075918,-0.3502181914967717,-0.3807383438863369,-14.040672978312134,17.02234753070158,31.510879528007592,1.0980339539966202,1.663809189399785,1.0406569190118586,7239.38037109375,11.618333333333334,8.043333333333333,-179.56418429839613,-8.553892705815175,63.085189010827975,1745.0,1435.0,1350.0,1528.0,1614.0,998.0,60.0,292.7,1649238092.292474,1649238093.429984,93c9e8c4-2ef4-4b23-8378-c21ee560940f
0.1758308319003444,0.4848504590659256,-0.071958877980292,-0.3520514236627147,-0.2791899349088496,0.0810590772465317,-0.3584487710428518,-0.3853530315249604,-14.00828147551795,16.951108538896392,31.16764648518467,1.082997094256277,1.6804638523885496,1.0714953058796206,7239.38037109375,11.6075,8.04125,-179.8213101847959,-8.54462534862413,61.485534516957685,1745.0,1435.0,1350.0,1528.0,1614.0,998.0,60.0,292.7,1649238093.5386326,1649238094.6596563,93c9e8c4-2ef4-4b23-8378-c21ee560940f
0.1888657408774054,0.4806403480462149,-0.0692785667132377,-0.348233243901657,-0.276067119145622,0.080717716863842,-0.355932818163784,-0.3717997574261001,-13.999373909020765,17.028469797821153,31.051608792499287,1.0742494193172765,1.6653398997008122,1.059341049935438,7245.5,11.608,8.04,-60.016826702307576,-8.580494015902651,60.14562130275678,1745.0,1435.0,1350.0,1528.0,1614.0,998.0,60.0,292.7,1649238094.76828,1649238095.8873346,93c9e8c4-2ef4-4b23-8378-c21ee560940f
0.2521059097035695,0.620016515166409,-0.0364573968137979,-0.4313102629679918,-0.282995471586508,0.0104859785155177,-0.3573994037984639,-0.3823313592695456,-13.958438837977146,17.24546282355683,29.724822457928585,1.1067125831647426,2.211867738281888,1.0403313117711277,7239.38037109375,11.603555555555555,8.045555555555556,179.55039186973218,-8.580287592407732,58.39240964219261,1849.0,1435.0,1350.0,1528.0,1686.0,998.0,60.0,292.7,1649238096.7979765,1649238097.9402342,eaf0168a-103c-4feb-b940-d716ade4fff8
0.2617777866640128,0.6162994802423628,-0.0385055592182018,-0.4308551157823225,-0.2849551333990279,0.0156443132829782,-0.3575005476987253,-0.3731778421933838,-13.853337444241092,17.26824618481239,29.9906849395394,1.1174216838225774,2.194640888539177,1.0459296741491646,7233.2705078125,11.58375,8.05,179.308847921559,-8.611166012013747,57.46162419009305,1849.0,1435.0,1350.0,1528.0,1686.0,998.0,60.0,292.7,1649238098.0483634,1649238099.16595,eaf0168a-103c-4feb-b940-d716ade4fff8
0.2857867989371417,0.6169063430862012,-0.0326265745915896,-0.4288322390759721,-0.2786462868443801,0.0156569562447317,-0.3516468481475762,-0.3763638729076245,-13.893101823982995,17.245617081613304,30.387233984665315,1.1130728989643726,2.1938070845771653,1.0216206169092188,7227.17236328125,11.580666666666666,8.053333333333335,179.1268837135158,-8.614534255769916,56.694237922690135,1849.0,1435.0,1350.0,1528.0,1686.0,998.0,60.0,292.7,1649238099.2739742,1649238100.361449,eaf0168a-103c-4feb-b940-d716ade4fff8
0.3299709669219984,0.7543188027624903,-0.0006661389724906,-0.5118086236879297,-0.2903187906346489,-0.0445696368266511,-0.354366100136954,-0.3816102037541292,-13.67252714394472,17.851571035853723,30.20793737702273,1.1706009061548652,2.7214678491325786,1.0133770861093454,7227.17236328125,11.58,8.05,178.803833979612,-8.623912105500343,55.73951408050576,1962.0,1435.0,1350.0,1528.0,1760.0,998.0,60.0,292.7,1649238101.3037198,1649238102.441694,60f867b8-c1de-41c9-8516-79eaa1b62e2f
0.3286844176665177,0.7512126764283085,-0.0064556112516771,-0.5205570604720123,-0.2968648195414171,-0.0422225945254021,-0.3566155391391099,-0.3763891589890534,-13.442199603280075,17.74870966516987,28.93354979239978,1.194551992339584,2.720191003855682,1.0313407537318275,7227.17236328125,11.52,8.033333333333335,178.6136177646866,-8.6399229226885,55.11281348830581,1962.0,1435.0,1350.0,1528.0,1760.0,998.0,60.0,292.7,1649238102.5502713,1649238103.6693883,60f867b8-c1de-41c9-8516-79eaa1b62e2f
0.3642364669012879,0.7508081011984815,-0.0081876991969148,-0.5176238891068776,-0.2959039531487489,-0.0434616062772413,-0.3585119860182516,-0.3821922865230013,-13.633016123362346,17.615068624220427,29.07359991760134,1.1841053551298029,2.7183096846780384,1.0351888809874197,7227.17236328125,11.520888888888887,8.03,178.44038898913692,-8.669583303750494,54.604541166669776,1962.0,1435.0,1350.0,1528.0,1760.0,998.0,60.0,292.7,1649238103.7782097,1649238105.1092422,60f867b8-c1de-41c9-8516-79eaa1b62e2f
-0.1452755067975943,-0.108737300327553,-0.1373357166585785,-0.0501876704602904,-0.2011574707463693,0.3782322415723878,-0.2986601224651423,-0.3149442795807729,-14.890917478286449,18.329787005084487,30.214936383486823,1.075142135562293,-0.5724472680033496,0.8974975921448577,7228.527506510417,11.542555555555555,8.044444444444444,178.71541945753592,-8.712738525928883,53.90434849791041,1459.0,1435.0,1350.0,1528.0,1394.0,998.0,60.0,292.7,1649238106.218779,1649238107.3570986,a7c1e5c2-c244-4244-b46f-7198fac394a5
-0.137386288453753,-0.1130359128198226,-0.1328727454209358,-0.0454086248969965,-0.1952658428200772,0.3806976219287522,-0.2931730695774609,-0.3199761851866847,-14.909039750897092,18.32888824034911,30.63042170246015,1.0701751951116172,-0.5924293387562374,0.8756725381857795,7233.2705078125,11.622333333333334,8.07,178.59539026652158,-8.73103195439216,53.62895944457999,1459.0,1435.0,1350.0,1528.0,1394.0,998.0,60.0,292.7,1649238107.465566,1649238108.5100431,a7c1e5c2-c244-4244-b46f-7198fac394a5
-0.1724452668447253,-0.1109498214690982,-0.1378287928131518,-0.049024516508591,-0.1999563877967262,0.3786747457380108,-0.2976613271291865,-0.3214806996591683,-14.900006194834296,18.20867228570212,30.12542953387549,1.0726664322195612,-0.5800644644072366,0.8947713126866266,7233.2705078125,11.623888888888889,8.063333333333333,178.5312213981792,-8.723727636257262,53.43815090047156,1459.0,1435.0,1350.0,1528.0,1394.0,998.0,60.0,292.7,1649238108.6187956,1649238109.6094158,a7c1e5c2-c244-4244-b46f-7198fac394a5
-0.2784439990604707,-0.3142109865923325,-0.1533037980253098,0.0495780641215723,-0.1708901806504657,0.4860136128572581,-0.2724259412085746,-0.2889882435289376,-15.17457439022628,19.092790637868784,30.00828333349411,1.0963814256349589,-1.3525419522698483,0.8158962503297531,7233.2705078125,11.627111111111113,8.07888888888889,178.47170768321115,-8.716677742668947,53.06399958847248,1364.0,1435.0,1350.0,1528.0,1312.0,998.0,60.0,292.7,1649238110.724475,1649238111.862558,92d56de7-1848-4eba-9ca9-dff192a925a4
-0.2463561189167747,-0.3141604146786462,-0.1496626203093271,0.052131945546783,-0.1665283531574079,0.4839907366952113,-0.2696824148001927,-0.2942856516810588,-15.26457989990844,19.08900768729998,30.087135349149303,1.0861983136997453,-1.352497773771707,0.8011640957990364,7228.527506510417,11.604777777777777,8.072222222222223,178.4346986826484,-8.718160178310058,52.87327376554399,1364.0,1435.0,1350.0,1528.0,1312.0,998.0,60.0,292.7,1649238111.970832,1649238113.0989249,92d56de7-1848-4eba-9ca9-dff192a925a4
-0.2467606942503891,-0.3099882315839041,-0.1478041025029052,0.0519928727999594,-0.1658456323133306,0.4807920637569207,-0.2691893386105254,-0.2972061800224165,-15.238810820906966,19.110836091170366,30.20393972748377,1.0795930182542324,-1.337931858819004,0.7976762251592999,7231.23779296875,11.598,8.056666666666665,178.40972751104283,-8.719006552584709,52.74768062654076,1364.0,1435.0,1350.0,1528.0,1312.0,998.0,60.0,292.7,1649238113.2318602,1649238114.3200097,92d56de7-1848-4eba-9ca9-dff192a925a4
-0.3857070347938469,-0.5140206393381744,-0.1677294361247796,0.1453865437855706,-0.1436824916450933,0.5806715740438301,-0.2521845321949962,-0.279291078676158,-15.562848104112692,20.233838265500392,28.186801943979404,1.0993300867974156,-2.095749015460973,0.7430368673732894,7233.2705078125,11.600888888888887,8.075555555555557,178.43142626312607,-8.723056854762525,52.58314971744413,1262.0,1435.0,1350.0,1528.0,1222.0,998.0,60.0,292.7,1649238116.256877,1649238117.388295,37686b29-6981-40bc-918e-3ea07e5ccfa8
-0.3588027744177108,-0.5167768091005833,-0.167413361633319,0.1469542729193515,-0.141166538973231,0.5853747610906747,-0.2499467249429454,-0.275662543822596,-15.650208764159563,20.12417339985454,28.688030326766825,1.1056870435682666,-2.11008522846091,0.7363641465415262,7233.2705078125,11.572111111111113,8.05,178.43445279583824,-8.71562940349509,52.55874886663426,1262.0,1435.0,1350.0,1528.0,1222.0,998.0,60.0,292.7,1649238117.4964724,1649238118.6202583,37686b29-6981-40bc-918e-3ea07e5ccfa8
-0.3688792290384947,-0.5269923374103797,-0.1720912635809423,0.1515183875016945,-0.1429239129320667,0.5908238837222497,-0.2528419670584573,-0.2812128116674771,-15.740783653598218,20.142838949397568,28.6083597245448,1.1074689402665472,-2.1479106629519475,0.7478770249198414,7233.2705078125,11.569666666666668,8.056666666666667,178.4435961424072,-8.718778025838727,52.50113811825998,1262.0,1435.0,1350.0,1528.0,1222.0,998.0,60.0,292.7,1649238118.729245,1649238119.856019,37686b29-6981-40bc-918e-3ea07e5ccfa8
-0.4802512386881714,-0.6614251565266925,-0.1775530301597535,0.2309542099235059,-0.1238456590545031,0.6451128223831343,-0.2407805653853554,-0.264031003206729,-15.783273033819473,21.369922550901336,28.0105775025542,1.058021528641354,-2.656622297292139,0.6952175413599592,7239.38037109375,11.567777777777778,8.04111111111111,178.4912830053724,-8.719270178913924,52.46000975471779,1153.0,1435.0,1350.0,1528.0,1121.0,998.0,60.0,292.7,1649238120.7587593,1649238121.8988323,2f11f133-8518-4d5f-8b0e-93da07a5b494
-0.4814649648524965,-0.6706292472657787,-0.1738865665188326,0.2396652207457921,-0.1187884679082215,0.6452392521436072,-0.2372658173914305,-0.2581520182421596,-15.782158373421076,21.51589039288027,27.91277081244115,1.039790900999927,-2.691121866788856,0.6770930253277683,7239.38037109375,11.529000000000002,8.032222222222224,178.5046033920737,-8.701755392016025,52.46256652219709,1153.0,1435.0,1350.0,1528.0,1121.0,998.0,60.0,292.7,1649238122.0063925,1649238123.122172,2f11f133-8518-4d5f-8b0e-93da07a5b494
-0.4547377047116243,-0.6520819929974185,-0.1827240083197297,0.2237603562178763,-0.1302430059667723,0.6377166814667945,-0.2496938653698604,-0.2711363577047017,-15.994788266213163,21.341321405605672,27.26655309321801,1.0569568300979082,-2.61293101120542,0.7235520988507873,7245.5,11.526,8.023333333333333,178.5064520966091,-8.695919944007635,52.46495405276697,1153.0,1435.0,1350.0,1528.0,1121.0,998.0,60.0,292.7,1649238123.230355,1649238124.3863478,2f11f133-8518-4d5f-8b0e-93da07a5b494
-0.0415904455674268,0.117534065838056,-0.1148185728370625,-0.1296235000412344,-0.2251285579302352,0.2396652208267949,-0.328307908426611,-0.3430622652664517,-14.657709967208936,17.45553635497864,31.61631477521016,0.9386177766102914,0.2733298511862104,0.9708466387441356,7240.740288628473,11.552222222222222,8.042222222222222,178.31155340755265,-8.698266683169964,52.5092379637057,1553.0,1435.0,1350.0,1528.0,1471.0,998.0,60.0,292.7,1649238126.2890174,1649238127.4268854,ddc42d95-b3bd-42d3-9c6c-7f831c7efb08
-0.0153941961694086,0.1172559203458598,-0.1103050297314985,-0.1292947826535643,-0.2202230822676674,0.2406893019225794,-0.3235415052841147,-0.341052031494484,-14.708040574898051,17.440531465666215,31.802249841366045,0.9403070967473552,0.2712403342933828,0.951428837470744,7245.5,11.633888888888889,8.05888888888889,178.3158260703335,-8.695314144173748,52.64488020825281,1553.0,1435.0,1350.0,1528.0,1471.0,998.0,60.0,292.7,1649238127.5352423,1649238128.6563823,ddc42d95-b3bd-42d3-9c6c-7f831c7efb08
-0.0347253087744255,0.1132354536870583,-0.1157415102150389,-0.1287511345769824,-0.2245975528181484,0.2434707567607892,-0.3281561926623819,-0.3566913969002077,-14.738521649494334,17.44700387546824,31.670277488068432,0.9450668856894248,0.257135076270052,0.9706760593558124,7251.6298828125,11.636,8.05,178.33581575730437,-8.701251760428475,52.73001206552279,1553.0,1435.0,1350.0,1528.0,1471.0,998.0,60.0,292.7,1649238128.7648532,1649238129.8853135,ddc42d95-b3bd-42d3-9c6c-7f831c7efb08
-0.0296934036948725,0.1126159478185332,-0.1437330636301908,-0.4245841976314709,-0.2826793971686619,0.5330328406150123,-0.2750683238376702,-0.2918834857316577,-14.62265195865435,16.837707873563243,34.12342440505155,2.258094944173869,0.2668878097595268,1.0134775780650036,7251.6298828125,11.633,8.04,178.35973507977778,-8.55982102542353,52.873430100985,1553.0,1537.0,1350.0,1528.0,1471.0,998.0,60.0,292.7,1649238131.6901762,1649238132.6393075,8eadd566-ebca-43bc-b975-b315d2b578b0
-0.0261660129732432,0.1155617614459981,-0.1450985051804445,-0.4302103236716817,-0.2837666932619957,0.5343097811871235,-0.2758395454692861,-0.290581258837585,-14.716478215193188,16.724635459959487,33.972513615624464,2.272766715712683,0.2805422167895209,1.0179928761156296,7251.6298828125,11.635222222222222,8.026666666666664,178.40077996323012,-8.551539041599934,52.972498200346486,1553.0,1537.0,1350.0,1528.0,1471.0,998.0,60.0,292.7,1649238132.7497523,1649238133.9913664,8eadd566-ebca-43bc-b975-b315d2b578b0
-0.0277084562326672,0.11621919623307,-0.1467926642517631,-0.4316389803556963,-0.2848792753972423,0.5325903364554526,-0.2771164863207133,-0.2983061189806721,-14.723540767049323,16.63091295862569,33.62257475463869,2.271360600290152,0.2862263913531261,1.023242661811218,7251.6298828125,11.633333333333333,8.047777777777776,178.43801208330575,-8.540428600550047,53.06163672247461,1553.0,1537.0,1350.0,1528.0,1471.0,998.0,60.0,292.7,1649238134.1259472,1649238135.2124898,8eadd566-ebca-43bc-b975-b315d2b578b0
-0.0055073878123011,0.1168766310333324,-0.1805999879723341,-0.7464239257311284,-0.3529111461713082,0.8398778670393592,-0.2277330114911296,-0.2408184943608185,-14.632597224803565,16.23302999904395,36.25333506241459,3.668098569075189,0.3013389458347882,1.092932925878763,7251.6298828125,11.615666666666668,8.056666666666665,178.5046944612627,-8.483303269925521,53.25099498974927,1553.0,1645.0,1350.0,1528.0,1471.0,998.0,60.0,292.7,1649238137.3490689,1649238138.4874723,2de2c7a0-ed92-4c51-a377-6bcd9cde0c0a
-0.0094140678462794,0.1179386411050535,-0.1735957780186908,-0.7434022529001629,-0.3482585297698318,0.8386135694338628,-0.2235608285739677,-0.2409954960462861,-14.624919138025549,16.494640201602802,36.656681426382576,3.660592539181659,0.3017693707408432,1.071729967391075,7251.6298828125,11.612,8.04,178.5347245263135,-8.465903363014915,53.27762703568801,1553.0,1645.0,1350.0,1528.0,1471.0,998.0,60.0,292.7,1649238138.595445,1649238139.6544342,2de2c7a0-ed92-4c51-a377-6bcd9cde0c0a
0.0073378771481736,0.1166617004239278,-0.1750370775730353,-0.7445654072539484,-0.3482332438398861,0.8352884667374716,-0.2231183243491018,-0.2561797134357176,-14.551272331654651,16.2926168501349,35.85254209733007,3.654242263862445,0.3036342917144757,1.071865686147419,7245.5,11.6105,8.05,178.5325627714412,-8.459348302402407,53.31459372702341,1553.0,1645.0,1350.0,1528.0,1471.0,998.0,60.0,292.7,1649238139.7629654,1649238140.8012743,2de2c7a0-ed92-4c51-a377-6bcd9cde0c0a
0.0308411720166954,0.1235268368895858,-0.1969473589658193,-1.0019133426628863,-0.4029647021354922,1.0757452317212446,-0.1845445971463992,-0.2137119485059465,-14.548989854070133,16.392523289934267,37.36557285423419,4.774908253693008,0.3462543576422309,1.1220260884780464,7243.460123697917,11.61,8.07,178.5732285793946,-8.39524221013898,53.34754540549172,1553.0,1761.0,1350.0,1528.0,1471.0,998.0,60.0,292.7,1649238141.8545082,1649238142.9974475,7462b48e-c346-424b-82b3-352b08dd6eeb
-0.0047867380964072,0.1208591687637746,-0.2058606587300916,-1.0104347149032276,-0.4116883581411217,1.085227464119921,-0.1906132267293951,-0.2109304930560566,-14.57349508833249,16.350267068630444,37.16955501925744,4.814670697902992,0.3386431143915332,1.1540245029764902,7239.38037109375,11.602666666666666,8.052222222222222,178.6149488926648,-8.42178290229757,53.38989143998093,1553.0,1761.0,1350.0,1528.0,1471.0,998.0,60.0,292.7,1649238143.1050882,1649238144.4261572,7462b48e-c346-424b-82b3-352b08dd6eeb
0.0257207662207568,0.1170536327175894,-0.2035090647361642,-0.998449164908422,-0.4078196063434088,1.078235898085172,-0.1899810778041076,-0.2128395827415472,-14.546691885232812,16.402718700080335,37.22522116360484,4.772410418620027,0.3223612566788185,1.144369945680859,7239.38037109375,11.59422222222222,8.07111111111111,178.6737507501394,-8.424347448603434,53.41001886910009,1553.0,1761.0,1350.0,1528.0,1471.0,998.0,60.0,292.7,1649238144.5344908,1649238145.65448,7462b48e-c346-424b-82b3-352b08dd6eeb
