raw_voltage_G-,raw_voltage_G0,raw_voltage_G1,raw_voltage_G2,raw_voltage_G3,raw_voltage_G4,raw_voltage_G5,raw_voltage_G6,load_x,load_y,load_z,load_l,load_m,load_n,rpm,voltage,current,roll,pitch,yaw,aileron1_pwm,elevator_pwm,throttle_pwm,rudder_pwm,aileron2_pwm,pbaro,pdiff,Tt,sample_start_time,sample_end_time,uid
0.2042396004806325,0.3189113969942392,0.4654940627438083,-0.287888304328944,0.1888783838501258,0.1035635762882617,0.2086646422920131,0.1880313043747847,-6.506392334788346,23.01047226668182,23.79662275858481,1.058362529922887,1.0965987097414465,-1.1332397071262164,3134.2396375868057,11.949333333333334,0.2055555555555555,178.56804674254428,-4.283810361000365,94.18496337960237,1553.0,1435.0,1200.0,1528.0,1471.0,999.0,60.0,292.0,1649234801.984655,1649234803.169222,bbf4ef44-cc58-4697-8ff3-3e678c37ebbb
0.1992709106659062,0.3151817189820077,0.4655067057131313,-0.2924397767622347,0.1891438863476857,0.1076346148747404,0.2116863136715324,0.1942516488141798,-6.4049464790596415,22.93300938049218,23.27242621217642,1.0772323278961964,1.0870979529603992,-1.1390485775313806,3311.988525390625,11.956,0.21,178.58927041702523,-4.172248375258969,93.96061063811511,1553.0,1435.0,1200.0,1528.0,1471.0,999.0,60.0,292.0,1649234803.278499,1649234804.4015868,bbf4ef44-cc58-4697-8ff3-3e678c37ebbb
0.2021408663582797,0.3150426462446247,0.4628643237255141,-0.2889123856078928,0.1867922927004651,0.107963332285628,0.2082727100172356,0.1885749523776596,-6.429718834465196,22.97977694193773,23.73750949426697,1.070254191606367,1.0820286397543526,-1.1267499787362445,3339.0830078125,11.956333333333331,0.21,178.6201929601276,-4.106544089877562,93.71715992879864,1553.0,1435.0,1200.0,1528.0,1471.0,999.0,60.0,292.0,1649234804.510557,1649234805.6299312,bbf4ef44-cc58-4697-8ff3-3e678c37ebbb
0.3315417303136975,0.5004392484999214,0.4952682713065395,-0.3105824516811477,0.1803317316101736,-0.0566988038673169,0.1802432307619028,0.1564365054655087,-6.186406410015134,22.851157392117223,23.333988210814468,0.7499377648577705,1.7839530169727325,-1.100315788590201,3345.599609375,11.948666666666666,0.2088888888888888,178.47568892458736,-3.994793040705391,93.23020690429192,1647.0,1435.0,1200.0,1528.0,1543.0,999.0,60.0,292.0,1649234807.291228,1649234808.245294,edb5d2e9-acb1-46d6-bf39-3a35789bdf2e
0.3300498591082254,0.504017210711094,0.4904892263696063,-0.3138443403024106,0.1749711094814321,-0.0571413081040241,0.1752745409247655,0.1502793757961825,-6.1783602079725615,22.80488240415012,23.305461404395047,0.7557561962134944,1.7976662915206143,-1.0790369897896137,3346.906982421875,11.943,0.1966666666666666,178.48183609484036,-3.942217280114264,93.09062667623336,1647.0,1435.0,1200.0,1528.0,1543.0,999.0,60.0,292.0,1649234808.3753707,1649234809.520686,edb5d2e9-acb1-46d6-bf39-3a35789bdf2e
0.3292912805304194,0.5036505644066124,0.4960015639124834,-0.3133259781975797,0.1802938026717618,-0.0576975991386973,0.1813558127150593,0.160001824925338,-6.118883287955528,22.789288460641554,23.28768369203604,0.7535350468411331,1.7963131122304552,-1.1024759478670485,3350.685791015625,11.947111111111113,0.2011111111111111,178.48931894653109,-3.868000824047859,92.93889326491164,1647.0,1435.0,1200.0,1528.0,1543.0,999.0,60.0,292.0,1649234809.6291811,1649234810.952495,edb5d2e9-acb1-46d6-bf39-3a35789bdf2e
0.4075133743738658,0.6915884018930887,0.5251056946716505,-0.3253368083222457,0.1707736412098362,-0.2373543181980825,0.1434521683878474,0.1186719337450129,-6.050598492630948,22.817566762697297,22.319638082982017,0.3784326134951449,2.5126150454137406,-1.0539085744991663,3348.64990234375,11.932666666666666,0.1966666666666666,178.29259887369597,-3.81819427827835,92.70400837172424,1745.0,1435.0,1200.0,1528.0,1614.0,999.0,60.0,292.0,1649234811.8640978,1649234813.0068502,37f7fe0c-96ea-43b3-882e-dc6d8094b97f
0.4125832078009018,0.694293998741621,0.5220587374560803,-0.3270688964864163,0.1670313200890819,-0.2350659390737251,0.1396719183225544,0.1196201569583365,-6.107364910344152,22.86237905994365,22.76828072680935,0.3876703629398348,2.5192090051752265,-1.0383889177754655,3345.1663682725693,11.937555555555557,0.2,178.3067844176922,-3.7465889940452666,92.5960701333606,1745.0,1435.0,1200.0,1528.0,1614.0,999.0,60.0,292.0,1649234813.120814,1649234814.434413,37f7fe0c-96ea-43b3-882e-dc6d8094b97f
0.4162496708785146,0.6953560087199394,0.5267492815435351,-0.3222898503136899,0.171810365279508,-0.241311570497788,0.1428453054779379,0.1134630272352126,-6.087413388085486,22.8683408234478,22.68409165158686,0.3631249398004738,2.523506195687087,-1.055746934216404,3350.1039767795137,11.934,0.2,178.31229865708215,-3.711807678653053,92.50260810148788,1745.0,1435.0,1200.0,1528.0,1614.0,999.0,60.0,292.0,1649234814.5445223,1649234815.66617,37f7fe0c-96ea-43b3-882e-dc6d8094b97f
0.503536777620293,0.8135425479927723,0.5387601087241481,-0.3169545131165066,0.1589145289886425,-0.3729249824862098,0.1039807945034016,0.0808567895863546,-6.192615202492851,23.22427466367276,21.02871008030791,0.0579775703297516,2.9823043370523266,-0.9874266934811992,3348.21337890625,11.918,0.1911111111111111,178.20108799919615,-3.703394261119806,92.38108461686512,1849.0,1435.0,1200.0,1528.0,1686.0,999.0,60.0,292.0,1649234816.2939348,1649234817.2938554,a960878a-edcf-43ce-909f-8fbe7541b81c
0.4705638961409078,0.8176135862679424,0.539101469065552,-0.3167269395600248,0.1587248843034487,-0.3795499038800015,0.1025521380763263,0.0781006205736761,-6.192849986259191,23.19513070548264,20.68014639637802,0.0423452545913663,3.000657305620195,-0.9855848298158196,3344.7311197916665,11.914666666666667,0.19,178.21489864169794,-3.682750061785312,92.32005384099142,1849.0,1435.0,1200.0,1528.0,1686.0,999.0,60.0,292.0,1649234817.4027555,1649234818.7426882,a960878a-edcf-43ce-909f-8fbe7541b81c
0.502348337875239,0.8128851132394814,0.5396830459715019,-0.3162212204740156,0.1602926134654776,-0.3756432232626967,0.1047520161103371,0.0812107929318549,-6.195100472204605,23.191355874306712,20.653866415487364,0.0499819220277656,2.9831460440819333,-0.9922498462226248,3343.4248046875,11.918,0.1933333333333333,178.19778218763787,-3.674281054101319,92.26484314520047,1849.0,1435.0,1200.0,1528.0,1686.0,999.0,60.0,292.0,1649234818.8511827,1649234819.9645338,a960878a-edcf-43ce-909f-8fbe7541b81c
0.5162090853263878,0.891367651383421,0.5651090820784063,-0.3235061054686239,0.1640475775524634,-0.457662279617859,0.0975020273748055,0.0739001178186767,-6.0514432688846975,23.67038356206771,19.036835020703293,-0.1136368047362635,3.2933351415627845,-1.0146445883662774,3335.9068467881943,11.858333333333333,0.1855555555555555,178.1636585625445,-3.671137838990776,92.1543906383124,1962.0,1435.0,1200.0,1528.0,1760.0,999.0,60.0,292.0,1649234821.89838,1649234823.0497732,ef0d9ac5-5d6e-4db7-8ece-3ec934319bc2
0.5443735900621555,0.8886291827475657,0.5603922406047193,-0.3203681176069214,0.1604443291761158,-0.4561410756566357,0.0926147581858616,0.0684413860647863,-6.113844242902569,23.70011451299268,19.245295315101945,-0.1173329465589584,3.280973427776336,-0.9964144962798108,3332.879828559028,11.868333333333332,0.1822222222222222,178.18149749883676,-3.678729641685113,92.0408448146402,1962.0,1435.0,1200.0,1528.0,1760.0,999.0,60.0,292.0,1649234823.1590595,1649234824.2684507,ef0d9ac5-5d6e-4db7-8ece-3ec934319bc2
0.5419714246281025,0.8909049184509713,0.5643621350635535,-0.3222772074573288,0.1633648568413737,-0.4557112142561529,0.0972041588644754,0.0658495757208731,-6.02285537215648,23.679755232288763,19.40609807164403,-0.1119264071453996,3.287926007348648,-1.0117806825512516,3332.591796875,11.864555555555556,0.18,178.20141736609614,-3.6636310342061074,91.95077662787506,1962.0,1435.0,1200.0,1528.0,1760.0,999.0,60.0,292.0,1649234824.377406,1649234825.424937,ef0d9ac5-5d6e-4db7-8ece-3ec934319bc2
0.106420889120219,0.0867231309718101,0.4381093765729652,-0.2608955444631004,0.2075267744016957,0.3090751614030005,0.2561263762304404,0.2318645042440953,-6.694108587516156,23.35665284614947,24.27755275096684,1.4601989188193505,0.2177641234013307,-1.2163397170408292,3326.126708984375,11.955333333333334,0.2066666666666666,178.74698403842024,-3.602382356325141,91.84052219647288,1459.0,1435.0,1200.0,1528.0,1394.0,999.0,60.0,292.0,1649234827.4380972,1649234828.571294,48e0b638-3399-47b0-a73a-b152e4a2c93e
0.1090759142796177,0.0874437806607664,0.4388553121611612,-0.2602128236849004,0.2075899892809855,0.3081269381432099,0.2577826061371914,0.2345701012865523,-6.522045895126941,23.32431054026858,24.34118664941188,1.4564475808850192,0.2186478771048421,-1.2194841924885027,3331.296630859375,11.959888888888887,0.2,178.7369102683044,-3.577953971315179,91.86387537215506,1459.0,1435.0,1200.0,1528.0,1394.0,999.0,60.0,292.0,1649234828.6800969,1649234829.7945416,48e0b638-3399-47b0-a73a-b152e4a2c93e
0.1123125163767361,0.0884172898918982,0.4366301483664697,-0.2652573721259507,0.2048717493069853,0.3110348227394137,0.2553298687069062,0.2332805176767906,-6.625554119006655,23.35600366265314,24.212048771570988,1.4743878617095982,0.2246568459884196,-1.2094504998772253,3337.782958984375,11.96,0.21,178.74826204270494,-3.588355187340312,91.8833110548933,1459.0,1435.0,1200.0,1528.0,1394.0,999.0,60.0,292.0,1649234829.903231,1649234831.022482,48e0b638-3399-47b0-a73a-b152e4a2c93e
-0.022069688268471,-0.127562694499666,0.4285386436666992,-0.2243699791456151,0.2371745544547462,0.4930810364502415,0.3145242842088102,0.297051690872912,-6.429333036738336,23.90570040734551,25.548152926644807,1.7947909286736117,-0.6041678211936333,-1.3506777340534764,3357.8522135416665,11.939444444444446,0.2077777777777777,178.9632414879212,-3.606967120805512,91.97699620627893,1364.0,1435.0,1200.0,1528.0,1312.0,999.0,60.0,292.0,1649234833.369394,1649234834.4460442,d948b43a-e010-4aad-938a-b0e0f535567a
-0.0355344593206312,-0.1335428231018463,0.4315729579285754,-0.2218160974789174,0.2406260870392133,0.4974428631733338,0.3194803309190162,0.3016284483139339,-6.330987728650626,23.95581462620788,25.699108995488952,1.799388473983046,-0.6287521513314348,-1.367011390918758,3395.382514105903,11.939444444444446,0.1922222222222222,178.97962787064998,-3.615256788591923,91.92840092815408,1364.0,1435.0,1200.0,1528.0,1312.0,999.0,60.0,292.0,1649234834.554207,1649234835.733368,d948b43a-e010-4aad-938a-b0e0f535567a
-0.006000463920987,-0.1349967655734178,0.4363014309883689,-0.2288961654635293,0.2444063370168222,0.5064067331708947,0.3278752671913363,0.3024502417527039,-6.211318507612028,23.914084378440613,25.89433178744583,1.835552555105319,-0.635611803426596,-1.39042010476133,3423.0946451822915,11.932,0.1866666666666666,178.98110015587108,-3.624615475847179,91.90137918197767,1364.0,1435.0,1200.0,1528.0,1312.0,999.0,60.0,292.0,1649234835.8417542,1649234836.9749234,d948b43a-e010-4aad-938a-b0e0f535567a
-0.1579311278715526,-0.3593969944307898,0.394162391538933,-0.1692718793704978,0.2477820117157996,0.6692861923571415,0.3409101757133313,0.3171287372550738,-6.746841695078316,24.83598690852195,25.47730273071305,2.0707437813690985,-1.4797594577085451,-1.3841073911816066,3427.199462890625,11.915,0.19,179.1085044333692,-3.620956107135606,91.87940342777812,1262.0,1435.0,1200.0,1528.0,1222.0,999.0,60.0,292.0,1649234838.7910633,1649234840.044201,d318973f-f846-42d0-8c68-2800cd862af9
-0.1599792903393388,-0.3545041614202897,0.3950726858276731,-0.1706626069435149,0.2474153654063677,0.6624210564287597,0.3407963889400179,0.3142208527662046,-6.636959032344914,24.782716240914983,25.00424537501031,2.0581261379069207,-1.457765353467991,-1.384675488413768,3428.11376953125,11.914666666666667,0.1866666666666666,179.1118982784768,-3.633263775996885,91.7892001550494,1262.0,1435.0,1200.0,1528.0,1222.0,999.0,60.0,292.0,1649234840.155525,1649234841.2643335,d318973f-f846-42d0-8c68-2800cd862af9
-0.1641009012166779,-0.3481320998208205,0.3905591433303587,-0.1697902415005469,0.2420926722925425,0.6548984857521138,0.3327680989962298,0.3134875600819968,-6.718410687239255,24.80982670919049,24.88850442989889,2.039149598280316,-1.432657026031291,-1.3592954194887346,3412.19189453125,11.900333333333334,0.1744444444444444,179.1146409788835,-3.649704657943405,91.71571339085934,1262.0,1435.0,1200.0,1528.0,1222.0,999.0,60.0,292.0,1649234841.373249,1649234842.500411,d318973f-f846-42d0-8c68-2800cd862af9
-0.2079553472867791,-0.4848143431634399,0.3624876904089996,-0.1538221601338166,0.2345377352251389,0.7671650777963372,0.3373605336550125,0.3150734950665906,-7.012759151573414,25.878752586045174,23.79889045712555,2.26077395087552,-1.937285458195381,-1.3358594024970996,3412.19189453125,11.874666666666666,0.1733333333333333,179.17715390580713,-3.629022086226698,91.5883493355863,1153.0,1435.0,1200.0,1528.0,1121.0,999.0,60.0,292.0,1649234843.4017646,1649234844.5392735,1c9a8948-6081-478c-a6b2-fcc95eb5da4a
-0.2051526518124366,-0.479442087948129,0.3575862614034679,-0.1508257742026961,0.2303726330616428,0.7583306718970586,0.3284821300327092,0.304574261822018,-7.221130061431979,25.858317477170942,23.631957600400213,2.2336517247702727,-1.914861905331929,-1.3105607003872135,3391.341606987847,11.87488888888889,0.18,179.18751757950773,-3.62962437610226,91.4107689706254,1153.0,1435.0,1200.0,1528.0,1121.0,999.0,60.0,292.0,1649234844.648152,1649234845.9735596,1c9a8948-6081-478c-a6b2-fcc95eb5da4a
-0.213813092054675,-0.4787972959349772,0.3522888543534638,-0.1516096388491415,0.2262004507842515,0.7577364520217217,0.3223502865231805,0.3037524683409108,-7.382034516733314,25.81676000439348,23.4921257745762,2.233442089744797,-1.9103053967595245,-1.2891481916943566,3381.5330403645835,11.874666666666666,0.18,179.19457999510954,-3.641759582686995,91.2756336778967,1153.0,1435.0,1200.0,1528.0,1121.0,999.0,60.0,292.0,1649234846.0825422,1649234847.1989424,1c9a8948-6081-478c-a6b2-fcc95eb5da4a
0.2000547752130478,0.3087717299823256,0.4696662448375903,-0.2810484528054,0.1931769959086473,0.1044991565439429,0.2138735486507426,0.1878416597585076,-6.324596042370515,23.181293840318745,23.445941538052523,1.0464116290869536,1.0598154219207534,-1.1538025954464983,3367.802544487847,11.95888888888889,0.2,178.78064321065008,-3.704259845301497,91.10983159470454,1553.0,1435.0,1200.0,1528.0,1471.0,999.0,60.0,292.0,1649234848.7920582,1649234849.865131,81da7e02-21a5-40e1-bd5a-4da10560c302
0.2123816774165368,0.3141576379030955,0.473674068245462,-0.286004500459467,0.1957561631484973,0.1047267301800694,0.2185640929542334,0.1940114323237613,-6.247757378793947,23.104028523579306,23.61363363879549,1.0578554181478856,1.0788487150076311,-1.1685267531072472,3378.426025390625,11.956666666666669,0.1944444444444444,178.76848395610762,-3.6893434710640967,91.36416962555803,1553.0,1435.0,1200.0,1528.0,1471.0,999.0,60.0,292.0,1649234849.9742994,1649234851.0970714,81da7e02-21a5-40e1-bd5a-4da10560c302
0.2205490402825057,0.3120589038310402,0.4685410199703554,-0.2836655493733917,0.1915207659689897,0.1053841649747599,0.2136206891150135,0.1956297333547848,-6.255193828163263,23.100569004870085,23.682184969318715,1.0537853203669725,1.0698088093633424,-1.1488632593722887,3381.2333984375,11.958000000000002,0.2,178.7434414469707,-3.690974463319653,91.58134156149788,1553.0,1435.0,1200.0,1528.0,1471.0,999.0,60.0,292.0,1649234851.2053852,1649234852.3230083,81da7e02-21a5-40e1-bd5a-4da10560c302
0.2285394014676427,0.3059523462559549,0.4635596874075197,-0.4698334229753536,0.1685864062423598,0.2916531399701591,0.261524927174074,0.2342666698099296,-6.237565569652982,22.722026567144475,25.109805824870136,1.88978469365644,1.056726809811906,-1.179231164960972,3368.4439086914062,11.950375,0.19375,178.7413087204024,-3.642276175032814,91.98061819867752,1553.0,1537.0,1200.0,1528.0,1471.0,999.0,60.0,292.0,1649234854.473655,1649234855.6118343,c306a129-275d-483d-9d7d-a9f061e905f0
0.2055418270772114,0.311995688946364,0.4635344014523035,-0.4721470883614886,0.1671071779610831,0.2874936007369943,0.2587434723497201,0.237123982548356,-6.326781180058495,22.776683584753773,25.04645205944812,1.8859627769477805,1.0808701538888017,-1.1726849551297598,3368.09459092882,11.955444444444444,0.2,178.72385701789062,-3.6438678344108064,92.08986052885392,1553.0,1537.0,1200.0,1528.0,1471.0,999.0,60.0,292.0,1649234855.7247157,1649234856.834731,c306a129-275d-483d-9d7d-a9f061e905f0
0.2248602953012237,0.3077097199697696,0.4607150177949467,-0.4724125909616302,0.165046372756748,0.2911474209093155,0.2580354656731176,0.241245592894153,-6.254299574564873,22.743348888720163,24.920632698528664,1.8944273704081385,1.0652506810434652,-1.1656609014651276,3365.157524956597,11.951777777777776,0.1977777777777777,178.7233576551713,-3.647009673997143,92.2129724119137,1553.0,1537.0,1200.0,1528.0,1471.0,999.0,60.0,292.0,1649234856.943133,1649234858.4674575,c306a129-275d-483d-9d7d-a9f061e905f0
0.2170342928045428,0.3103015301164423,0.4486536186102562,-0.6752186497439895,0.1287231003494841,0.4883525634190376,0.2959391089363181,0.2701095081553384,-6.353755121435865,22.75588100489233,26.86633711706615,2.794797030640072,1.082636088472742,-1.1525080520276818,3356.0791015625,11.94588888888889,0.1877777777777777,178.740032423665,-3.587977629661192,92.35038139872609,1553.0,1645.0,1200.0,1528.0,1471.0,999.0,60.0,292.0,1649234859.3766403,1649234860.531639,d3ea2b02-f992-4922-93e7-a2cfa134b5a7
0.2162630712364022,0.3134622742012872,0.4515488601340819,-0.679150617181118,0.1304425452039146,0.4869871219893861,0.2996561439839517,0.280122745484292,-6.234098831720223,22.68458240292012,26.62359901672755,2.8002913113551786,1.096461727410487,-1.1639702422794114,3361.343505859375,11.944875,0.19,178.73270438959548,-3.593348648521957,92.38911729878402,1553.0,1645.0,1200.0,1528.0,1471.0,999.0,60.0,292.0,1649234860.6402445,1649234861.7432015,d3ea2b02-f992-4922-93e7-a2cfa134b5a7
0.2515496187378754,0.3149667883823026,0.45458317439744,-0.6776461022184244,0.1332872150162962,0.4862159004691598,0.3032973212016241,0.2772527898570605,-6.138649551546305,22.63308955687455,26.94609256239632,2.795073646843764,1.0985769996914734,-1.1764271798647894,3358.270751953125,11.944,0.1933333333333333,178.73988519514288,-3.597963223932142,92.43319592459268,1553.0,1645.0,1200.0,1528.0,1471.0,999.0,60.0,292.0,1649234861.8513768,1649234862.9755323,d3ea2b02-f992-4922-93e7-a2cfa134b5a7
0.2297910561557584,0.3116942803917255,0.4384477025776586,-0.8362922714902608,0.0975940682333698,0.6426074902740447,0.3261841426191794,0.3008597552785727,-6.1588831047381065,22.800356967911,27.97849099515418,3.5048331025572104,1.0958088648772533,-1.1388170472379209,3355.9354654947915,11.937555555555557,0.19,178.76225178794496,-3.553551507821754,92.4940916145028,1553.0,1761.0,1200.0,1528.0,1471.0,999.0,60.0,292.0,1649234864.7917068,1649234865.849355,9623ca33-2054-4f3b-bde2-4c5545806196
0.2266555979780359,0.3187723242560014,0.4398288213090066,-0.841195726370995,0.0965087951268182,0.6399544882013172,0.3253972438096332,0.3038915410915487,-6.178634757237874,22.86633654706325,27.94697874968873,3.510423636903923,1.1234673171428575,-1.1373729938604589,3356.0791015625,11.939333333333334,0.19,178.76111797654275,-3.5544552035103774,92.46186905872838,1553.0,1761.0,1200.0,1528.0,1471.0,999.0,60.0,292.0,1649234865.95954,1649234867.06865,9623ca33-2054-4f3b-bde2-4c5545806196
0.2300059867594903,0.3177229572242771,0.440840259380314,-0.8404371474075364,0.0975834481350499,0.6403590634323426,0.327268404297561,0.3080131513616527,-6.103840876655669,22.845101537010294,27.96856912229007,3.509572287559972,1.1187811874777438,-1.142908395885522,3350.831298828125,11.925,0.17,178.77578922287992,-3.5682355370477006,92.45882962454772,1553.0,1761.0,1200.0,1528.0,1471.0,999.0,60.0,292.0,1649234867.1773026,1649234868.5077193,9623ca33-2054-4f3b-bde2-4c5545806196
0.2154412777491863,0.3144104974204105,0.4015079606910244,-0.8633083051562765,0.0538513904999585,0.6689069030839565,0.2870384535548579,0.2652293192546847,-6.4432241552583,23.416925175617926,28.259964832965814,3.6270226388114,1.1065090566415003,-0.9731130041845322,3346.2529296875,11.884,0.175,178.78887586532966,-3.546523006006465,92.4354225662621,1553.0,1887.0,1200.0,1528.0,1471.0,999.0,60.0,292.0,1649234869.41232,1649234870.546501,4d190b16-8e62-489d-b7ca-584a884e97ea
0.2132919717369263,0.3122991203772294,0.4034170500737625,-0.8644714593966263,0.0558110519159057,0.6719159313538848,0.290148625734169,0.2678337723928138,-6.418826179756639,23.420199262296915,28.26052065446249,3.636537252240241,1.0986767907147006,-0.9830618285446288,3343.1349283854165,11.881444444444444,0.1788888888888889,178.787169835857,-3.556430456272849,92.29588559606827,1553.0,1887.0,1200.0,1528.0,1471.0,999.0,60.0,292.0,1649234870.655391,1649234871.779352,4d190b16-8e62-489d-b7ca-584a884e97ea
0.2132413998288024,0.3130450559808583,0.4052376386400031,-0.857618961965759,0.0576316406312992,0.6629014895139183,0.2889096140518788,0.2678337723905268,-6.429572111282308,23.495325261186792,27.981533102918284,3.6013618334872373,1.103296220036086,-0.9865406038887956,3342.122124565972,11.887333333333334,0.1744444444444444,178.7912983057553,-3.568249316005714,92.17314785559306,1553.0,1887.0,1200.0,1528.0,1471.0,999.0,60.0,292.0,1649234871.8886807,1649234873.2093704,4d190b16-8e62-489d-b7ca-584a884e97ea
0.192001199095036,0.3138921353972711,0.4731051343217416,-0.0663580387868002,0.21451834045291,-0.1046915474448171,0.1504437345587771,0.1271427281942696,-6.687517486153212,24.1870910715954,22.284611478977915,0.0985141880136936,1.0656836429111698,-1.097049879054405,3340.38427734375,11.962444444444444,0.2077777777777777,178.80137359369098,-3.790308702899433,92.09184356044295,1553.0,1335.0,1200.0,1528.0,1471.0,999.0,60.0,292.0,1649234873.772068,1649234874.8198917,ec8cb8ab-07d1-4bd4-895e-bb09ee7bf082
0.1807363068701858,0.3147392148092957,0.4722706979051235,-0.0698348576419502,0.2134310444673857,-0.1051846235718818,0.1501276601581684,0.1271553712466256,-6.667780097992335,24.135724966970624,21.87370538134377,0.1048114046455407,1.0727371605850684,-1.0944541420927074,3344.586480034722,11.961888888888888,0.2,178.78194853569144,-3.807502091451386,92.26833109513665,1553.0,1335.0,1200.0,1528.0,1471.0,999.0,60.0,292.0,1649234874.9282715,1649234876.0801945,ec8cb8ab-07d1-4bd4-895e-bb09ee7bf082
0.2129885402901862,0.3128427683631,0.4743062170432359,-0.0707325090971076,0.2152769190381309,-0.1000262886087464,0.1526941844324995,0.121175243159734,-6.713438305289889,24.210405604715785,22.2421818008995,0.1190599301441421,1.0629225214406022,-1.1031773279544006,3348.5041232638887,11.962444444444444,0.2,178.76041522596813,-3.7942068436407417,92.4039308407289,1553.0,1335.0,1200.0,1528.0,1471.0,999.0,60.0,292.0,1649234876.188676,1649234877.3068595,ec8cb8ab-07d1-4bd4-895e-bb09ee7bf082
0.1672841796452293,0.3097831680876738,0.471562691243673,0.1504184486094981,0.2340517392380195,-0.3107215244602784,0.0857622646800132,0.0694401812404743,-6.995034580937751,25.037100414526165,20.538056235340928,-0.8483325209521522,1.041155530190592,-1.0310836682774664,3335.041693793403,11.95188888888889,0.1944444444444444,178.7682031594418,-3.826928430111372,92.68782689467056,1553.0,1236.0,1200.0,1528.0,1471.0,999.0,60.0,292.0,1649234879.4483595,1649234880.5851717,34864820-8eb1-48a9-81b8-61599915e676
0.1750848962824545,0.3063822074543756,0.4689203092481338,0.1497610138342009,0.2321047208499753,-0.3074975647303218,0.0833474560649425,0.0694148953336493,-7.089320150319333,25.084465347502444,20.41712223197906,-0.8394891648406885,1.030053259793902,-1.0220649517829845,3327.578521728516,11.948,0.19,178.7685748355691,-3.862320217376589,92.73953588528327,1553.0,1236.0,1200.0,1528.0,1471.0,999.0,60.0,292.0,1649234880.6932957,1649234881.8053825,34864820-8eb1-48a9-81b8-61599915e676
0.1705561820182456,0.3080257943779987,0.4731865550895985,0.1489397260192466,0.2350899804785809,-0.3085428863308391,0.0878245871007939,0.06739151329622,-6.968943624441657,25.09821217792015,20.42279748686021,-0.8396204588510559,1.0356872234343937,-1.0380426089033117,3322.5462782118057,11.946999999999996,0.1944444444444444,178.75915543552122,-3.87050337690063,92.8235108792626,1553.0,1236.0,1200.0,1528.0,1471.0,999.0,60.0,292.0,1649234881.913566,1649234883.043905,34864820-8eb1-48a9-81b8-61599915e676
0.180205301844909,0.3152196479122015,0.4684778050854732,0.3192780432901526,0.2429903236345424,-0.4788099389839781,0.0275413549093339,0.0067183712274575,-7.222584630963008,26.007269912413424,19.259009137937,-1.6009961730045346,1.0535229980922889,-0.9563820323704892,3325.5524088541665,11.945333333333332,0.1944444444444444,178.76379237505773,-3.917758325264579,93.0096084901185,1553.0,1133.0,1200.0,1528.0,1471.0,999.0,60.0,292.0,1649234884.9773722,1649234886.1250255,17bdb8ea-922d-4bac-996c-f50a374f13b3
0.1810903102218857,0.3022479541865018,0.4607782326638065,0.3272178324044997,0.2386284967281219,-0.4743090380339853,0.0207773620503361,0.0022174713498506,-7.332633855976644,26.103061938933816,19.07523673036687,-1.6086253273288198,1.0058148862226457,-0.9321906462158354,3318.971110026041,11.939888888888888,0.1877777777777777,178.75717012720244,-3.931405659840564,93.0744945283237,1553.0,1133.0,1200.0,1528.0,1471.0,999.0,60.0,292.0,1649234886.2577407,1649234887.3406074,17bdb8ea-922d-4bac-996c-f50a374f13b3
0.1469289870409348,0.3053075544613073,0.4576807035273154,0.322944506336827,0.2355183244998447,-0.4733228858143837,0.017616617732506,0.0017749670332642,-7.419154355559059,26.041134893254217,19.05932071417533,-1.597380582440094,1.0183724023839946,-0.9189567745539716,3325.266493055556,11.940666666666663,0.1977777777777777,178.7678737925418,-3.930036112048238,93.11209547861456,1553.0,1133.0,1200.0,1528.0,1471.0,999.0,60.0,292.0,1649234887.4500742,1649234888.7775347,17bdb8ea-922d-4bac-996c-f50a374f13b3
0.1595846067821641,0.3198343342597667,0.4569979827929838,0.4081455231207976,0.2341781689426703,-0.565667215985509,-0.0156344129031537,-0.0307427709404492,-7.207695485029008,26.84527128256424,18.967097913948383,-1.99169477734045,1.0616576612527815,-0.8666658620196599,3345.311496310764,11.930888888888887,0.1855555555555555,178.76543162045857,-3.971468371576621,93.1873785825563,1553.0,1026.0,1200.0,1528.0,1471.0,999.0,60.0,292.0,1649234889.892823,1649234890.942427,4633ac0d-599d-4b3a-a51d-a5fe02f93206
0.1479657111357899,0.3146633569483684,0.4515867890289591,0.4056169277930636,0.2298795568895973,-0.5594089408392365,-0.0191238746512743,-0.0350793123694729,-7.256801537424872,26.83871045268301,18.771681353500743,-1.9722965090409688,1.0443110571283778,-0.8494218201712597,3364.5732421875,11.923666666666668,0.1877777777777777,178.75066930493244,-3.9792024224467983,93.18547978996708,1553.0,1026.0,1200.0,1528.0,1471.0,999.0,60.0,292.0,1649234891.050824,1649234892.4652183,4633ac0d-599d-4b3a-a51d-a5fe02f93206
0.1759572616703994,0.3245248784761078,0.4668215752181689,0.4228872332032009,0.2438879749677336,-0.5850489063281581,-0.0116139460158068,-0.0284038200479002,-7.185438504138636,26.915643390046355,18.84735095072921,-2.0675539398727145,1.078962775565257,-0.8984912915505141,3380.4927029079863,11.927444444444443,0.18,178.76061861382342,-3.970054664714036,93.18789843584317,1553.0,1026.0,1200.0,1528.0,1471.0,999.0,60.0,292.0,1649234892.573548,1649234893.6980083,4633ac0d-599d-4b3a-a51d-a5fe02f93206
0.1979813270537197,0.311199181439329,0.4830045845645286,-0.2763958364851097,0.2036959524843005,0.1004913329002254,0.2252269416208326,0.2085761413931709,-6.154773575041296,23.374929860188224,23.914912799914017,1.0290183895798528,1.0638374255250684,-1.2014409841656897,3389.5904541015625,11.96175,0.19,178.76334974085404,-3.803866497964268,93.18284845958932,1553.0,1435.0,1200.0,1528.0,1471.0,999.0,60.0,292.0,1649234895.2702782,1649234896.355538,34427aa3-cabc-49bf-8fde-86575e68cd8a
0.2199927493067725,0.3120841897829345,0.4825620804006528,-0.2773819888797358,0.2029753028102709,0.101098195773653,0.2254418722024967,0.1989548361949286,-6.095315452121375,23.3410867271725,23.994529459106825,1.032402846769481,1.0661230645805546,-1.1998960646777546,3398.662353515625,11.96,0.1855555555555555,178.76983785138313,-3.778701033564343,93.19786899421156,1553.0,1435.0,1200.0,1528.0,1471.0,999.0,60.0,292.0,1649234896.463857,1649234897.583699,34427aa3-cabc-49bf-8fde-86575e68cd8a
0.2233431381092598,0.3124129071681643,0.4858113252348514,-0.2762188348205431,0.2054533262190328,0.1002511163161202,0.2282612559757848,0.2123563914538965,-6.042210364417116,23.396607980022324,24.09451267665189,1.0284480729861227,1.0661576583828205,-1.2115091605717472,3405.41357421875,11.957,0.19,178.77606243044673,-3.784057561989056,93.20228888551443,1553.0,1435.0,1200.0,1528.0,1471.0,999.0,60.0,292.0,1649234897.691806,1649234898.812544,34427aa3-cabc-49bf-8fde-86575e68cd8a
0.24354661461795,0.333046244499755,0.6196119399349376,-0.2775337046311298,0.3280396258759742,0.0728158561511747,0.3623905923676501,0.3444881379557934,-5.239527037964651,23.3219810991094,23.924542981000908,0.9763080272325404,1.1480133286973115,-1.7489953504098297,3411.2870279947915,11.952333333333334,0.1833333333333333,178.76558036680046,-3.797087428491325,93.1965765706386,1553.0,1435.0,1200.0,1435.0,1471.0,999.0,60.0,292.0,1649234899.9299195,1649234901.082054,bd56fd5e-cd7d-4f32-8806-f5135e92744e
0.2528392023357987,0.3275591927912969,0.6058816680696483,-0.2732983066752721,0.3160161554021981,0.0748387325195267,0.3480281713571104,0.3282671993694304,-5.337169729004265,23.403357134165667,23.89365404221437,0.9711013813979624,1.12700789345995,-1.6942260954506343,3399.4120279947915,11.955888888888888,0.19,178.75823108325355,-3.824775212975526,93.20200581211886,1553.0,1435.0,1200.0,1435.0,1471.0,999.0,60.0,292.0,1649234901.2122576,1649234902.293059,bd56fd5e-cd7d-4f32-8806-f5135e92744e
0.2553298686983052,0.3258397480135377,0.6052368762979398,-0.2717558633079061,0.316673590174679,0.073283646298737,0.3464225133861169,0.3214905640992258,-5.489942910524282,23.40374532353275,23.627305381895983,0.9639786280689274,1.1237700850392347,-1.6926336956763732,3378.7163357204863,11.956111111111111,0.19,178.76959803585223,-3.819912877196385,93.18856020528273,1553.0,1435.0,1200.0,1435.0,1471.0,999.0,60.0,292.0,1649234902.4019344,1649234903.5311916,bd56fd5e-cd7d-4f32-8806-f5135e92744e
0.2744045801413911,0.3427383501143296,0.736646956695838,-0.2572103690382704,0.4342532688549575,0.0362685492612892,0.4716481577554062,0.4480331013486993,-4.555627597028345,23.84932034573628,23.60093804526775,0.8579529140424735,1.1873183494711832,-2.207596911878831,3361.0527615017363,11.936444444444444,0.1855555555555555,178.74440374473383,-3.81461431051588,93.1335635220858,1553.0,1435.0,1200.0,1330.0,1471.0,999.0,60.0,292.0,1649234905.4579144,1649234906.6127117,a2e63c8e-c317-411c-a549-f5ef175f7af2
0.2727771762125501,0.3425158337333323,0.7357376738668915,-0.2594921738581019,0.433949837427279,0.0375419499144802,0.4717396928974887,0.4497914864661909,-4.581391486840941,23.77107958910148,23.45029026131293,0.8653606813087316,1.1882232841588036,-2.206319814105598,3348.6494954427085,11.947666666666665,0.18,178.74793571144463,-3.8296547665231992,93.10878131904724,1553.0,1435.0,1200.0,1330.0,1471.0,999.0,60.0,292.0,1649234906.722208,1649234908.039493,a2e63c8e-c317-411c-a549-f5ef175f7af2
0.3073557166273938,0.344336422314587,0.7346503779327757,-0.260415111314115,0.4328498985123754,0.0381488128245114,0.4709937573193542,0.4418643404556756,-4.572876934984881,23.722059167295605,23.66269161154725,0.868465345711818,1.1931526997706317,-2.201739654467661,3353.307427300347,11.94811111111111,0.1811111111111111,178.75254077676502,-3.819783862512062,93.10475074852704,1553.0,1435.0,1200.0,1330.0,1471.0,999.0,60.0,292.0,1649234908.1525552,1649234909.2547522,a2e63c8e-c317-411c-a549-f5ef175f7af2
0.3028927459772826,0.3485591763818933,0.8202812542098835,-0.2227390350041576,0.5116662111858803,-0.008870419913356,0.5441207305400675,0.5194163554440501,-4.033882815734789,24.32984047663315,23.100083808317784,0.686293388826004,1.2109622229302412,-2.529756581291613,3340.81884765625,11.942333333333332,0.1833333333333333,178.73504486775107,-3.836334976122688,93.05497991895508,1553.0,1435.0,1200.0,1210.0,1471.0,999.0,60.0,292.0,1649234910.3722756,1649234911.9255464,190bcfe6-bb6c-4d59-8356-af54645dcaf5
0.2932967269187649,0.3495959004335066,0.8203444690936501,-0.2252423447004415,0.5110846342862279,-0.0074291204185677,0.5439943007751412,0.5239046119478921,-4.06055741121976,24.36163668946368,23.12118963597503,0.6953829002913648,1.2151650619919807,-2.528769053896964,3341.686767578125,11.933666666666666,0.18,178.73308232672957,-3.827745586354573,93.05836541605368,1553.0,1435.0,1200.0,1210.0,1471.0,999.0,60.0,292.0,1649234912.034186,1649234913.3522654,190bcfe6-bb6c-4d59-8356-af54645dcaf5
0.3261178934905038,0.3493556838815844,0.8168550077112471,-0.2183898503503452,0.508758326704187,-0.0115886600543176,0.5392911137175761,0.5183796314362448,-4.068438410042613,24.34804047844992,23.36196047029098,0.6703488413192163,1.2111208052617473,-2.513777010769499,3335.762586805556,11.935444444444446,0.18,178.7389198617402,-3.812799709494508,93.01862054527336,1553.0,1435.0,1200.0,1210.0,1471.0,999.0,60.0,292.0,1649234913.4684994,1649234914.5898063,190bcfe6-bb6c-4d59-8356-af54645dcaf5
0.2861534452546063,0.3418583989602037,0.8179802325810683,-0.1645939775509547,0.5128040790223307,-0.0555482930403125,0.5223874548229208,0.4983531574467188,-4.256359385512021,25.01799366991105,23.042975225300133,0.4545671540522014,1.1806179169796145,-2.498045832943141,3336.0533854166665,11.935,0.18,178.73015445230533,-3.812866446134523,92.9667065541218,1553.0,1435.0,1200.0,1071.0,1471.0,999.0,60.0,292.0,1649234916.3117044,1649234917.449271,37dd1c81-da93-409e-a96d-e332abe1f809
0.2853695807251291,0.3422756171799822,0.819269816137241,-0.166035276956896,0.5136132294809614,-0.05599079712014,0.5242712582451319,0.5095548341794609,-4.182370469537766,24.99358003828413,22.86173707796974,0.4567347321050923,1.1835241662270517,-2.503743916537396,3337.061469184028,11.932777777777776,0.18,178.7477581265262,-3.8307756764569896,92.92692449675604,1553.0,1435.0,1200.0,1071.0,1471.0,999.0,60.0,292.0,1649234917.5580482,1649234918.6891508,37dd1c81-da93-409e-a96d-e332abe1f809
0.2857362270363389,0.3407963889566678,0.8060958351423758,-0.1529877236016406,0.5034735627235183,-0.0656753181274584,0.5071020968371537,0.4941430464314631,-4.362798170262502,25.00899099529882,22.87089909600548,0.4048970591673306,1.1767306493286318,-2.447714674802255,3342.555989583333,11.929,0.18,178.74502149739874,-3.8310482674094897,92.9368335834219,1553.0,1435.0,1200.0,1071.0,1471.0,999.0,60.0,292.0,1649234918.8214235,1649234919.907796,37dd1c81-da93-409e-a96d-e332abe1f809
0.1445015354938988,0.2825375540097725,0.314069137058522,-0.2610093312891407,0.0519423009660482,0.1223763259616999,0.0502102130912608,0.0339134154173318,-7.504513882270303,23.56661579776826,23.72868521327632,1.0356384462766275,0.9549417932286934,-0.5199012682983605,3339.5196940104165,11.962666666666664,0.1966666666666666,178.77216922261982,-3.7961003238606494,92.97460452953209,1553.0,1435.0,1200.0,1613.0,1471.0,999.0,60.0,292.0,1649234920.8180618,1649234921.963317,582328b1-100b-4c4c-92da-db1bbc6c6a85
0.1468531291792891,0.2858120848984969,0.314650713971669,-0.2635379271089227,0.0504125007355156,0.1196833718563095,0.0494263485026821,0.025316190941501,-7.432358773319344,23.651506114401307,23.46893538797209,1.0358775337254982,0.969364367811132,-0.517471009651709,3342.121771918403,11.960777777777777,0.19,178.766020534547,-3.796793256038322,92.98603371274322,1553.0,1435.0,1200.0,1613.0,1471.0,999.0,60.0,292.0,1649234922.0725946,1649234923.1507633,582328b1-100b-4c4c-92da-db1bbc6c6a85
0.1783088553469796,0.2837007078404024,0.3141955668202619,-0.264106861098416,0.0518158711972228,0.1226544714656095,0.0507665040856949,0.0269344920394286,-7.504555835865811,23.52509745171601,23.52800952862056,1.0429497999560384,0.9614718908201806,-0.5208458864067878,3352.141845703125,11.964000000000002,0.2,178.76904099597996,-3.786236819221113,92.99214445532068,1553.0,1435.0,1200.0,1613.0,1471.0,999.0,60.0,292.0,1649234923.2597106,1649234924.4151266,582328b1-100b-4c4c-92da-db1bbc6c6a85
0.1084943373387695,0.2662786863265874,0.2166802894535826,-0.2459389006466043,-0.0361792511853837,0.1253474255200916,-0.0535254164471711,-0.0702900049319125,-8.202620362601296,23.77381092336785,23.086414162393496,1.0043901208006567,0.8965686999683103,-0.1227416676239476,3351.5595974392363,11.966555555555557,0.19,178.74806927958838,-3.7915453465941593,93.02871480595674,1553.0,1435.0,1200.0,1694.0,1471.0,999.0,60.0,292.0,1649234926.350922,1649234927.49348,c56c74d9-cd32-4659-8c15-8bc318817611
0.1281415234558584,0.265039674637645,0.2205996121931948,-0.2432080172623679,-0.0321461413469652,0.1249049213436106,-0.0497578091076151,-0.0772689285828036,-8.189601991603372,23.80718604238833,23.23744574038544,0.9976825832130198,0.8904037229134383,-0.1388592003073437,3342.989990234375,11.966444444444445,0.19,178.74469820177805,-3.7949664175946896,93.04280245057484,1553.0,1435.0,1200.0,1694.0,1471.0,999.0,60.0,292.0,1649234927.6026928,1649234928.7139237,c56c74d9-cd32-4659-8c15-8bc318817611
0.1459681208060281,0.2682257047005362,0.2160734265690163,-0.2416529308717442,-0.0366091124312424,0.1221613953829685,-0.0553207192759992,-0.0789504445767198,-8.194714711637292,23.77283703915911,23.45624655574445,0.9875888471425966,0.8999712502190201,-0.1179721179539611,3343.859619140625,11.964666666666666,0.19,178.75111402613842,-3.792838623940754,93.0432365470421,1553.0,1435.0,1200.0,1694.0,1471.0,999.0,60.0,292.0,1649234928.822057,1649234929.9436772,c56c74d9-cd32-4659-8c15-8bc318817611
0.113298668574374,0.2495267425090202,0.1157766920310363,-0.2152923206187784,-0.1257168197402926,0.1195442991148472,-0.1653146271588388,-0.1919280964290675,-9.062865533853,24.08343842797384,23.12181403300478,0.918819394912532,0.8293488323413134,0.2934814513870135,3342.989990234375,11.96277777777778,0.19,178.76354648824764,-3.799265120471697,93.06571773524024,1553.0,1435.0,1200.0,1774.0,1471.0,999.0,60.0,292.0,1649234930.855122,1649234931.991893,deb2f293-c8a9-426d-b674-622ab94b247e
0.0981776681202181,0.2543184305960638,0.1206189522015774,-0.2155325371779088,-0.1228847926591416,0.1158778358331125,-0.1613953038983894,-0.1923958866158391,-8.927201428157804,24.11090667355601,23.269174981715768,0.9116372146582004,0.8453913375469473,0.2783124410980528,3341.976372612847,11.960888888888888,0.1822222222222222,178.76370130586884,-3.7977316481392895,93.0603082254176,1553.0,1435.0,1200.0,1774.0,1471.0,999.0,60.0,292.0,1649234932.10034,1649234933.2200842,deb2f293-c8a9-426d-b674-622ab94b247e
0.1007568354250496,0.2522449824490352,0.1172179913931742,-0.2171761244415409,-0.1254260312558826,0.1195063701493474,-0.1635446102202994,-0.1844055245735695,-8.967008576270235,24.06974544054537,23.260380001204616,0.9230348981376436,0.8379604011723475,0.2891810902543973,3341.686767578125,11.961,0.1833333333333333,178.78177246859286,-3.787057722581984,93.06654115249016,1553.0,1435.0,1200.0,1774.0,1471.0,999.0,60.0,292.0,1649234933.3278573,1649234934.4486034,deb2f293-c8a9-426d-b674-622ab94b247e
0.0695286821432777,0.2412961648003789,0.0444576584409105,-0.1868582621124824,-0.1910683739414437,0.1044991565933578,-0.2495168636449194,-0.2753591124733627,-9.637862603731646,24.527596779288835,22.95779430591881,0.8199482642724273,0.7959879973967146,0.5980320438852724,3342.1754760742188,11.952875,0.18625,178.78422621405218,-3.799716571074104,93.05963611583051,1553.0,1435.0,1200.0,1856.0,1471.0,999.0,60.0,292.0,1649234935.3747015,1649234936.7016993,5e497799-6959-4af4-99fd-7298fb618ad3
0.087178278144663,0.2418271698157201,0.044394443587514,-0.1891592842969904,-0.1914729491959048,0.1071668246329849,-0.2488847147004066,-0.2733741645362606,-9.629301966788931,24.520185849087543,23.111914248714967,0.8311100140323048,0.7968322097169298,0.5980396903255358,3340.38427734375,11.952666666666666,0.1833333333333333,178.77956859422068,-3.7967883231239217,93.03769954035494,1553.0,1435.0,1200.0,1856.0,1471.0,999.0,60.0,292.0,1649234936.8095732,1649234937.952798,5e497799-6959-4af4-99fd-7298fb618ad3
0.0866346301260872,0.2443431221394056,0.043686436864721,-0.1900948645776667,-0.1922441708789148,0.1061680295492947,-0.2496938653123575,-0.2744488178158119,-9.632073177409447,24.46576577721024,23.19268238370607,0.830591496724175,0.8056417117998323,0.6016378119015442,3336.48388671875,11.952222222222222,0.1822222222222222,178.7915912449797,-3.810413080130151,93.01240279639892,1553.0,1435.0,1200.0,1856.0,1471.0,999.0,60.0,292.0,1649234938.084699,1649234939.16566,5e497799-6959-4af4-99fd-7298fb618ad3
0.2201662109627233,0.2811235635271241,0.4217751571093553,-0.3155116966014605,0.1804308524599481,0.1723575532909582,0.2293571491565824,0.2025601073778614,-5.455097870993254,19.008057437889768,24.65011781053313,1.247219232777392,0.9404276575538708,-1.092834799834287,7156.108018663194,11.629666666666669,8.11,179.59362393153873,-4.0448170615953485,80.51311335741086,1553.0,1435.0,1350.0,1528.0,1471.0,999.0,60.0,292.0,1649234942.272838,1649234943.4646175,b6f89ec3-7db3-467f-91d1-3a5a73bcac08
0.2156693570519418,0.2844107373869705,0.4244837883221207,-0.3158930088490571,0.1822716698638842,0.1742641141881487,0.2307509108869347,0.2062680395921375,-5.548747984038289,19.085857471421345,25.34404500908054,1.2530777691895632,0.9474891112507492,-1.0997429361453253,7165.413628472223,11.626666666666663,8.100000000000001,179.86100458806732,-4.066266748933212,74.82189465917331,1553.0,1435.0,1350.0,1528.0,1471.0,999.0,60.0,292.0,1649234943.573376,1649234944.6892483,b6f89ec3-7db3-467f-91d1-3a5a73bcac08
0.2072106999674798,0.2852937228620188,0.4264904814755059,-0.3143500596875714,0.1836315484277176,0.1701920642247398,0.2325725109387385,0.2150114164858604,-5.417979226480739,19.074599602264023,25.1044624253512,1.2404997388888594,0.9519357615611156,-1.1070455237886958,7172.74169921875,11.627222222222224,8.104444444444445,19.9951890677354,-4.048668956264152,69.84289393663883,1553.0,1435.0,1350.0,1528.0,1471.0,999.0,60.0,292.0,1649234944.797891,1649234946.1235435,b6f89ec3-7db3-467f-91d1-3a5a73bcac08
0.3109589648837569,0.4792749066338638,0.4416999817295754,-0.3266390354702037,0.1613799093761216,-0.0130552454231081,0.1798512984419989,0.1475358498586413,-5.423074000258375,18.92735701070603,24.32319911019457,0.8560936252518425,1.6889182569127783,-1.0000874793737746,7172.74169921875,11.61288888888889,8.114444444444445,179.91735820217937,-4.015357412203961,64.23703666591838,1647.0,1435.0,1350.0,1528.0,1543.0,999.0,60.0,292.0,1649234946.794822,1649234947.974386,c705f391-e057-42cf-8adc-387185da3e45
0.3019318797616806,0.4752670832312385,0.4394748179558954,-0.3346926131898334,0.1591800314764899,-0.0085164164496907,0.1795857959528682,0.1542366274983601,-5.454149422916408,18.9126463331968,23.34727065063894,0.8840803498123153,1.6836063107279418,-0.9956277208782288,7168.2435302734375,11.615,8.1175,179.87894332101243,-3.952503367134793,61.23716749439487,1647.0,1435.0,1350.0,1528.0,1543.0,999.0,60.0,292.0,1649234948.082229,1649234949.197521,c705f391-e057-42cf-8adc-387185da3e45
0.2854075096482473,0.4756210865595808,0.4331154009887229,-0.3411405324457258,0.1534527630110135,-7.090755810947196e-05,0.1768928419205918,0.1568031518890437,-5.409376095601995,18.743518124515,23.71983118409269,0.916247560265372,1.6817030046716224,-0.974711709400485,7166.744140625,11.614,8.136666666666667,179.75849407336415,-3.906694177719066,58.62704030056089,1647.0,1435.0,1350.0,1528.0,1543.0,999.0,60.0,292.0,1649234949.306218,1649234950.4208424,c705f391-e057-42cf-8adc-387185da3e45
0.4142773666056142,0.6817774525725308,0.4603483714385368,-0.3488780359436347,0.1384708354335506,-0.204280286373048,0.1274335166639949,0.1085828381279472,-5.393147075018074,18.87576448973072,22.30608839641231,0.4768312395273782,2.470011141098362,-0.8981675663137669,7172.74169921875,11.603333333333332,8.14,179.29076120118185,-3.892199472799176,54.22985785882534,1745.0,1435.0,1350.0,1528.0,1614.0,999.0,60.0,292.0,1649234952.3593442,1649234953.366361,d808fba9-f267-489b-8d1c-378c5df77bb5
0.394099176675285,0.6734710173884287,0.4611828078452638,-0.3600923588479853,0.1396339892660634,-0.1860491116373734,0.1350698746439906,0.1160042654706786,-5.314568604371571,18.813639620801883,22.30572451027281,0.542765100867464,2.439736593305012,-0.9127852711809892,7166.744140625,11.599444444444446,8.134444444444446,179.17714176324858,-3.8652253007876336,52.87879597348795,1745.0,1435.0,1350.0,1528.0,1614.0,999.0,60.0,292.0,1649234953.475341,1649234954.7431352,d808fba9-f267-489b-8d1c-378c5df77bb5
0.4308143793673015,0.6774282688536375,0.4568083381479941,-0.3582085546254132,0.1361318847259194,-0.1927119613011688,0.1288495300667611,0.09994768471444,-5.400811447562835,18.719070553856763,22.11727320786668,0.5226252054087553,2.4563484785673,-0.8929878967101348,7166.744140625,11.605333333333332,8.13,179.02306028467217,-3.809030441141916,51.61284355757827,1745.0,1435.0,1350.0,1528.0,1614.0,999.0,60.0,292.0,1649234954.851833,1649234955.954235,d808fba9-f267-489b-8d1c-378c5df77bb5
0.5255355558570195,0.8546827919852594,0.4839780936609331,-0.355970747389527,0.123842911139729,-0.3858208217102812,0.0831830972639542,0.0543065375692906,-5.268049557994473,19.210605821180547,19.5717324315024,0.0879082410369419,3.14423734958702,-0.8304976834695015,7172.74169921875,11.576555555555554,8.116666666666667,178.64682462661136,-3.760275934232064,49.47946963909045,1849.0,1435.0,1350.0,1528.0,1686.0,999.0,60.0,292.0,1649234957.8873146,1649234959.0284224,c7db1158-743a-431c-a2e4-737020d4f6ff
0.4934223967886281,0.8398905100339683,0.4761141625666084,-0.3526077150740901,0.1206063090511193,-0.3731778422360445,0.0797821364568823,0.0602487366870847,-5.400812262522559,19.15601597220533,19.706765995996367,0.1079337688733031,3.087586642981501,-0.8121680339522525,7172.74169921875,11.577777777777778,8.113333333333333,178.52477825306215,-3.760881022587911,48.796309944301285,1849.0,1435.0,1350.0,1528.0,1686.0,999.0,60.0,292.0,1649234959.13708,1649234960.255235,c7db1158-743a-431c-a2e4-737020d4f6ff
0.4898444345923997,0.8123161793217467,0.4801219859313243,-0.3469563031975006,0.1289633167098551,-0.3474367360902683,0.0917171066772274,0.0613107467701796,-5.419512060771737,19.33883881305804,20.323946116466185,0.1545297574263813,2.978389803917844,-0.8485111172022316,7172.74169921875,11.578666666666669,8.123333333333333,178.44054077111846,-3.724080247931097,48.24481239104787,1849.0,1435.0,1350.0,1528.0,1686.0,999.0,60.0,292.0,1649234960.3634942,1649234961.428437,c7db1158-743a-431c-a2e4-737020d4f6ff
0.5505812912663098,0.9169620922360052,0.5055217248138415,-0.3595739963813605,0.1270921562447647,-0.460427045806642,0.0741307256967713,0.0519802297916328,-5.277712314390427,19.798809900670303,17.211555241940264,-0.0670229441355648,3.400628536491048,-0.8474737461496779,7178.7490234375,11.521888888888888,8.11,178.21061990763786,-3.6964410336809945,47.48819439119016,1962.0,1435.0,1350.0,1528.0,1760.0,999.0,60.0,292.0,1649234962.392193,1649234963.5458395,5228f200-8023-4296-94de-fe773a0bc1c1
0.5565614188973826,0.9186056791419492,0.5059389430387407,-0.3562615357095324,0.1264220785064065,-0.4600856854008772,0.0739663670287225,0.0488447713315687,-5.175147309285252,19.877979660729164,17.921678985503295,-0.0730175344135465,3.3993932052347944,-0.845627060175587,7177.4140625,11.521333333333333,8.1,178.1246187190685,-3.662041687131741,47.11992880498087,1962.0,1435.0,1350.0,1528.0,1760.0,999.0,60.0,292.0,1649234963.654576,1649234964.7587135,5228f200-8023-4296-94de-fe773a0bc1c1
0.5271032848763562,0.9247122366310492,0.5067607364631006,-0.3624186670168078,0.1263335776207442,-0.4647509451612667,0.0739284380717652,0.0518790860296327,-5.211153430063239,19.77726155954481,17.307852376300033,-0.0703547409979052,3.428800144655808,-0.8467373948104703,7172.74169921875,11.52111111111111,8.11,178.0142216126037,-3.631202054936794,46.7672853792232,1962.0,1435.0,1350.0,1528.0,1760.0,999.0,60.0,292.0,1649234964.8668995,1649234965.988515,5228f200-8023-4296-94de-fe773a0bc1c1
0.0607165271117721,0.0456334553640527,0.386526033847359,-0.3010749317892693,0.192190843563177,0.3974369223544408,0.2744081201033117,0.2527886302830188,-5.755839130613335,19.24169016302625,25.77122105790648,1.720257757167147,0.0453807191150281,-1.1520396112200684,7174.744140625,11.617666666666668,8.136666666666667,178.48831111417354,-3.495311030235552,46.14094678704927,1459.0,1435.0,1350.0,1528.0,1394.0,999.0,60.0,292.0,1649234967.9235363,1649234969.0615103,13f9f039-4642-4eef-87b2-df4198b175a4
0.0941824874039864,0.0489459153871827,0.3947439683887284,-0.3056390470885231,0.1986261187494296,0.4012045292595383,0.2837386367115536,0.2610824229744066,-5.678551613355594,19.244363525109527,26.237581416135058,1.7395597642635214,0.0542070548751429,-1.1842198042151812,7184.7666015625,11.62,8.13,178.44595938786,-3.4857176738072497,45.88926797651265,1459.0,1435.0,1350.0,1528.0,1394.0,999.0,60.0,292.0,1649234969.1697657,1649234970.2910311,13f9f039-4642-4eef-87b2-df4198b175a4
0.0566707744356084,0.0476563317180574,0.3947566113796192,-0.3033633109386872,0.1991444808149951,0.3960461949950786,0.2834857772201852,0.2622961487312196,-5.621032134316463,19.20465747664012,25.6221792154876,1.7225030637389886,0.0541374537806568,-1.185530583418408,7178.7490234375,11.620444444444445,8.145555555555555,178.4113561317049,-3.458264748223572,45.6934726354002,1459.0,1435.0,1350.0,1528.0,1394.0,999.0,60.0,292.0,1649234970.3991787,1649234971.5191238,13f9f039-4642-4eef-87b2-df4198b175a4
-0.0494164487344726,-0.1726601974812976,0.3788896762713613,-0.289418105012256,0.2238362140988655,0.6114951493857214,0.3441847065651561,0.3159655835002267,-5.608093028861719,19.598914257480068,27.55419527572183,2.177326659638165,-0.7921146175235416,-1.307919452996232,7182.092122395833,11.6,8.124444444444444,178.60022148699446,-3.4392301730875428,45.35403613931266,1364.0,1435.0,1350.0,1528.0,1312.0,999.0,60.0,292.0,1649234973.4518518,1649234974.5926063,02c536da-f229-430a-9e70-46fcb5786383
-0.0323105000529231,-0.177161097739261,0.3745910643584194,-0.2889756007085912,0.22149726344018,0.6143777478984198,0.34225033119374,0.317862029903888,-5.594518198742112,19.483722215692147,27.372401009359063,2.181806252121408,-0.80780951573598,-1.2968604621670716,7184.7666015625,11.597444444444443,8.131111111111112,178.59607632107816,-3.4152111013931536,45.27317049408925,1364.0,1435.0,1350.0,1528.0,1312.0,999.0,60.0,292.0,1649234974.7048953,1649234975.818251,02c536da-f229-430a-9e70-46fcb5786383
-0.0225754073614024,-0.1741647118834693,0.3775368778359474,-0.2865355057388694,0.2224834156488504,0.610660712973946,0.3428571940732391,0.3150552891538429,-5.529742891201442,19.62858406218871,27.59223787897028,2.169123959949548,-0.7990893416114759,-1.3024032851555951,7178.7490234375,11.591111111111111,8.14,178.55215213343575,-3.4108029020460147,45.19711178422171,1364.0,1435.0,1350.0,1528.0,1312.0,999.0,60.0,292.0,1649234975.9264114,1649234977.059425,02c536da-f229-430a-9e70-46fcb5786383
-0.161875737098156,-0.4056197277446444,0.3381540068642957,-0.2637149289842036,0.2248855811986076,0.8206099715904212,0.3720877551236993,0.3456765777478984,-5.959453273392968,20.55713195328752,28.13785175190649,2.593495467714006,-1.6742713700043057,-1.32132807157222,7178.7490234375,11.559875,8.12,178.643548222812,-3.402657184053753,45.12652709151898,1262.0,1435.0,1350.0,1528.0,1222.0,999.0,60.0,292.0,1649234977.9613082,1649234979.1004002,ecb7499c-0b30-498c-a5b8-687dc2817353
-0.1877432705764485,-0.3958846333764381,0.3312509417788357,-0.2592519575287319,0.2195249590982618,0.8033017374654154,0.3620239460154519,0.344475494965383,-5.996558809964518,20.273649859843754,27.556210901299927,2.542199825933273,-1.633333067684147,-1.2898012295017551,7172.74169921875,11.562555555555557,8.122222222222222,178.6498101781886,-3.380558373798441,45.10988343833148,1262.0,1435.0,1350.0,1528.0,1222.0,999.0,60.0,292.0,1649234979.2089412,1649234980.325575,ecb7499c-0b30-498c-a5b8-687dc2817353
-0.1632032497748815,-0.3944559766662147,0.3244110916069645,-0.2487962141876299,0.2132413997311322,0.7963607436222098,0.3495832574276976,0.3278373381899721,-6.214966727367138,20.47902153391059,28.061355530234373,2.5040083274435068,-1.6326234358169915,-1.253466455768355,7172.74169921875,11.559,8.130000000000003,178.66595370974684,-3.411907376837114,45.09656115435536,1262.0,1435.0,1350.0,1528.0,1222.0,999.0,60.0,292.0,1649234980.4330738,1649234981.553098,ecb7499c-0b30-498c-a5b8-687dc2817353
-0.2703145636603946,-0.5402295382139682,0.2724990306301623,-0.2433597332778393,0.1840108377258267,0.914711642493054,0.3321359501538443,0.307949936488022,-6.709255122827453,21.51967420422176,25.017650031248216,2.761274972466838,-2.15283083063378,-1.140706869755055,7166.744140625,11.499000000000002,8.11,178.78085722324408,-3.406506475898732,45.10415822198719,1153.0,1435.0,1350.0,1528.0,1121.0,999.0,60.0,292.0,1649234983.28237,1649234984.422212,54455225-b63a-488b-826a-47efd1dad289
-0.2377715364301149,-0.5384595209121196,0.2721703132318012,-0.243637878766579,0.1836694773599572,0.9194780445316066,0.3315796591842828,0.3024628846581176,-6.815007889400439,21.55389587395658,25.901579018931265,2.77291130413879,-2.1532639507122133,-1.1376313700764378,7164.748372395833,11.502666666666665,8.12,178.78406741215397,-3.4437454498794824,45.162928584700566,1153.0,1435.0,1350.0,1528.0,1121.0,999.0,60.0,292.0,1649234984.5311878,1649234985.632129,54455225-b63a-488b-826a-47efd1dad289
-0.2819966761353683,-0.5465636716582641,0.2743322622197847,-0.2403507041679292,0.1882335919404568,0.920451553682573,0.3375218580239484,0.3166356611860468,-6.661684141221849,21.398679049439465,25.37402060527253,2.766755631604599,-2.1803391920704485,-1.156780187211369,7166.744140625,11.500333333333334,8.117777777777777,178.77381150366026,-3.4197850988392084,45.22275459109566,1153.0,1435.0,1350.0,1528.0,1121.0,999.0,60.0,292.0,1649234985.7445688,1649234986.8777905,54455225-b63a-488b-826a-47efd1dad289
0.2090060026643094,0.2727392472811562,0.4013815308725066,-0.3216577015689271,0.1645280106039294,0.1853889222657052,0.2100174407346653,0.1836062625221637,-6.004747638805057,18.980738370023445,24.380686068214125,1.2888501437606503,0.9147230209701344,-1.0176617455111658,7175.41162109375,11.623333333333331,8.15,178.39649971135023,-3.527596338372948,45.34799407808188,1553.0,1435.0,1350.0,1528.0,1471.0,999.0,60.0,292.0,1649234988.8127477,1649234990.3594596,ef6add56-7fc0-446b-8994-7dad7c1806ea
0.2145562693960947,0.2773918626061823,0.4058192155159791,-0.3236552923223367,0.1687128359104609,0.1819247466235965,0.2174894399118813,0.1956676623033737,-5.7131606793182055,18.69716815904881,24.3225390114315,1.2840504082261384,0.9311471948402408,-1.039265479443792,7181.423502604167,11.625333333333334,8.145555555555555,178.4126933309624,-3.570271953205553,45.46177288709576,1553.0,1435.0,1350.0,1528.0,1471.0,999.0,60.0,292.0,1649234990.4677112,1649234991.5914235,ef6add56-7fc0-446b-8994-7dad7c1806ea
0.1951240143264595,0.2821582647167343,0.4104591877481068,-0.3234656476500099,0.1712540742230249,0.1789662900795196,0.2195123161577004,0.201635147235324,-5.725609154922976,18.83060430647052,24.614645395901032,1.2781304706182772,0.9467963396063012,-1.0510047574728043,7184.7666015625,11.622,8.13888888888889,178.4453219035375,-3.5930672115258435,45.53252795507279,1553.0,1435.0,1350.0,1528.0,1471.0,999.0,60.0,292.0,1649234991.7224717,1649234992.8177493,ef6add56-7fc0-446b-8994-7dad7c1806ea
0.2094358638603962,0.2726128175228444,0.4054525692077271,-0.573657580259863,0.1427315186392554,0.4327993265867836,0.2887073264563511,0.2727139612784205,-5.543917699492424,18.187941021781945,26.87065161479116,2.4088403891378087,0.9201899053248104,-1.103626370872204,7190.79345703125,11.618,8.143333333333334,178.47251060989356,-3.5299155433351865,45.65404423005145,1553.0,1537.0,1350.0,1528.0,1471.0,999.0,60.0,292.0,1649234993.7790763,1649234995.0703642,b635c0b0-8d9d-4b31-a2c8-0a24851bc0ca
0.1956550193279297,0.2679349162343206,0.4027090434036499,-0.5758827445139139,0.1396972042328724,0.4363267169249916,0.2878981759688624,0.2684153492625214,-5.419557985392625,18.218835602123008,26.414789678549194,2.421844458722573,0.9059056010994926,-1.0957559414272098,7190.79345703125,11.616,8.12,178.49359312713167,-3.478443949228009,45.70944275604455,1553.0,1537.0,1350.0,1528.0,1471.0,999.0,60.0,292.0,1649234995.1793945,1649234996.3052597,b635c0b0-8d9d-4b31-a2c8-0a24851bc0ca
0.2033798780657054,0.2661648995371684,0.4053261393958172,-0.5684613147891342,0.1429590921229158,0.4354290656268774,0.2888463991429674,0.2690854270147946,-5.49442171061356,18.32938623015012,27.02456476349306,2.4040090737608275,0.8936464561238595,-1.1045030007844514,7190.79345703125,11.613,8.13,178.5062608513123,-3.485005484290668,45.79343586899793,1553.0,1537.0,1350.0,1528.0,1471.0,999.0,60.0,292.0,1649234996.413758,1649234997.937205,b635c0b0-8d9d-4b31-a2c8-0a24851bc0ca
0.2163136431337998,0.253585137959624,0.3963116974088224,-0.8377947638752328,0.1048405168332885,0.7087069913072526,0.3546530908715977,0.341023962500664,-5.368988059752102,18.15842720339787,29.082717087524024,3.624460389914511,0.8599219065874977,-1.1348141212755285,7192.13525390625,11.603,8.12,178.55397351721444,-3.411929195496963,45.9231104254852,1553.0,1645.0,1350.0,1528.0,1471.0,999.0,60.0,292.0,1649234999.0541155,1649235000.1904995,8f8002c9-3fdc-4151-9484-f5caeb180037
0.2105990177144784,0.2562654489660896,0.3956036907862445,-0.8385154142534504,0.1041577961526583,0.7049267415074236,0.3526175717148725,0.3286212026975246,-5.440768789321734,18.129874247091514,28.814654286261007,3.617287876208268,0.8729019420820394,-1.1301195535952522,7190.79345703125,11.606333333333334,8.12,178.53582342785995,-3.419485021118486,45.99455458365849,1553.0,1645.0,1350.0,1528.0,1471.0,999.0,60.0,292.0,1649235000.2996705,1649235001.624171,8f8002c9-3fdc-4151-9484-f5caeb180037
0.2293611949590324,0.2556965150278679,0.3997253010019592,-0.8378579789145935,0.1068760361648877,0.7029165083303839,0.3575483324485691,0.3353851950498532,-5.207240831780014,18.15519742986591,28.56914737500828,3.611739116711463,0.8714719352021838,-1.1467168797014342,7196.16064453125,11.60477777777778,8.118888888888888,178.57769552311174,-3.4221851514225605,46.01503073188027,1553.0,1645.0,1350.0,1528.0,1471.0,999.0,60.0,292.0,1649235001.7331667,1649235002.7807424,8f8002c9-3fdc-4151-9484-f5caeb180037
0.2401835828700064,0.2394123613015394,0.4052249956395833,-1.0709440439317166,0.085395618293406,0.9484178169736645,0.4276157063848692,0.4009769556853474,-5.159130014219217,18.32642830676496,30.97597436946932,4.691015231520263,0.8177737334229698,-1.2253735929045078,7190.79345703125,11.596222222222222,8.127777777777778,178.6210915094584,-3.368730051407664,46.115123739072224,1553.0,1761.0,1350.0,1528.0,1471.0,999.0,60.0,292.0,1649235003.8943913,1649235004.9122553,29da0f2b-8c61-40a6-8da2-103be4d0b71d
0.2407702169794047,0.2482518247540997,0.4068119419539667,-1.0977411059393836,0.0832356919829556,0.9615027916465336,0.4364096548010659,0.4168312477407774,-4.874136883325978,18.015154940716428,30.601909816019,4.778965904127182,0.8556199259358571,-1.236481499801075,7191.46435546875,11.592444444444446,8.13888888888889,178.6455982282004,-3.3568544157273235,46.16759211391141,1553.0,1761.0,1350.0,1528.0,1471.0,999.0,60.0,292.0,1649235005.0461128,1649235006.3370924,29da0f2b-8c61-40a6-8da2-103be4d0b71d
0.235025248438597,0.2523461262648174,0.4147577996179909,-1.1005792037865323,0.0881012152989897,0.9645755405956492,0.4427240627930241,0.417918543701296,-4.876608214062567,18.220637691621263,31.289528891083027,4.794139021798378,0.8657558273233252,-1.261575678571088,7190.79345703125,11.59611111111111,8.119999999999997,178.6688041753605,-3.3932291573346567,46.19583191048977,1553.0,1761.0,1350.0,1528.0,1471.0,999.0,60.0,292.0,1649235006.4449625,1649235007.570843,29da0f2b-8c61-40a6-8da2-103be4d0b71d
0.2072106999772227,0.2277681799090317,0.3989540794403149,-1.1798507311330506,0.0611969600898653,1.0645814836283998,0.4469341738125828,0.4220275109166597,-5.008965004086807,19.033775222884017,31.6517474236318,5.202277454738567,0.7800719807625464,-1.2129676050804827,7190.79345703125,11.536111111111111,8.105555555555556,178.6784559915676,-3.339094975247905,46.25318007603597,1553.0,1887.0,1350.0,1528.0,1471.0,999.0,60.0,292.0,1649235008.4728918,1649235009.6103945,96192860-776d-4edf-a0fb-1e5ec6abdd4d
