raw_voltage_G-,raw_voltage_G0,raw_voltage_G1,raw_voltage_G2,raw_voltage_G3,raw_voltage_G4,raw_voltage_G5,raw_voltage_G6,load_x,load_y,load_z,load_l,load_m,load_n,rpm,voltage,current,roll,pitch,yaw,aileron1_pwm,elevator_pwm,throttle_pwm,rudder_pwm,aileron2_pwm,pbaro,pdiff,Tt,sample_start_time,sample_end_time,uid
0.2197019608538089,0.3519980659018383,0.3788643903418067,-0.3731525565253084,0.1253221395255532,0.1891818150920759,0.1686243351164482,0.1458164049899715,-7.091751283249959,19.226703077882,28.97292265869876,1.414227242464387,1.183901270892274,-0.8598789858775814,2939.1880696614585,11.957,0.2433333333333333,179.96553076748555,-11.10251945340627,112.88576026208898,1553.0,1435.0,1200.0,1528.0,1471.0,995.0,60.0,293.1,1649252336.6230202,1649252337.5998468,99506710-d555-40f3-bb65-6adcc039a918
0.2386006821877788,0.3452234535104719,0.3752156274150646,-0.3709729066554412,0.1245883411594893,0.1930536003443547,0.1673741975714807,0.1436670989481171,-7.152914021011953,19.11935394758393,28.847851368935626,1.4170668655666765,1.1595322597665887,-0.8531016649180405,3188.923095703125,11.960666666666668,0.24,179.98125841641436,-11.06341092858364,111.49549802383012,1553.0,1435.0,1200.0,1528.0,1471.0,995.0,60.0,293.1,1649252337.7076416,1649252338.8325026,99506710-d555-40f3-bb65-6adcc039a918
0.2207579022477382,0.3583458514085492,0.3829076140780498,-0.3780074608873722,0.1278886637528346,0.1901608870736501,0.1737644636256303,0.1478220868291466,-6.985055209669465,19.12122749586499,29.396559129324725,1.4270021760781904,1.2040517507024049,-0.8747635708479377,3225.4406467013887,11.96022222222222,0.23,179.92412616073696,-10.979777633790295,110.29043560600628,1553.0,1435.0,1200.0,1528.0,1471.0,995.0,60.0,293.1,1649252338.9405797,1649252340.0619252,99506710-d555-40f3-bb65-6adcc039a918
0.3302996843080582,0.5225073102457187,0.4306242289454935,-0.408065386242522,0.1392491370699834,0.0525071889081601,0.1724758915131106,0.1544490295242474,-6.612239331185788,18.92589033975005,28.93870321651428,1.1866749882284755,1.8278987370584536,-0.9341501661609448,3259.101318359375,11.95133333333333,0.22,179.46263759927584,-10.816423888824378,107.87570949958764,1647.0,1435.0,1200.0,1528.0,1543.0,995.0,60.0,293.1,1649252342.205228,1649252343.3377285,767646ff-110b-4ebc-a8c8-301739fd443a
0.3249876113800166,0.5163405722661827,0.4281522742634532,-0.3988087022929998,0.1392096910046274,0.0501404233535749,0.1698198549265622,0.1530684163857107,-6.6334719710031145,18.93072234512852,28.935342139440174,1.1603734602843303,1.803653466114503,-0.927631847293194,3264.06201171875,11.945375,0.22,179.34342916932678,-10.753133399410434,107.23760362983865,1647.0,1435.0,1200.0,1528.0,1543.0,995.0,60.0,293.1,1649252343.446008,1649252344.5633347,767646ff-110b-4ebc-a8c8-301739fd443a
0.329510762575214,0.5247951831682189,0.4420504450244376,-0.3996370702295281,0.1496366068107331,0.0440525770999308,0.1818114655401452,0.1579465826280399,-6.469441792738272,18.994122731663182,29.23696942402613,1.1498048266892853,1.832513252034636,-0.9763220647769584,3268.4873318142363,11.948666666666666,0.22,179.22813747341172,-10.697937087333845,106.69728861407634,1647.0,1435.0,1200.0,1528.0,1543.0,995.0,60.0,293.1,1649252344.672079,1649252345.7956417,767646ff-110b-4ebc-a8c8-301739fd443a
0.4054707751244234,0.6488794177728161,0.4740806662655792,-0.4173220709596221,0.1521611563675003,-0.0725237668254722,0.1671638181670279,0.1377107395232749,-6.54013618526588,19.346942345251183,27.697341649234307,0.931388008854332,2.316264544978681,-0.9900727908129584,3262.8231608072915,11.943,0.22,178.85718231048926,-10.60845572765489,105.64603067271254,1745.0,1435.0,1200.0,1528.0,1614.0,995.0,60.0,293.1,1649252347.5281122,1649252348.56825,d9369b02-3581-4119-8372-0013c8947d7e
0.4013289361404401,0.6400303460621646,0.4654025275103667,-0.4200570006465801,0.1470726110640622,-0.0613868207465333,0.1624434363458257,0.1444428718355915,-6.707750015397668,19.21961141929182,27.640820209402545,0.9612139571929784,2.284546844665092,-0.9658313264637016,3244.704345703125,11.934,0.22,178.76961473187023,-10.615578761185567,105.35441346936912,1745.0,1435.0,1200.0,1528.0,1614.0,995.0,60.0,293.1,1649252348.6805408,1649252349.6156142,d9369b02-3581-4119-8372-0013c8947d7e
0.3849325132089693,0.6375978374924616,0.4725422688642232,-0.4159546069173811,0.1540940143813714,-0.0644241702399699,0.1690966764676061,0.147808937928665,-6.649539245492989,19.28272530329724,27.459379478252867,0.94590891229913,2.2765681611037185,-0.9950992459942786,3232.467963324653,11.931222222222225,0.2188888888888889,178.67160151728058,-10.588702820575216,105.04712857097962,1745.0,1435.0,1200.0,1528.0,1614.0,995.0,60.0,293.1,1649252349.7237775,1649252350.9163997,d9369b02-3581-4119-8372-0013c8947d7e
0.4687291474283647,0.7674412003755287,0.5032576204773516,-0.4336922016013158,0.1525293194415331,-0.1852738451974369,0.1517535459157368,0.1233918091357382,-6.5065062297572265,19.703249593925364,26.090068612870027,0.7185260733140947,2.7788217300318707,-0.9965918790334858,3226.92369249132,11.927888888888887,0.2177777777777777,178.32079693022945,-10.537097231437444,104.4959163678515,1849.0,1435.0,1200.0,1528.0,1686.0,995.0,60.0,293.1,1649252352.4835727,1649252353.5772743,27f28991-4584-4f01-8a52-f7aadea24beb
0.4755401714825024,0.7737131278926326,0.5166429921485352,-0.4377945949804679,0.1628247484915163,-0.1874565285815855,0.164205361555481,0.1461916482977855,-6.4112227524587295,19.76548507907266,26.214519774530835,0.7240221568904501,2.801922580080202,-1.045649540394547,3221.1298828125,11.909666666666666,0.21,178.24470406941606,-10.57187086286684,104.3264988378587,1849.0,1435.0,1200.0,1528.0,1686.0,995.0,60.0,293.1,1649252353.6859958,1649252354.8074694,27f28991-4584-4f01-8a52-f7aadea24beb
0.5008382608032776,0.7974991171812847,0.5252027925986542,-0.4426990598497291,0.1652704058964256,-0.2019858390672613,0.1679921858496929,0.1497943911093517,-6.174868221860372,19.721034230147897,26.86661026270648,0.7027906001008379,2.8848279173115974,-1.062101843016824,3242.24951171875,11.901777777777776,0.21,178.16613260884387,-10.57897378528496,104.1362257046902,1849.0,1435.0,1200.0,1528.0,1686.0,995.0,60.0,293.1,1649252354.9157507,1649252356.035776,27f28991-4584-4f01-8a52-f7aadea24beb
0.5318297350059771,0.8582329397064177,0.5403632379463628,-0.4431329671421055,0.1626406666637717,-0.276065603158157,0.1515957618116256,0.1328457218380807,-6.234892555495838,20.38031987555477,24.72731470163813,0.5420564097986109,3.133027733419277,-1.0518252377788364,3271.120524088541,11.893666666666668,0.2066666666666666,178.02037030067652,-10.546719924476868,103.92365731625095,1962.0,1435.0,1200.0,1528.0,1760.0,995.0,60.0,293.1,1649252357.1512654,1649252358.2946138,33ae1757-45ad-4628-ab38-9f87f332ab94
0.513145439376227,0.8652674915562089,0.5430981664161856,-0.4408056472957582,0.1641922124333382,-0.285019866097579,0.1513327874926782,0.1260083998058885,-6.222613230885878,20.37997411306702,24.748338314126105,0.5168285434663553,3.1590251691702296,-1.0563821196225205,3271.53662109375,11.851777777777777,0.2,178.01134079059378,-10.588227458381729,103.66045977113409,1962.0,1435.0,1200.0,1528.0,1760.0,995.0,60.0,293.1,1649252358.4032414,1649252359.7193654,33ae1757-45ad-4628-ab38-9f87f332ab94
0.521192440733328,0.8520399043025536,0.5446628611302163,-0.4462360615777545,0.1678606985095829,-0.2670455972876033,0.1604579823697025,0.1437065445592207,-6.134288345745393,20.295217595504667,24.791865044633777,0.5690362586724003,3.109169112641628,-1.077994124405512,3271.53662109375,11.853222222222222,0.19,177.96318492130553,-10.58852096678856,103.49457117221245,1962.0,1435.0,1200.0,1528.0,1760.0,995.0,60.0,293.1,1649252359.833436,1649252360.955953,33ae1757-45ad-4628-ab38-9f87f332ab94
0.1416816458820999,0.1869131595340832,0.3694827962215719,-0.3714462596924692,0.1471120571965375,0.3591742191889036,0.2238872916554563,0.2063995263888602,-6.815735462476995,19.15250091770382,30.542501245060336,1.791803988014555,0.5480617105700766,-0.9729752701456164,3273.34166124132,11.874666666666666,0.1966666666666666,178.32552342113507,-10.554113129934716,103.32964411214397,1459.0,1435.0,1200.0,1528.0,1394.0,995.0,60.0,293.1,1649252362.0671551,1649252363.202946,8b0d26cb-84af-4a7e-b888-d14cc818fe6c
0.1308865665545811,0.1894640065085835,0.3472746499145234,-0.3811368506812809,0.1209724497104941,0.367194923300389,0.1994833125738097,0.1761706749964335,-6.8307058101549,19.481906000041487,30.586097630634377,1.832764442652481,0.557139328009702,-0.8722144548581199,3301.217583550347,11.955555555555556,0.2211111111111111,178.29992994340515,-10.548290678258494,103.43189280292896,1459.0,1435.0,1200.0,1528.0,1394.0,995.0,60.0,293.1,1649252363.3115518,1649252364.4379866,8b0d26cb-84af-4a7e-b888-d14cc818fe6c
0.1415896050300557,0.1943027264683751,0.3497991994282341,-0.3777970812291594,0.1235627428393652,0.3579382417717221,0.2002327882227742,0.1821664802921778,-6.800592490378551,19.38965290795985,30.395034119529218,1.8039285921169528,0.5765150075013509,-0.8798466481161661,3308.15380859375,11.957666666666666,0.2233333333333333,178.24512450550498,-10.55386629448721,103.52489265866784,1459.0,1435.0,1200.0,1528.0,1394.0,995.0,60.0,293.1,1649252364.5461853,1649252365.6576235,8b0d26cb-84af-4a7e-b888-d14cc818fe6c
0.0372890903536779,0.0241530369567842,0.3215917079377111,-0.3723560486348076,0.125752000747683,0.5229563887224228,0.2291968362074831,0.2047832483297129,-6.866509461986758,19.80480827882913,30.86376887857256,2.163861873887816,-0.0677886898919776,-0.9057130117610088,3304.7535536024307,11.946555555555555,0.2211111111111111,178.2918111252117,-10.564545390118262,103.78739504230924,1364.0,1435.0,1200.0,1528.0,1312.0,995.0,60.0,293.1,1649252367.597882,1649252368.737048,9a40eca6-e31f-4ccc-b757-ba42d7b7c86a
0.0551763744939026,0.0344145830447978,0.3156914837147921,-0.3766399958291132,0.1183821566085395,0.5183917686558268,0.2208893891306668,0.202704743045584,-6.925525479487334,19.747243178269706,31.02961990529358,2.1625894310886853,-0.0302014591226093,-0.8743839691754047,3307.7283528645835,11.937333333333331,0.2166666666666666,178.31336264877282,-10.593643324074854,103.7709365631392,1364.0,1435.0,1200.0,1528.0,1312.0,995.0,60.0,293.1,1649252368.8483193,1649252369.962426,9a40eca6-e31f-4ccc-b757-ba42d7b7c86a
0.0547819136090152,0.0392401545776105,0.3176111932190594,-0.3779811631442801,0.1176984244091607,0.5133952645611803,0.2206921586817379,0.1903055229200619,-6.822628027107953,19.84901238666084,30.820899157448444,2.155175717876716,-0.0106924764142505,-0.8754807187853929,3307.7283528645835,11.937666666666669,0.22,178.3168323848712,-10.575972770918389,103.80323880445394,1364.0,1435.0,1200.0,1528.0,1312.0,995.0,60.0,293.1,1649252370.0710332,1649252371.1964047,9a40eca6-e31f-4ccc-b757-ba42d7b7c86a
-0.0660151612551601,-0.1662213816965792,0.2760613156516271,-0.3352610416997115,0.1154499973728778,0.6774252345467822,0.234919047389506,0.2088977786199905,-7.059359581511512,20.66308206526088,30.998759044699767,2.430643681591863,-0.78907899287775,-0.86077237998678,3308.2960340711807,11.927333333333332,0.2155555555555555,178.53761293742252,-10.57116223074045,103.83343355295472,1262.0,1435.0,1200.0,1528.0,1222.0,995.0,60.0,293.1,1649252372.983638,1649252374.2636385,492be269-e167-4445-a250-1db7606e6a3b
-0.0660414586851811,-0.1671417905211306,0.2628205792152082,-0.3416776064411596,0.1033006021679267,0.6826847125432474,0.2210471734114191,0.1933297229602001,-7.355333026117855,20.682696480015093,30.675425588297248,2.4562068282292087,-0.7876196050039791,-0.8072639858197027,3313.268798828125,11.916,0.21,178.57939396348536,-10.571072679371332,103.72348496224542,1262.0,1435.0,1200.0,1528.0,1222.0,995.0,60.0,293.1,1649252374.3722394,1649252375.492504,492be269-e167-4445-a250-1db7606e6a3b
-0.0583889171318159,-0.1496145769477161,0.2639513670927769,-0.3521045245784097,0.0975940681638585,0.674111763418493,0.2180624195252515,0.1904896045511324,-7.142448960554596,20.80291524331417,30.52351451553427,2.461399034882094,-0.720684753171492,-0.7948685667776586,3313.1269802517363,11.914888888888887,0.2144444444444444,178.60627910587834,-10.591659818167138,103.6702466733048,1262.0,1435.0,1200.0,1528.0,1222.0,995.0,60.0,293.1,1649252375.6006489,1649252376.928134,492be269-e167-4445-a250-1db7606e6a3b
-0.1671605020653069,-0.3295089916349371,0.233406947216668,-0.2938810769904124,0.099138534115522,0.7886864573196932,0.2220282684258157,0.2021408662358192,-7.584715808472695,22.163369994846366,29.259875879817265,2.594599490964584,-1.3901501632980189,-0.7848899312427864,3313.268798828125,11.916999999999998,0.21,178.71180401073525,-10.58496016150126,103.58646453730576,1153.0,1435.0,1200.0,1528.0,1121.0,995.0,60.0,293.1,1649252377.4857836,1649252378.5611885,fe8cc946-86d6-4874-bf0e-7c7d536f6b66
-0.1759382689312329,-0.3341039558185919,0.2372726638261925,-0.2845596610711039,0.1045497283730059,0.785099897793961,0.2251758638802737,0.200482613366996,-7.583206419815704,22.203958628354204,29.356650694692284,2.565990922357823,-1.4091543801645807,-0.8023644464935359,3306.87744140625,11.858777777777778,0.1844444444444444,178.7569788819057,-10.587121442054878,103.34560626423428,1153.0,1435.0,1200.0,1528.0,1121.0,995.0,60.0,293.1,1649252378.6692326,1649252379.792428,fe8cc946-86d6-4874-bf0e-7c7d536f6b66
-0.1258943271898436,-0.3003906934368448,0.2370885819352716,-0.3097657153994027,0.093636310464161,0.7748044696207899,0.21766795855597,0.1937899273454187,-7.540188207216138,22.318968790052644,29.258230561923845,2.600473619373828,-1.2790476404372757,-0.772857027805478,3299.240234375,11.856444444444444,0.19,178.77629010341906,-10.592887544670443,103.17912040321522,1153.0,1435.0,1200.0,1528.0,1121.0,995.0,60.0,293.1,1649252379.90044,1649252380.9652102,fe8cc946-86d6-4874-bf0e-7c7d536f6b66
0.2351162778491015,0.3609361443833716,0.3941628972463718,-0.3821361518120995,0.1351072979230239,0.1921331916615296,0.1852958699171598,0.1582621512632325,-6.742886363683443,19.287945497273697,29.58159436046788,1.4425645520725572,1.211637632685106,-0.915716935797418,3295.9981825086807,11.919666666666664,0.2122222222222222,178.43105743291085,-10.664013150409945,102.92790984009169,1553.0,1435.0,1200.0,1528.0,1471.0,995.0,60.0,293.1,1649252383.1612866,1649252384.5160534,9338f393-067e-446a-bc8d-0ca0a584344f
0.2338671517681426,0.3588192044557751,0.3902971808259164,-0.3715383010966199,0.1327273839068015,0.1827318740450233,0.1784322507139916,0.1558033452214123,-6.782172835642199,19.342333683001524,29.295981847501857,1.397635136267418,1.2049582916764363,-0.8980495327376135,3284.9108072916665,11.967,0.22,178.36546788522114,-10.683639034943806,103.32889355024516,1553.0,1435.0,1200.0,1528.0,1471.0,995.0,60.0,293.1,1649252384.6240113,1649252385.7321975,9338f393-067e-446a-bc8d-0ca0a584344f
0.2302381117712754,0.3541119715414971,0.3860764496817715,-0.3691978326218413,0.1305315517300455,0.1852432749627106,0.1749609950547923,0.1508725842977569,-6.88058957117974,19.317861022140324,29.274923328285976,1.3975737722103725,1.1876303682061895,-0.8850006169112588,3287.8505859375,11.960666666666668,0.2111111111111111,178.32415434766145,-10.66713748763653,103.64648065063278,1553.0,1435.0,1200.0,1528.0,1471.0,995.0,60.0,293.1,1649252385.8420012,1649252386.9574573,9338f393-067e-446a-bc8d-0ca0a584344f
0.2431764282495102,0.3683520085249875,0.3774246082290236,-0.5665072158069403,0.0996452648582557,0.3652226189477602,0.2173918361391371,0.1880045010925338,-6.7168741690697535,18.764708094056648,31.14986923975061,2.243376582622233,1.2469979756322054,-0.8885724631116375,3278.1055908203125,11.96875,0.22,178.29122486730796,-10.593764808949937,104.05883785898294,1553.0,1537.0,1200.0,1528.0,1471.0,995.0,60.0,293.1,1649252387.9812832,1649252389.0156524,82fb2b05-6f70-43d5-bf84-12e5a107fe2e
0.2371674743614904,0.3593188548699871,0.375518047387591,-0.5593148771238041,0.1001580639519759,0.3658143101154893,0.2154326803506234,0.1873602151366356,-6.81186824330728,18.84250149133453,30.902103754906392,2.2288154927235366,1.2149813639584783,-0.8853604016125647,3285.470486111112,11.95811111111111,0.2255555555555556,178.31670185236706,-10.609048531156605,104.1961249458914,1553.0,1537.0,1200.0,1528.0,1471.0,995.0,60.0,293.1,1649252389.128806,1649252390.2387888,82fb2b05-6f70-43d5-bf84-12e5a107fe2e
0.252393663829148,0.3669056520260218,0.3820529489205304,-0.5601432453185016,0.1043524979836413,0.3577936059316238,0.2192195047820963,0.1905947943155203,-6.759761492057652,18.87998171133545,30.74932718379174,2.2132362262933647,1.244938625552867,-0.9046564745758752,3281.138020833333,11.957,0.2233333333333333,178.33124863747938,-10.57887702427172,104.30391216118338,1553.0,1537.0,1200.0,1528.0,1471.0,995.0,60.0,293.1,1649252390.3472347,1649252391.4634757,82fb2b05-6f70-43d5-bf84-12e5a107fe2e
0.2678433810680912,0.3671028824728828,0.3486158168927151,-0.7640795981820054,0.0484442420140764,0.5577852589468558,0.2377854630326779,0.2132368482746282,-6.7964087062727865,18.751205275084104,32.45441341010382,3.12040935414669,1.2538126136584842,-0.8086950561825671,3281.9756673177085,11.945333333333332,0.22,178.3578089664318,-10.541304438238694,104.59935199373228,1553.0,1645.0,1200.0,1528.0,1471.0,995.0,60.0,293.1,1649252393.6078122,1649252394.9470456,c83b6815-4039-4d39-af0c-3d3217bb4f43
0.2543002246922709,0.3702585693345432,0.3516137193849345,-0.7615944937715754,0.0502061672319261,0.55144758791755,0.2384823438947114,0.2136970526409533,-6.753470584266709,18.82071705428817,32.33156444756376,3.101174083062377,1.2663185201770943,-0.8159416838118202,3274.0367838541665,11.942333333333332,0.2166666666666666,178.4005158625822,-10.53289761373527,104.63069117837402,1553.0,1645.0,1200.0,1528.0,1471.0,995.0,60.0,293.1,1649252395.0549247,1649252396.1747692,c83b6815-4039-4d39-af0c-3d3217bb4f43
0.2506580360179024,0.364197020811922,0.3570704279642028,-0.7611079917226918,0.0573590580629744,0.5570489320116813,0.2467397247192854,0.2184042856884809,-6.770736600146739,18.760982265592,32.40078261423911,3.112541682745753,1.2433777679262803,-0.8454981394825422,3273.063720703125,11.953222222222225,0.22,178.4163603836368,-10.536041018573291,104.67968412529052,1553.0,1645.0,1200.0,1528.0,1471.0,995.0,60.0,293.1,1649252396.2830074,1649252397.406883,c83b6815-4039-4d39-af0c-3d3217bb4f43
0.2774945235720348,0.3701139336735428,0.3590953269913647,-0.8696505317207243,0.0432242095028121,0.6560586052191357,0.2726032087646714,0.244583338613768,-6.7217116798108165,18.93837407915004,33.19571768428688,3.5813031889539007,1.2716725989695268,-0.8649833143155854,3270.288330078125,11.947,0.2122222222222222,178.41643475680775,-10.513468002276309,104.76363701601878,1553.0,1761.0,1200.0,1528.0,1471.0,995.0,60.0,293.1,1649252397.9884405,1649252399.0573008,0cd7732e-3a1e-412a-af62-8fccdf90d817
0.2513417681893387,0.3678786554894497,0.3525735741524823,-0.8700318455821132,0.0372809988190899,0.6586488981230808,0.2670018644506836,0.2419930455967169,-6.70667718636688,18.92598952103148,33.15609805077481,3.587578487519324,1.263166977615238,-0.8403375541411876,3268.6258138020835,11.944,0.2133333333333333,178.44068648182076,-10.530361906005904,104.77325999364942,1553.0,1761.0,1200.0,1528.0,1471.0,995.0,60.0,293.1,1649252399.1651232,1649252400.2820585,0cd7732e-3a1e-412a-af62-8fccdf90d817
0.2783360400823932,0.3678918041911704,0.3542040123488004,-0.8668630060236996,0.0396346154123848,0.6547042896406718,0.266659998431879,0.2380747342934353,-6.839723423993936,18.95977300430624,33.017337205619334,3.571782348253702,1.2651015777319348,-0.8455522294567808,3266.549560546875,11.943,0.21,178.47202338973278,-10.51777756705137,104.75927631968868,1553.0,1761.0,1200.0,1528.0,1471.0,995.0,60.0,293.1,1649252400.3905132,1649252401.5048397,0cd7732e-3a1e-412a-af62-8fccdf90d817
0.2386401282662298,0.3456573604536676,0.3099192064427416,-0.8680332413498343,-0.004952614099552,0.6820141291051576,0.2220201769389063,0.1934086151880787,-7.056877091615366,19.71373577092102,33.29896833703736,3.638519574787756,1.1780992131308363,-0.6636648674715749,3268.4873318142363,11.924777777777775,0.2111111111111111,178.51288613480725,-10.52427819959393,104.74100176910936,1553.0,1887.0,1200.0,1528.0,1471.0,995.0,60.0,293.1,1649252402.6170857,1649252403.7512205,27c1337c-6144-4456-8d14-9aab1dbd0a42
0.2349847908950324,0.3545327297776268,0.3251059495713997,-0.8649038500369153,0.0108652677178935,0.6696149097378791,0.2359446456041939,0.2050715082778944,-7.059470229472781,19.4533449649512,33.29745343613943,3.602626222702506,1.2119920718195596,-0.7245317948432816,3267.794921875,11.907444444444444,0.2,178.54681547896428,-10.548974550949143,104.62572335411768,1553.0,1887.0,1200.0,1528.0,1471.0,995.0,60.0,293.1,1649252403.858908,1649252404.9836266,27c1337c-6144-4456-8d14-9aab1dbd0a42
0.2427556699904245,0.3540988228368198,0.3229627122418917,-0.8555288247816029,0.0091953832578226,0.6594246711339927,0.230211814341204,0.2072147456906027,-7.075088492668487,19.549237714207443,32.98442151119607,3.55905084063036,1.2119610834472967,-0.711635637241107,3259.235595703125,11.904777777777776,0.2,178.56298177781972,-10.536170981895,104.52406737197067,1553.0,1887.0,1200.0,1528.0,1471.0,995.0,60.0,293.1,1649252405.092674,1649252406.1461957,27c1337c-6144-4456-8d14-9aab1dbd0a42
0.2383640056818373,0.3573728479635711,0.407495674166121,-0.1727957306126302,0.167821253207365,-0.0074771641316046,0.1380920518990101,0.1062590588779998,-6.97609398546266,20.128229503238405,27.97442738201548,0.5276533736515504,1.1892531623089988,-0.9126107551419664,3263.647786458333,11.924333333333331,0.2066666666666666,178.58288191342157,-10.730430668809056,104.35029825256665,1553.0,1335.0,1200.0,1528.0,1471.0,995.0,60.0,293.1,1649252408.1507902,1649252409.284684,b25f00ca-749b-4e0c-ab0d-f049ae971d56
0.224321198754668,0.3640918312483782,0.4145959695147468,-0.1687985264312071,0.1728703523036896,-0.0160501140632666,0.1427861362255955,0.1218402636172288,-6.825436995820883,20.16329001960537,28.258866396213435,0.5000792429825132,1.2108247198679387,-0.9345094804282752,3262.8193359375,11.964,0.22,178.54491516855512,-10.747837975091263,104.5321656995966,1553.0,1335.0,1200.0,1528.0,1471.0,995.0,60.0,293.1,1649252409.3929615,1649252410.509488,b25f00ca-749b-4e0c-ab0d-f049ae971d56
0.2260173805053469,0.3663402581373532,0.416305299931581,-0.1690746491386731,0.1742641141467087,-0.016497169820101,0.1448241841183128,0.1217613714700728,-6.774849870594637,20.114997173925868,28.486952696757385,0.4995243108623967,1.2170196614040618,-0.9409930544010328,3296.4409450954863,11.965555555555556,0.22,178.52624902046344,-10.747718162189573,104.6686867618169,1553.0,1335.0,1200.0,1528.0,1471.0,995.0,60.0,293.1,1649252410.6186962,1649252411.7378266,b25f00ca-749b-4e0c-ab0d-f049ae971d56
0.2170762674373866,0.3621063782652559,0.4409065085575811,0.030404230593547,0.2172077543642048,-0.2066010317486673,0.1138853026063943,0.0906515566110623,-6.85537406883678,20.828615399527934,26.95355186854625,-0.3719692594545545,1.1923120292492164,-0.9902427969701766,3329.291693793403,11.96622222222222,0.2155555555555555,178.50417233124614,-10.80267595125374,104.97324110235824,1553.0,1236.0,1200.0,1528.0,1471.0,995.0,60.0,293.1,1649252413.6758783,1649252414.814843,35b2c0d5-a882-4612-838b-0e70cb758d84
0.2161032639748306,0.3535991724086726,0.4312685150185412,0.036768199377837,0.2096472543523508,-0.2039844412787153,0.1036293197447628,0.0807768859320869,-6.976865377949273,20.96323545739002,26.89609561472144,-0.3801027952859078,1.1603816987963034,-0.9533999644558336,3330.146240234375,11.967888888888888,0.22,178.4993562889714,-10.778697338943813,105.06762748649862,1553.0,1236.0,1200.0,1528.0,1471.0,995.0,60.0,293.1,1649252414.9283354,1649252416.0534608,35b2c0d5-a882-4612-838b-0e70cb758d84
0.2211655117629646,0.368404603301224,0.43638335742412,0.0266042571549085,0.2100680126202453,-0.2103089645527682,0.107455590132998,0.0837353424857746,-6.76591736596779,20.89435582557835,26.76296101665276,-0.3715044430375773,1.217172481099338,-0.9647025832556292,3319.401177300347,11.966333333333331,0.22,178.48088138617635,-10.805009694083902,105.18347432501122,1553.0,1236.0,1200.0,1528.0,1471.0,995.0,60.0,293.1,1649252416.1622107,1649252417.2720096,35b2c0d5-a882-4612-838b-0e70cb758d84
0.2064784187492067,0.3486421142928259,0.4373432121675102,0.1909761064460191,0.2278844952026585,-0.348002130296479,0.0635126478249524,0.0377675004400942,-7.116958068148655,21.86190059724786,25.77846624324068,-1.045573865785982,1.134100829699513,-0.9306934455847388,3309.0062120225693,11.963555555555557,0.22,178.4905681122393,-10.851153029160432,105.30228091216414,1553.0,1133.0,1200.0,1528.0,1471.0,995.0,60.0,293.1,1649252418.1832898,1649252419.3266068,e1eda15e-ba15-4037-a02c-748bd4d1c107
0.2068597309389225,0.3468538917246362,0.4236948666226978,0.1846647323660219,0.2132368482823067,-0.3391793537588002,0.0511923194539822,0.0262623912422076,-7.088165322462966,21.950381809109075,25.856175351284232,-1.011577158268899,1.126414719490006,-0.8747753919960306,3301.9233669704863,11.960666666666665,0.2188888888888889,178.50540328311652,-10.857936640234854,105.35696947793852,1553.0,1133.0,1200.0,1528.0,1471.0,995.0,60.0,293.1,1649252419.4413393,1649252420.5546176,e1eda15e-ba15-4037-a02c-748bd4d1c107
0.207185414013642,0.3526428576832546,0.4358462837396933,0.1773859177453673,0.2248729380694549,-0.3431634097101153,0.0640289869556713,0.0422451373037853,-7.115088120092097,21.75772734607128,25.24236323716636,-1.0048941092033714,1.1554208613522214,-0.92563340794644,3303.9032389322915,11.949666666666666,0.22,178.53370910485694,-10.848361853383356,105.36208377180704,1553.0,1133.0,1200.0,1528.0,1471.0,995.0,60.0,293.1,1649252420.6658297,1649252421.7752068,e1eda15e-ba15-4037-a02c-748bd4d1c107
0.1953809195510745,0.3507590542367771,0.411177308783938,0.2556150941661503,0.2055185638721709,-0.4126805793202555,0.0114306616601735,-0.0136307539612019,-7.421974099287199,22.52213248813432,25.03320274921241,-1.3339231633413708,1.1411986970425203,-0.7911220752339821,3296.702392578125,11.94877777777778,0.2177777777777777,178.55267274563246,-10.884926986513802,105.3605082748385,1553.0,1026.0,1200.0,1528.0,1471.0,995.0,60.0,293.1,1649252423.4823334,1649252424.6416562,aec52881-08cf-4baa-a6a8-6fe051eda558
0.192632842164428,0.3524289385447104,0.412452732276971,0.2429660490478607,0.2050057648367849,-0.4016751182314423,0.0159012185868154,-0.0040716514567297,-7.385531936430195,22.49100730896764,25.19669784197508,-1.2807576949268522,1.1473924923055572,-0.7981672847245267,3295.9981825086807,11.940222222222223,0.21,178.58198336409072,-10.879609209926258,105.34364301995794,1553.0,1026.0,1200.0,1528.0,1471.0,995.0,60.0,293.1,1649252424.7522328,1649252425.873164,aec52881-08cf-4baa-a6a8-6fe051eda558
0.1962092873906428,0.3588586505020905,0.4105593201184702,0.2366546751295805,0.2019026725813197,-0.4017540106797573,0.0128507208330575,-0.0105934049242349,-7.485746189210224,22.468860671377023,25.236630930624337,-1.2669832352858992,1.172519844656965,-0.786298586527488,3296.420708550347,11.938555555555556,0.2077777777777777,178.55969569791907,-10.89515756638936,105.31461851053491,1553.0,1026.0,1200.0,1528.0,1471.0,995.0,60.0,293.1,1649252425.9816332,1649252427.1086545,aec52881-08cf-4baa-a6a8-6fe051eda558
0.2435182943173842,0.3611465234961536,0.3955435102073991,-0.3658712121070016,0.1371716431247301,0.1773277598865276,0.1815221942039455,0.1590247755984352,-6.736849621892436,19.42176365521692,29.624464907658552,1.3735707655788791,1.210091225871316,-0.914859832167026,3292.200873480903,11.938333333333333,0.21,178.6243593755213,-10.69367163419717,105.1993939781467,1553.0,1435.0,1200.0,1528.0,1471.0,995.0,60.0,293.1,1649252429.0376563,1649252430.1848834,d07118f6-4882-49d9-9df4-76f4faccdf69
0.2351294265558635,0.3672080720331289,0.4013683822121714,-0.3682248286278931,0.1417999841303458,0.1744481958533006,0.1861242377645781,0.1556192634963639,-6.765940840380104,19.39664613154312,29.791826787203203,1.3725447502537178,1.2322069150712136,-0.9347172461678472,3299.240234375,11.965333333333334,0.2111111111111111,178.5993183842042,-10.68662515570344,105.25543871592627,1553.0,1435.0,1200.0,1528.0,1471.0,995.0,60.0,293.1,1649252430.314584,1649252431.405494,d07118f6-4882-49d9-9df4-76f4faccdf69
0.226858896995326,0.3509825820408589,0.3790024516455745,-0.3615847359426087,0.1209461523673589,0.1859664532468774,0.1646392688486462,0.1359882605582075,-6.763243985810012,19.72882076645042,29.865522566161136,1.3845508471215633,1.168449426277166,-0.8471718984875862,3300.935438368056,11.967555555555556,0.2144444444444444,178.59185222853148,-10.67506591430684,105.28796863021331,1553.0,1435.0,1200.0,1528.0,1471.0,995.0,60.0,293.1,1649252431.51352,1649252432.833236,d07118f6-4882-49d9-9df4-76f4faccdf69
0.2805976156897186,0.373348512707256,0.51460494451407,-0.3649771000524503,0.245648382987222,0.1584593817610068,0.3022666657551138,0.2781125121927457,-5.88584058786324,19.504212707048254,29.67654613978512,1.336065810439792,1.2568104507822646,-1.394698284317883,3306.87744140625,11.965,0.21,178.57462649144472,-10.690600136072913,105.26878794120412,1553.0,1435.0,1200.0,1435.0,1471.0,995.0,60.0,293.1,1649252434.4844017,1649252435.4956892,ca75bc28-01aa-4788-a4ca-292d038a35bd
0.2713540827658589,0.3747159770223978,0.511738528999622,-0.3618740073400857,0.2430712386678559,0.1533708363758609,0.2966521728055791,0.2728661826615914,-6.0066307330685165,19.562846369345124,29.517235848623308,1.3177911162401352,1.2636433812188363,-1.379427596438037,3296.702392578125,11.957666666666665,0.2166666666666666,178.58347841660907,-10.662965759873469,105.24161972541552,1553.0,1435.0,1200.0,1435.0,1471.0,995.0,60.0,293.1,1649252435.604035,1649252436.932088,ca75bc28-01aa-4788-a4ca-292d038a35bd
0.2704468227558886,0.3734405535865114,0.5096741838653842,-0.3635833381144662,0.2414802464530391,0.1562372520443547,0.295915845860413,0.2789014338842915,-5.998764815745164,19.51508221936974,29.51305872912964,1.3276720351347029,1.2589198932412229,-1.3735484064718535,3285.050347222222,11.961777777777778,0.2122222222222222,178.57315572404343,-10.703216823562263,105.2445635369478,1553.0,1435.0,1200.0,1435.0,1471.0,995.0,60.0,293.1,1649252437.04021,1649252438.1635673,ca75bc28-01aa-4788-a4ca-292d038a35bd
0.2878688442911719,0.3826314915602687,0.6350601393615786,-0.3520650781774279,0.3566102235841099,0.1280070020208024,0.4187378085336356,0.3997642413717528,-5.24260454540701,19.802669909708246,29.23620309525809,1.2467388579913756,1.297028880618058,-1.87491337473022,3280.72252061632,11.958888888888888,0.21,178.59078975466062,-10.68623640410318,105.18908722268914,1553.0,1435.0,1200.0,1330.0,1471.0,995.0,60.0,293.1,1649252440.096692,1649252441.240094,fddff1f3-888a-42de-84bd-2da15673e510
0.3236990392638694,0.3876016983554545,0.641410959032997,-0.35164432022496,0.3614226461034079,0.1230236460363179,0.4236291231589906,0.3998957283682589,-5.1752682509227546,19.81746488521558,29.317855355732345,1.2350526821694268,1.3148209610024415,-1.896327858433712,3287.0103895399307,11.952000000000002,0.21,178.57254252483796,-10.68353933315467,105.14906003742314,1553.0,1435.0,1200.0,1330.0,1471.0,995.0,60.0,293.1,1649252441.3492525,1649252442.463566,fddff1f3-888a-42de-84bd-2da15673e510
0.3084430125567689,0.3954266891534473,0.645921972842098,-0.3570706865333198,0.3638066056735975,0.116459412554092,0.4277800650752281,0.4088788157678076,-5.02512558172597,19.706966271916937,28.798493991719013,1.2320274244924672,1.3486620498876385,-1.9113168813109247,3272.369466145833,11.952333333333334,0.21,178.56582465433428,-10.685529289796609,105.12979814505384,1553.0,1435.0,1200.0,1330.0,1471.0,995.0,60.0,293.1,1649252442.5727062,1649252443.692706,fddff1f3-888a-42de-84bd-2da15673e510
0.3105322643918075,0.3806586394002568,0.706472345316116,-0.311729802066557,0.4222961741693045,0.0894150313566885,0.4785342389170515,0.4493742681764172,-4.737138308711263,20.52582877942342,29.2490890789776,1.0776372978568949,1.285510993160095,-2.146670277877732,3270.565728081597,11.95322222222222,0.2077777777777777,178.57940155258444,-10.710110856028267,105.05841052566863,1553.0,1435.0,1200.0,1210.0,1471.0,995.0,60.0,293.1,1649252444.4834769,1649252445.5402374,f8a2fb1f-e257-4811-bc47-61d21fd137ff
0.3165592976612262,0.3850114053867826,0.7102180798074404,-0.3162348755618655,0.425009736080793,0.0884162778545438,0.4820487755047042,0.4591568973814805,-4.749731483339209,20.48246874130245,29.15226970543958,1.0854326084253678,1.303575146337301,-2.160116428884512,3269.595513237847,11.948666666666664,0.2,178.55671925326075,-10.701570558244812,105.02197601990608,1553.0,1435.0,1200.0,1210.0,1471.0,995.0,60.0,293.1,1649252445.6544094,1649252446.7624297,f8a2fb1f-e257-4811-bc47-61d21fd137ff
0.3246851913985416,0.3928874738263278,0.7227224887273597,-0.3142099759014701,0.4366463313268112,0.0767270870307744,0.492291608987544,0.4656917988447469,-4.714384686684506,20.37917086816253,28.94144619363185,1.054519806537874,1.3352751916180736,-2.2068538646394766,3257.858642578125,11.948,0.21,178.5677006796263,-10.718627817332058,105.00002682755328,1553.0,1435.0,1200.0,1210.0,1471.0,995.0,60.0,293.1,1649252446.871323,1649252447.9940195,f8a2fb1f-e257-4811-bc47-61d21fd137ff
0.3182554793638671,0.3882985792043974,0.737712001002055,-0.2602477187113478,0.4525431037495837,0.0290630633445682,0.489806505625331,0.4641534014701062,-4.6705924862334935,21.03729111252062,28.630534989613142,0.8307683688032559,1.3148272020601306,-2.2461600441861003,3265.9966091579863,11.946000000000002,0.2055555555555555,178.55811716531085,-10.70209411121744,104.90853568471108,1553.0,1435.0,1200.0,1071.0,1471.0,995.0,60.0,293.1,1649252449.111171,1649252450.2560666,95bfa5f6-0e77-4450-9e67-a95c5e5efd48
0.3185316019569956,0.3837885767382939,0.7409334312707724,-0.2616151833215782,0.4563562253351,0.0341779061488402,0.4951711732357373,0.4727000533442569,-4.656303861859252,21.029608231911983,28.583546638783435,0.8454559459505769,1.298599731318123,-2.263993789478148,3261.8538953993057,11.938222222222224,0.2,178.53966806545276,-10.699004494119135,104.87542596325449,1553.0,1435.0,1200.0,1071.0,1471.0,995.0,60.0,293.1,1649252450.368348,1649252451.4714787,95bfa5f6-0e77-4450-9e67-a95c5e5efd48
0.3188734680206996,0.3879435644163779,0.7425507207619176,-0.2655334952061535,0.4569479166017114,0.0332969435449771,0.4970514366069279,0.4712011021060751,-4.60421875531144,20.96660489825222,28.53810667218293,0.8519969054023826,1.3148014361146287,-2.2692147415320614,3268.4873318142363,11.94111111111111,0.1988888888888889,178.54354002380228,-10.718185752310774,104.85597662013792,1553.0,1435.0,1200.0,1071.0,1471.0,995.0,60.0,293.1,1649252451.5796964,1649252452.7033148,95bfa5f6-0e77-4450-9e67-a95c5e5efd48
0.1801810272847035,0.3327979364011774,0.2407965142876184,-0.3447806994387536,-0.0029934583134335,0.1915677974383099,0.0175053595054176,-0.011145650098244,-7.968176006176598,19.86122929128414,29.235217739515345,1.352521038885332,1.1035323268943134,-0.2843234005328183,3263.6480305989585,11.945,0.2066666666666666,178.55668130776536,-10.69031269894534,104.84173947026795,1553.0,1435.0,1200.0,1613.0,1471.0,995.0,60.0,293.1,1649252454.5176718,1649252455.771291,6096c6e4-820d-49f1-93d1-803fef85ef92
0.1878861630165898,0.3423570379366834,0.2384166003645521,-0.3550103865373043,-0.0080294091229289,0.1927906264852058,0.0153752705988813,-0.0019810088298983,-7.89606397995465,19.7823525388044,29.38453460740089,1.3777632808183968,1.138658268597748,-0.2698270182328471,3266.549560546875,11.964000000000002,0.21,178.51755343074012,-10.693734339128302,104.90183602804518,1553.0,1435.0,1200.0,1613.0,1471.0,995.0,60.0,293.1,1649252455.8800514,1649252457.015792,6096c6e4-820d-49f1-93d1-803fef85ef92
0.1860847916870137,0.3337183450678859,0.2384034517198567,-0.3511972640750151,-0.0058730227786199,0.1976950897404399,0.0172423856180664,-0.004255733147167,-7.937025551846496,19.79920653037306,29.384769375591087,1.380273285395914,1.1060757285378786,-0.2764516256925493,3269.041259765625,11.966444444444445,0.21,178.51211204670133,-10.680337397390012,104.9516690882296,1553.0,1435.0,1200.0,1613.0,1471.0,995.0,60.0,293.1,1649252457.1233432,1649252458.231892,6096c6e4-820d-49f1-93d1-803fef85ef92
0.1641001723369405,0.3275647556836678,0.1666904653335109,-0.3348928780087228,-0.0709459226875535,0.1905421993873498,-0.0626753923570412,-0.0920101349995216,-8.508274750611218,19.955342881228777,29.06268792783141,1.3245464101786473,1.083342796269524,0.022199134724913,3279.046142578125,11.964000000000002,0.21,178.5222389405107,-10.67657434261229,105.01050433774007,1553.0,1435.0,1200.0,1694.0,1471.0,995.0,60.0,293.1,1649252459.9797194,1649252461.1006944,d7ae712f-a354-4ba2-9027-d740721219ad
0.17352778727196,0.3176111932981269,0.1663748966105735,-0.3328416811564854,-0.0690656590800216,0.1997199889798598,-0.0586913372553717,-0.0815700696582762,-8.433422019307471,19.90830535812421,29.26363276472672,1.3402853113670086,1.043426778021586,0.0135645264258918,3289.532958984375,11.969666666666669,0.21,178.5106868138945,-10.67745116814699,105.04349642816098,1553.0,1435.0,1200.0,1694.0,1471.0,995.0,60.0,293.1,1649252461.2085788,1649252462.3282678,d7ae712f-a354-4ba2-9027-d740721219ad
0.1576836087529354,0.3245405557533909,0.1665458297034283,-0.3321842460368278,-0.0692365920610627,0.1912653777018385,-0.0613473739366956,-0.0894724364552478,-8.511900627798788,19.85204614531149,29.10461904900901,1.3193743687591286,1.0713098248872523,0.017934124054683,3282.814453125,11.971,0.2133333333333333,178.50438937947976,-10.689496775930738,105.0533501144036,1553.0,1435.0,1200.0,1694.0,1471.0,995.0,60.0,293.1,1649252462.4400704,1649252463.7588072,d7ae712f-a354-4ba2-9027-d740721219ad
0.1380789032249846,0.3191495906618471,0.0777921318421571,-0.3151303843125939,-0.151468543343546,0.1863346168290223,-0.1601466835012485,-0.1856946026594921,-9.171433741350969,20.123005646825344,29.16332173060901,1.266879203919241,1.0475165496925452,0.3905948230425553,3281.279541015625,11.96888888888889,0.2144444444444444,178.5155438373043,-10.703575503357428,105.12947257270338,1553.0,1435.0,1200.0,1774.0,1471.0,995.0,60.0,293.1,1649252464.6721935,1649252465.8146012,b3874250-a224-4523-a63a-4c3ebe50a7d7
0.1363432753536701,0.3181371411099475,0.0805796553810884,-0.3166293358477461,-0.1501273762786572,0.1880965420806161,-0.1569909962627531,-0.181079409749185,-9.06912521254068,20.2166474160479,29.097797634314244,1.2750203698855511,1.0439387273534535,0.3802804264406945,3282.813720703125,11.972111111111111,0.2011111111111111,178.52226018998812,-10.698734891374396,105.14863201223515,1553.0,1435.0,1200.0,1774.0,1471.0,995.0,60.0,293.1,1649252465.922664,1649252467.0491395,b3874250-a224-4523-a63a-4c3ebe50a7d7
0.1368166284313531,0.3142977220495809,0.0824336216226207,-0.3108570577737362,-0.1456831165201817,0.1867553748341575,-0.15440070279465,-0.1808032871792709,-9.129590479174349,20.117640079065165,29.14656229907062,1.2583990631250197,1.028939491323115,0.3676651676067174,3280.161919487847,11.967777777777776,0.21,178.51415351435324,-10.71726158977058,105.18519477377215,1553.0,1435.0,1200.0,1774.0,1471.0,995.0,60.0,293.1,1649252467.1610162,1649252468.2713273,b3874250-a224-4523-a63a-4c3ebe50a7d7
0.1043656467434187,0.3056458804795043,-0.0002585295708812,-0.2859928691799379,-0.2234050672901198,0.1759997418279727,-0.2498470984496869,-0.2766572934100219,-9.672135325484936,20.64846047752729,28.97804673510353,1.177243591824647,0.9935288205165554,0.7204752974769871,3276.8174913194443,11.969222222222225,0.21,178.52841039588077,-10.71339513351792,105.28475161111426,1553.0,1435.0,1200.0,1856.0,1471.0,995.0,60.0,293.1,1649252469.9963503,1649252471.1337328,53d0d3c8-4632-4f03-9566-0ed629617869
0.0950826673376128,0.2924182929155171,0.0111150928849851,-0.2830081147641111,-0.2093491095098524,0.1856245872584978,-0.2347392447467615,-0.2633639598170533,-9.744973407496454,20.679152037751056,28.99650833200946,1.1928750965200747,0.9446232905869616,0.6627048466582728,3277.7919921875,11.96,0.2033333333333333,178.51070047427282,-10.710677192546948,105.25384348730014,1553.0,1435.0,1200.0,1856.0,1471.0,995.0,60.0,293.1,1649252471.241597,1649252472.3629627,53d0d3c8-4632-4f03-9566-0ed629617869
0.1199074054413842,0.2984666927814247,0.0019373027865644,-0.2947630508648195,-0.2213801678238396,0.1905816454970856,-0.2431675599453757,-0.2638241641700293,-9.658030975937754,20.68510985233115,28.93661207989924,1.230147243322801,0.9680895316179348,0.7042047121622136,3277.374348958333,11.961333333333334,0.21,178.5349294319886,-10.70841298483709,105.23285886944012,1553.0,1435.0,1200.0,1856.0,1471.0,995.0,60.0,293.1,1649252472.4711585,1649252473.792476,53d0d3c8-4632-4f03-9566-0ed629617869
0.231040182223023,0.332166798992423,0.3270256590011806,-0.4299316728794407,0.0985407741541281,0.2812287529921143,0.1883200698076436,0.1618122991275374,-5.31275300698269,15.208221257457373,31.77658682432467,1.7212709762366298,1.0757181199961423,-0.7768321836378895,7154.77978515625,11.637999999999998,8.119999999999997,-179.2265270665874,-10.797523332434874,92.62653808942824,1553.0,1435.0,1350.0,1528.0,1471.0,995.0,60.0,293.1,1649252477.9817955,1649252479.1229124,3b5419ea-d7f8-467a-af83-0108140fc03a
0.220941983958949,0.3416470083337374,0.3240803511979864,-0.441305297362203,0.0945041244309325,0.2714855696391529,0.1865186984962918,0.1599451842568107,-5.142919522153129,14.863041738870775,30.20907027246473,1.7224335778405604,1.125173254727107,-0.7656575989799158,7160.7568359375,11.637666666666666,8.120000000000001,-178.61587628057214,-10.690055713077818,86.52763678328124,1553.0,1435.0,1350.0,1528.0,1471.0,995.0,60.0,293.1,1649252479.231542,1649252480.351545,3b5419ea-d7f8-467a-af83-0108140fc03a
0.2175101743921676,0.3360982589403056,0.3163094723521431,-0.4470644278500992,0.0889290774592633,0.2808342920900191,0.1837180264083255,0.1541860556563565,-5.118227498825301,14.662158223621129,29.97300891685767,1.7546887736462302,1.1064925457548538,-0.7444391854187313,7166.744140625,11.638666666666666,8.106666666666666,-178.2818618163207,-10.562852546705225,81.19990026210424,1553.0,1435.0,1350.0,1528.0,1471.0,995.0,60.0,293.1,1649252480.4598854,1649252481.782998,3b5419ea-d7f8-467a-af83-0108140fc03a
0.2992687631915857,0.46343022332416,0.3658274589341257,-0.4374921749372074,0.1108085077026698,0.1585382739230882,0.1788661576384943,0.1513590859948737,-5.57182960574458,15.323264341199586,31.742147993017745,1.465182530955276,1.5735673175985871,-0.8174324186983618,7166.744140625,11.634888888888888,8.14,-178.3307720420573,-10.457688882964444,72.19218151843937,1647.0,1435.0,1350.0,1528.0,1543.0,995.0,60.0,293.1,1649252483.513031,1649252484.6441326,337b2245-1441-4c79-8e9f-9cd13d3f5dcd
0.2921027242198822,0.4696890021872211,0.3258291278307056,-0.4730199602076325,0.0718620699028552,0.1439300726827098,0.1482691424970487,0.1229447541412645,-5.013898684441012,14.302440595160672,25.627700118957293,1.5030452875314446,1.6491060803702715,-0.6736691522691399,7166.744140625,11.619333333333334,8.141111111111112,-178.52115977062184,-10.455975643847632,68.92043363136386,1647.0,1435.0,1350.0,1528.0,1543.0,995.0,60.0,293.1,1649252484.752179,1649252486.0907176,337b2245-1441-4c79-8e9f-9cd13d3f5dcd
0.2958763997870671,0.4814439355760377,0.3210693000759281,-0.4764254732902032,0.0669181600913651,0.1414975640176884,0.143049110150202,0.1198153644715497,-5.04881383049563,14.071524905198162,26.437499381766003,1.5036048545639027,1.686377745577885,-0.6504099915482466,7166.744140625,11.613666666666669,8.130000000000003,-178.77114924770376,-10.52378756433855,66.16513607909063,1647.0,1435.0,1350.0,1528.0,1543.0,995.0,60.0,293.1,1649252486.1984546,1649252487.515106,337b2245-1441-4c79-8e9f-9cd13d3f5dcd
0.3665506372550242,0.6091440615786924,0.3782924220129727,-0.4483661494589968,0.093333890598227,0.0054611533564395,0.1399460178058791,0.1092175153231367,-5.208618866237443,15.142739908126304,28.75422374823069,1.1448573165313571,2.1461199548208465,-0.7415585546482917,7166.744140625,11.616666666666667,8.14,-179.34401998068995,-10.524115128827496,62.57141307454073,1745.0,1435.0,1350.0,1528.0,1614.0,995.0,60.0,293.1,1649252488.6335394,1649252489.7676346,0878e95f-6c9f-41cc-b1b2-26e4d7fe1d68
0.3627506643249926,0.6053966835135427,0.4010791108595969,-0.4143241673770976,0.1162389191105366,0.0081960821159124,0.1538704867956255,0.1298215219339781,-5.567195662912647,15.872201178742891,33.209091475009984,1.080712640504515,2.092385175965021,-0.8180641711449431,7166.744140625,11.602,8.14,-179.5892101115151,-10.562056829666917,60.81101833169943,1745.0,1435.0,1350.0,1528.0,1614.0,995.0,60.0,293.1,1649252489.8771486,1649252491.0010557,0878e95f-6c9f-41cc-b1b2-26e4d7fe1d68
0.3554622413973314,0.6082332615900637,0.3757415751090073,-0.4426004453741565,0.0914010322300375,0.0146708035115687,0.1347664431053351,0.1098092068273708,-5.54241065531645,15.399415044928036,30.659122299508827,1.1542567592195137,2.1273160908979523,-0.7257859698810205,7166.744140625,11.597666666666669,8.146666666666667,-179.87937476129505,-10.590798550285546,59.41620035726416,1745.0,1435.0,1350.0,1528.0,1614.0,995.0,60.0,293.1,1649252491.1155922,1649252492.4355268,0878e95f-6c9f-41cc-b1b2-26e4d7fe1d68
0.4501894873283837,0.7378171905487132,0.4185668753887748,-0.4434090902269341,0.1073766978795056,-0.1318506875308354,0.1288485183641251,0.0974494324592665,-5.3081949385530205,15.341530933269626,27.917015666278623,0.8282569934918107,2.6387935869946766,-0.7855025102429208,7172.74169921875,11.595999999999998,8.14,179.63441230344222,-10.652529515412905,56.987727736230994,1849.0,1435.0,1350.0,1528.0,1686.0,995.0,60.0,293.1,1649252493.978278,1649252495.102538,d8ae9d1e-4064-4255-b988-bde0eed6e0e4
0.4370013461167888,0.7316504526026741,0.4060624662821681,-0.4561633278114651,0.0971470123940458,-0.1332838954067896,0.1184873459262246,0.0922294000518899,-5.466267480242363,15.13933591956546,25.10165954591165,0.8513154542111769,2.6425099768901976,-0.7446286980712307,7172.74169921875,11.583777777777778,8.13111111111111,179.37899813833954,-10.707461880995163,56.12374181880537,1849.0,1435.0,1350.0,1528.0,1686.0,995.0,60.0,293.1,1649252495.2148826,1649252496.3271704,d8ae9d1e-4064-4255-b988-bde0eed6e0e4
0.4394733008190854,0.7318871291114714,0.398449371752213,-0.4431987102644552,0.0925318200526531,-0.1434609867457141,0.1122154179847233,0.0926501584244136,-5.184736570377171,14.835242052985723,25.33356013583564,0.7969848957902289,2.637265713302766,-0.718244189083842,7172.74169921875,11.57911111111111,8.126666666666669,179.15791098618547,-10.688804270639888,55.325765885158376,1849.0,1435.0,1350.0,1528.0,1686.0,995.0,60.0,293.1,1649252496.4352598,1649252497.5537922,d8ae9d1e-4064-4255-b988-bde0eed6e0e4
0.5021794276991944,0.8505015069584034,0.4546074487945158,-0.42208190124915,0.1191053347983875,-0.2864399256724456,0.1107690613308868,0.0859311744670015,-5.207145023892407,15.751029027775848,24.4943064376466,0.436779879746608,3.090714355649035,-0.8159663278122593,7172.74169921875,11.551555555555556,8.115555555555554,178.63387762358465,-10.76455239662767,53.82685241267754,1962.0,1435.0,1350.0,1528.0,1760.0,995.0,60.0,293.1,1649252499.6930864,1649252500.7756164,5c7c35a5-a62d-418e-9ba9-c3691afe598d
0.5308076768368722,0.8538989274753503,0.4611069498820452,-0.4210188777317087,0.1242474862205585,-0.2876480880753283,0.1172812058142881,0.0903516650280782,-5.074657281149348,15.75396629981261,24.983996074825264,0.4321549105059512,3.0984601282063258,-0.8398990462192893,7172.74169921875,11.521,8.11,178.45914165295812,-10.76852917940817,53.31057245314956,1962.0,1435.0,1350.0,1528.0,1760.0,995.0,60.0,293.1,1649252500.8833745,1649252502.0627058,5c7c35a5-a62d-418e-9ba9-c3691afe598d
0.5344857714132342,0.8618751282035256,0.4588413286488387,-0.4309178262302018,0.1202624200390793,-0.2859402752016616,0.115765565964498,0.0900993113992027,-5.048388425847199,15.633727053448943,25.02868177907453,0.4574326495499162,3.128866862609781,-0.8282159323664843,7176.0791015625,11.522555555555556,8.095555555555556,178.29477542731152,-10.79906183254542,52.91300194030632,1962.0,1435.0,1350.0,1528.0,1760.0,995.0,60.0,293.1,1649252502.1714332,1649252503.2997217,5c7c35a5-a62d-418e-9ba9-c3691afe598d
0.151030368602566,0.2096867004152569,0.2937331623074862,-0.427117851046562,0.0884951704451459,0.4031434560622173,0.1961961386560217,0.1741589245330096,-5.493770600320098,15.458931755562514,32.315589246861435,1.98888134626028,0.6103945596375943,-0.7432469178807792,7178.7490234375,11.542222222222222,8.11111111111111,178.51106930448805,-10.676686566414904,52.39901123251517,1459.0,1435.0,1350.0,1528.0,1394.0,995.0,60.0,293.1,1649252503.9787648,1649252505.1276238,1808919a-c325-410b-98d9-70f8a05a1ad5
0.1376581448939471,0.2038355308490686,0.2701312539586907,-0.4497730596349839,0.0691928845303395,0.3999746205218772,0.1836917290249468,0.1534497286499443,-5.127126785122543,14.59298478783081,27.95651045120918,2.025439161964502,0.6257669269374745,-0.6734238204728358,7178.7490234375,11.615444444444444,8.149999999999999,178.35426637498233,-10.669077166497075,52.12211156901332,1459.0,1435.0,1350.0,1528.0,1394.0,995.0,60.0,293.1,1649252505.2365608,1649252506.3598278,1808919a-c325-410b-98d9-70f8a05a1ad5
0.154712003531928,0.210804339575874,0.2972701614130233,-0.4241856911085607,0.0894813226732348,0.3965296623811251,0.1952362838721317,0.1708848993058479,-5.510244788196229,15.755154515928805,31.92157870225093,1.9694737494976309,0.6180633307554304,-0.748572652635862,7178.7490234375,11.612666666666668,8.15777777777778,178.22267595043286,-10.682049877596915,51.83206606808891,1459.0,1435.0,1350.0,1528.0,1394.0,995.0,60.0,293.1,1649252506.4683197,1649252507.5919476,1808919a-c325-410b-98d9-70f8a05a1ad5
0.0733873186919501,0.0671811340706203,0.2452933681542167,-0.4469723867435105,0.0682724758258073,0.5343937305276489,0.2059524708909074,0.1836391340403334,-5.073737221618317,14.904969124349632,28.383067145761498,2.322105509726799,0.1071572931688992,-0.6860076978684387,7184.7666015625,11.609111111111112,8.13888888888889,178.12608645083014,-10.620927653079333,51.32724450980354,1364.0,1435.0,1350.0,1528.0,1312.0,995.0,60.0,293.1,1649252509.5236542,1649252510.6610415,d1b1b14f-2266-4b5e-a4ef-04c2903a3104
0.0598178642419852,0.0553736048609252,0.2690136148624379,-0.4123913081516591,0.094372637599394,0.543926534408665,0.2219149874122565,0.1979449151265385,-5.650218475621196,15.684494922614624,32.76422535688485,2.2722774285925413,0.025381264082121,-0.7722869352164625,7178.7490234375,11.583444444444444,8.137777777777778,178.07754960876824,-10.620936854861965,51.16391571400085,1364.0,1435.0,1350.0,1528.0,1312.0,995.0,60.0,293.1,1649252510.7694504,1649252511.8863354,d1b1b14f-2266-4b5e-a4ef-04c2903a3104
0.0768191284063276,0.0645776921651491,0.2669624183151546,-0.4176507878533402,0.0892314973970816,0.5305148654784769,0.2153537882598107,0.1874259586235837,-5.63080523103206,15.74115539698156,31.418064303509308,2.2540723748915306,0.0722142573171315,-0.7539875000739711,7178.7490234375,11.590444444444444,8.142222222222223,177.99925894486194,-10.57390720787689,51.0319424194029,1364.0,1435.0,1350.0,1528.0,1312.0,995.0,60.0,293.1,1649252511.9959304,1649252513.1173074,d1b1b14f-2266-4b5e-a4ef-04c2903a3104
-0.0620968496492494,-0.1292998400467688,0.2078853289868844,-0.3931153156966182,0.0676018921754587,0.6867608079730705,0.2148804351841057,0.193316574301009,-5.552709867616156,16.11058460893716,29.6032340777583,2.5490892190438528,-0.6461720592562014,-0.6692254028879076,7174.744140625,11.578666666666669,8.13,178.16947788371738,-10.499889017023891,50.82684474009586,1262.0,1435.0,1350.0,1528.0,1222.0,995.0,60.0,293.1,1649252514.0274312,1649252515.166723,d97fe8a0-cc7c-4b60-9a49-83f1bc6a183c
-0.0289621340216744,-0.1242112941183729,0.2383508568386448,-0.3791382488368033,0.0917560470528298,0.6927434641817921,0.2327363638719688,0.2079116263538125,-6.104120900575448,17.178116060381715,33.16615430347886,2.539888366606417,-0.6545336579932252,-0.7641354389359383,7172.74169921875,11.540555555555557,8.126666666666667,178.11792665150173,-10.473960385705924,50.74508927300557,1262.0,1435.0,1350.0,1528.0,1222.0,995.0,60.0,293.1,1649252515.2753365,1649252516.3964722,d97fe8a0-cc7c-4b60-9a49-83f1bc6a183c
-0.0325911741947727,-0.1011221821005244,0.2079905186472613,-0.4126411331612766,0.0615666407494812,0.6688654341200677,0.2106202578248249,0.1881228394735227,-5.446827944620043,15.855476931964365,28.415331490000867,2.55109942276659,-0.5283033775783846,-0.6533413623569174,7172.74169921875,11.53677777777778,8.122222222222222,178.12674366681028,-10.443564810670766,50.65805596696164,1262.0,1435.0,1350.0,1528.0,1222.0,995.0,60.0,293.1,1649252516.504878,1649252517.6297705,d97fe8a0-cc7c-4b60-9a49-83f1bc6a183c
-0.1483523020101566,-0.3252285847206013,0.1820086958989525,-0.3459246362036868,0.0754253665368804,0.8374580014611098,0.2313294534783364,0.2093316857001376,-6.258318898410728,17.640849979223077,29.861508826687896,2.7898171384052346,-1.3857436017546525,-0.6920793066278448,7171.408908420139,11.520888888888887,8.123333333333333,178.19728889619782,-10.394682285145846,50.53096018634099,1153.0,1435.0,1350.0,1528.0,1121.0,995.0,60.0,293.1,1649252519.5587246,1649252520.6962006,a189c2bb-24dd-4593-9c3c-4c002416ea03
-0.1693507716024299,-0.3357738407783011,0.1828502123922519,-0.3372333462129475,0.0780814031076529,0.8411790821849284,0.2311585203774742,0.2062022960700126,-6.420353952324696,17.875798914912856,30.05987274815019,2.780122945618724,-1.4269187251730595,-0.6977303703720391,7172.74169921875,11.489,8.100000000000001,178.21242155975892,-10.367199216609269,50.50996266701256,1153.0,1435.0,1350.0,1528.0,1121.0,995.0,60.0,293.1,1649252520.8057394,1649252522.133949,a189c2bb-24dd-4593-9c3c-4c002416ea03
-0.1743472765850204,-0.3457405543096912,0.1906999837182049,-0.3418485400711967,0.0876799512357934,0.8544855617005411,0.2464636019851972,0.2252153099410993,-6.251747812258937,17.705912360491606,30.04937950906744,2.819782995479327,-1.4643373304976504,-0.7443688221083614,7172.74169921875,11.484,8.108888888888888,178.23104672671565,-10.390407250771586,50.48992403035261,1153.0,1435.0,1350.0,1528.0,1121.0,995.0,60.0,293.1,1649252522.2479134,1649252523.3679488,a189c2bb-24dd-4593-9c3c-4c002416ea03
0.2352214673634068,0.3549271905883699,0.3290637068086728,-0.4256846432888058,0.1024985316917278,0.2556545402602184,0.1880439472981364,0.1627853026852096,-5.239407925270989,14.519468347206326,31.88187829877743,1.649811406308337,1.1592257328629292,-0.7813340149861159,7178.7490234375,11.512333333333334,8.056666666666667,177.8438372313884,-10.412699849857647,50.53801994575811,1553.0,1435.0,1350.0,1528.0,1471.0,995.0,60.0,293.1,1649252524.977394,1649252526.0569675,a975be09-32e5-4e72-b6f7-b0da41a2d971
0.2280159821875611,0.3309571190597717,0.3565181826988659,-0.4013069552026788,0.1300450498837272,0.2796509095080891,0.2106465552351518,0.1886356385698999,-5.766056679223921,15.62235259773722,35.32570426099551,1.6577064270575983,1.0412860951343923,-0.8871085037354774,7190.79345703125,11.617333333333333,8.136666666666665,177.833496324985,-10.41734788845158,50.65694719958637,1553.0,1435.0,1350.0,1528.0,1471.0,995.0,60.0,293.1,1649252526.1688645,1649252527.1116524,a975be09-32e5-4e72-b6f7-b0da41a2d971
0.2189433821873799,0.3321405016326827,0.2835297747353629,-0.4644207104626016,0.0631444843594652,0.2646088019383061,0.1642185105714567,0.1369875613499292,-4.449397817678906,13.36392916833399,24.657110104733945,1.7466304115341158,1.1340662692749457,-0.6440022767625968,7186.775553385417,11.619333333333334,8.09,177.86691416386412,-10.402032327602688,50.75425348959696,1553.0,1435.0,1350.0,1528.0,1471.0,995.0,60.0,293.1,1649252527.221114,1649252528.4793444,a975be09-32e5-4e72-b6f7-b0da41a2d971
0.2369307978197043,0.3352172963396128,0.295074329334144,-0.7387026036375715,0.0388982884599906,0.5431376127175487,0.2424663986666437,0.2161295613436901,-4.72522933754295,13.746301918728486,29.11583289032301,2.9949161272268303,1.1425491599964377,-0.7342167301675765,7184.7666015625,11.617555555555557,8.095555555555556,177.91598983196056,-10.263806943456986,51.0437711686805,1553.0,1537.0,1350.0,1528.0,1471.0,995.0,60.0,293.1,1649252530.6179574,1649252531.7590094,8a0e4aec-b358-4189-a409-1784f99aa739
0.2371411769583579,0.3384255780260635,0.3218845191494828,-0.7077374116159316,0.0682987731364238,0.5424538805712958,0.2620711036640401,0.2380615856014923,-5.201865169913937,14.06816543912663,33.69362024913856,2.9274882431786,1.1152754680772805,-0.8320685638353872,7190.79345703125,11.607,8.119999999999997,177.90403851873285,-10.308024165187572,51.14143756144233,1553.0,1537.0,1350.0,1528.0,1471.0,995.0,60.0,293.1,1649252531.8676336,1649252532.9853497,8a0e4aec-b358-4189-a409-1784f99aa739
0.2394947934969101,0.3549666366784356,0.3123517150077438,-0.7300902044059718,0.0503245053630388,0.5345515148397725,0.2471210368018836,0.2168658881870657,-5.121940914559088,14.31543308651202,31.85159921204217,2.961064096444032,1.195226568427165,-0.7741451103090217,7184.7666015625,11.608444444444444,8.077777777777776,177.98081439846322,-10.313589156677578,51.22499847520323,1553.0,1537.0,1350.0,1528.0,1471.0,995.0,60.0,293.1,1649252533.1015074,1649252534.1610706,8a0e4aec-b358-4189-a409-1784f99aa739
0.2477390255715404,0.3325875572884553,0.3020431378783917,-0.9978635417738346,0.0138105757539083,0.8187211109856061,0.3169406097718623,0.2924314415054973,-4.931115765589253,14.019674110264594,34.30874773615813,4.2016759860888895,1.1204732600178844,-0.8111035956627842,7184.7666015625,11.603,8.13111111111111,177.9895798078981,-10.156139920521658,51.32781938405869,1553.0,1645.0,1350.0,1528.0,1471.0,995.0,60.0,293.1,1649252535.1235645,1649252536.2662067,f1e75ca8-e454-45d1-9000-19beec5fd53d
0.2588496733231992,0.3343100363352323,0.3122333767951543,-0.9893957768793428,0.0231067040270795,0.8244802394296846,0.3228969687918253,0.2994659935699262,-5.229076798235428,14.37146155534416,36.534029277284304,4.1985604977787885,1.108929294279484,-0.8430677835946443,7184.7666015625,11.608,8.05,177.99897814819604,-10.153392097473068,51.39328371161363,1553.0,1645.0,1350.0,1528.0,1471.0,995.0,60.0,293.1,1649252536.3747826,1649252537.4865544,f1e75ca8-e454-45d1-9000-19beec5fd53d
0.2518019725142548,0.3338235346016347,0.2924840362232189,-0.990736944679925,0.0084064613730384,0.8033239891314861,0.3091697307342115,0.2870141789737505,-4.729885637480619,13.521143909126677,33.16388352684609,4.147138740174539,1.1323396841764544,-0.7807061715967774,7190.79345703125,11.596,8.127777777777778,178.0570696659969,-10.185058182557588,51.436823131932826,1553.0,1645.0,1350.0,1528.0,1471.0,995.0,60.0,293.1,1649252537.5953274,1649252538.7200215,f1e75ca8-e454-45d1-9000-19beec5fd53d
0.2431764282023913,0.2924182928652171,0.3067503707791994,-1.169072837044265,0.0006224331220202,1.0350565935572822,0.3755180473546914,0.3498649427019497,-5.072429872486148,14.646783173394764,37.290320021121936,5.078812641088021,0.9657772599230826,-0.8854717560409229,7178.7490234375,11.591777777777777,8.05888888888889,178.14716137896917,-10.050199797081484,51.55656355772727,1553.0,1761.0,1350.0,1528.0,1471.0,995.0,60.0,293.1,1649252540.480684,1649252541.5854156,9125e028-0a66-4fcc-8360-5173ad5f564b
0.2571403429064757,0.3026611265164707,0.3090382437816441,-1.1550300186053293,0.0031075367440509,1.025891952865888,0.3706267327259649,0.3492206567556813,-5.357379324756481,14.78386263111278,39.24116101439929,5.02773148801027,0.9873390535808032,-0.8811525200001011,7178.7490234375,11.58488888888889,8.086666666666666,178.19667417917253,-10.089937363353926,51.58388355549742,1553.0,1761.0,1350.0,1528.0,1471.0,995.0,60.0,293.1,1649252541.6939328,1649252543.0159357,9125e028-0a66-4fcc-8360-5173ad5f564b
0.25494451072837,0.3330740589957935,0.2781651068515983,-1.2023653628750492,-0.0331565683742878,1.002934330630793,0.3427514986963549,0.313666584629395,-4.913302730788774,13.858287207634458,33.80320777108087,5.074603253186,1.1503145233539096,-0.7537020195651469,7172.74169921875,11.585,8.135,178.23377273110438,-10.123363384230515,51.61148947257532,1553.0,1761.0,1350.0,1528.0,1471.0,995.0,60.0,293.1,1649252543.123983,1649252544.2444625,9125e028-0a66-4fcc-8360-5173ad5f564b
