raw_voltage_G-,raw_voltage_G0,raw_voltage_G1,raw_voltage_G2,raw_voltage_G3,raw_voltage_G4,raw_voltage_G5,raw_voltage_G6,load_x,load_y,load_z,load_l,load_m,load_n,rpm,voltage,current,roll,pitch,yaw,aileron1_pwm,elevator_pwm,throttle_pwm,rudder_pwm,aileron2_pwm,pbaro,pdiff,Tt,sample_start_time,sample_end_time,uid
0.1289127450063978,0.2564171646922073,0.2550390802484687,-0.2273157931187676,0.0180844079365474,0.1236659096251369,-0.0193388051406693,-0.0344092343442358,-9.944495888029824,23.381986275990432,24.20426713556552,0.9572162973833248,0.8621352567102883,-0.2981230838172184,3395.768853081597,11.965777777777776,0.2188888888888888,179.10441846242577,-4.594768999957835,102.74117398600336,1553.0,1435.0,1200.0,1528.0,1471.0,999.0,60.0,292.0,1649233267.595475,1649233268.7820723,65027cb9-2aac-4938-a65e-118b82d278fc
0.1396719183432647,0.2541034999970498,0.2572136722034743,-0.226139996120756,0.0212577952393496,0.1246394188528539,-0.0162286326770614,-0.0375573359427096,-9.959874242409755,23.33781440107424,24.195272476144623,0.9565578772403652,0.8536385136894717,-0.310112738984945,3492.366455078125,11.965333333333334,0.21,179.1759153648376,-4.502581225252134,101.5933402054152,1553.0,1435.0,1200.0,1528.0,1471.0,999.0,60.0,292.0,1649233268.8906806,1649233270.045313,65027cb9-2aac-4938-a65e-118b82d278fc
0.125195709814866,0.2530288469961843,0.249906031799098,-0.2270123616228916,0.0151512372022729,0.1250439941191065,-0.0241178506166867,-0.0557632235076351,-10.110517947380549,23.321515768537022,23.93155090812104,0.9588450684695152,0.8526553532840497,-0.2812100001695043,3505.37744140625,11.96411111111111,0.2011111111111111,179.21714390448764,-4.422087777906619,100.71054129083068,1553.0,1435.0,1200.0,1528.0,1471.0,999.0,60.0,292.0,1649233270.1539917,1649233271.2362106,65027cb9-2aac-4938-a65e-118b82d278fc
0.2201950369513682,0.4549751066658329,0.2748506243468355,-0.2741327432595095,-0.0044327347293724,-0.0287704663620544,-0.0586584653493396,-0.0811629656871627,-9.863497336604144,23.15388645159887,23.99012863359207,0.719759995230478,1.6151891240950706,-0.2150131454718012,3512.879638671875,11.951,0.19,179.11900622867307,-4.269482521396448,98.9992275284552,1647.0,1435.0,1200.0,1528.0,1543.0,999.0,60.0,292.0,1649233272.7812912,1649233274.1037376,cb6034e6-e0fa-4057-9a49-d2144e87137f
0.2269969583296553,0.4554428967809532,0.2751793417326297,-0.275877474349379,-0.0039775875551541,-0.0288842531382341,-0.0575585262993436,-0.0781033652844113,-9.838086814406456,23.08787719353569,23.81698147373689,0.7230039619639874,1.6185329041176006,-0.2178052717001704,3514.31982421875,11.953,0.2,179.10396311648108,-4.206081717312626,98.22836934308792,1647.0,1435.0,1200.0,1528.0,1543.0,999.0,60.0,292.0,1649233274.211797,1649233275.3334572,cb6034e6-e0fa-4057-9a49-d2144e87137f
0.2308783521348338,0.4555440405904081,0.2779987254793242,-0.2728810883451457,-0.0029408633952983,-0.0303761244876426,-0.0562689425697992,-0.0848167862520662,-9.739978416384671,23.262628797961387,24.02429757439819,0.7142736837780581,1.6161932087218307,-0.2245687499904123,3511.9212782118057,11.952777777777776,0.2,179.07846222575986,-4.15801122538903,97.70692765782218,1647.0,1435.0,1200.0,1528.0,1543.0,999.0,60.0,292.0,1649233275.4422362,1649233276.5611925,cb6034e6-e0fa-4057-9a49-d2144e87137f
0.3396711640705251,0.666934598834355,0.3107819632135952,-0.3221254915663304,-0.0163297764961371,-0.1957462758937378,-0.0861948708420865,-0.1049949789089518,-9.524734735847575,23.03780803875347,23.526734088171864,0.4539192377906125,2.4200602869969257,-0.1837240564789796,3517.2041015625,11.94377777777778,0.1944444444444444,178.8371410176446,-4.096268829181185,96.97768733288764,1745.0,1435.0,1200.0,1528.0,1614.0,999.0,60.0,292.0,1649233277.4707515,1649233278.604903,94b8dde1-e3bf-403a-b5e3-c200e85d54b4
0.3470040902888831,0.6633313506953903,0.3057500586348852,-0.31844638461302,-0.0207042466942084,-0.1946842656909782,-0.091289990881384,-0.1232893679567133,-9.51280875416745,23.100086963049684,23.617565396888047,0.4481893341489878,2.4048855544331804,-0.1639453101785946,3514.640190972222,11.937444444444443,0.1977777777777777,178.81121817301468,-4.052475838089048,96.6819917476998,1745.0,1435.0,1200.0,1528.0,1614.0,999.0,60.0,292.0,1649233278.713157,1649233279.8385832,94b8dde1-e3bf-403a-b5e3-c200e85d54b4
0.369976378107989,0.665796731000984,0.3081648671127555,-0.3179153794796144,-0.019010087718269,-0.1963784247945659,-0.0909107015567155,-0.1115946133932991,-9.605769794469838,23.18546157766898,23.79975769027715,0.4438529632121373,2.413264574989787,-0.1696246087777156,3516.402642144097,11.935111111111112,0.19,178.7818711268809,-4.041694763939137,96.35147282248364,1745.0,1435.0,1200.0,1528.0,1614.0,999.0,60.0,292.0,1649233279.9472177,1649233281.0770817,94b8dde1-e3bf-403a-b5e3-c200e85d54b4
0.4224320861827773,0.7880795943432393,0.3306693649451642,-0.3614704430802442,-0.0296554747881384,-0.2926420643865225,-0.1079155067943202,-0.1383597977734647,-9.435916312965963,23.508428167215,21.464118367915123,0.328760007942326,2.8981928941235275,-0.150483733095355,3515.0406494140625,11.9265,0.19,178.59142192661375,-4.007011585084374,95.8865259085728,1849.0,1435.0,1200.0,1528.0,1686.0,999.0,60.0,292.0,1649233281.97623,1649233283.111333,2018a683-d5fa-44f5-a74d-ac852e9234cb
0.4087650290018618,0.7786732202148087,0.3274201200323295,-0.3547949499511714,-0.0295416880019352,-0.2894181047340212,-0.1092556624696373,-0.1398137402959711,-9.490424955983372,23.46469847731927,21.46921479363247,0.3204680927929789,2.8622252788827938,-0.1453941647604125,3509.284423828125,11.913249999999998,0.1925,178.57072303833405,-3.9723717471001256,95.64388856094996,1849.0,1435.0,1200.0,1528.0,1686.0,999.0,60.0,292.0,1649233283.2205522,1649233284.549012,2018a683-d5fa-44f5-a74d-ac852e9234cb
0.4388426691878629,0.7821753245597507,0.3303785764922998,-0.3579177658606993,-0.0293646862974459,-0.2874584429918968,-0.1069672834430273,-0.1383850839204424,-9.393175719948204,23.59767326947123,21.84466737903104,0.3330536414287508,2.8719186574687323,-0.1519867634148793,3509.6833224826387,11.915888888888889,0.1988888888888889,178.5404391179191,-3.960529349302152,95.44162711769576,1849.0,1435.0,1200.0,1528.0,1686.0,999.0,60.0,292.0,1649233284.65751,1649233285.7805643,2018a683-d5fa-44f5-a74d-ac852e9234cb
0.45642904889617,0.863317944640824,0.3546025190175652,-0.3732157711526373,-0.0272785950061407,-0.3620140913614011,-0.1125934086468204,-0.1285362039018204,-9.217679546347272,23.952662221273258,20.61289968405132,0.203477141290629,3.189353025356456,-0.1719137258347085,3509.3639865451387,11.889111111111111,0.1866666666666666,178.47670889950342,-3.934744626275447,95.0939014281405,1962.0,1435.0,1200.0,1528.0,1760.0,999.0,60.0,292.0,1649233286.8931694,1649233288.029908,6308f31d-cb02-4850-b191-b93f3d0724c9
0.4449997985389489,0.8609284221628433,0.3566001092608948,-0.371597469627031,-0.0250787169302876,-0.3617359456648526,-0.110570532174918,-0.127246620251202,-9.21772343622462,23.996128051518763,20.54644368137401,0.2008286713874875,3.180908297929068,-0.180899663023945,3500.6061740451387,11.859666666666666,0.18,178.46644540191062,-3.9153759647684527,94.8421778419193,1962.0,1435.0,1200.0,1528.0,1760.0,999.0,60.0,292.0,1649233288.1384094,1649233289.2707036,6308f31d-cb02-4850-b191-b93f3d0724c9
0.4802104868568182,0.8586653294405371,0.3562208199585767,-0.3737973480686724,-0.0265326593712036,-0.3554144559477024,-0.1100774560500692,-0.1314061598954761,-9.17676440999244,24.11519382006706,20.84050175151712,0.2208341972096895,3.1697730235766453,-0.1790029665091272,3504.2626953125,11.861555555555556,0.18,178.4493228765713,-3.8955729222029927,94.6718807353434,1962.0,1435.0,1200.0,1528.0,1760.0,999.0,60.0,292.0,1649233289.3795948,1649233290.4902017,6308f31d-cb02-4850-b191-b93f3d0724c9
-0.0227144801126844,0.0072746623344417,0.2339758813940171,-0.1698913852433681,0.0469356820153248,0.3150805751698925,0.0298676627640566,0.0072999482514603,-10.140115364959078,24.05060887507441,24.33073300968391,1.261120476698816,-0.0804310505962961,-0.4086432427168176,3510.641655815972,11.908,0.1888888888888889,179.05750872320607,-3.802217564604173,94.38058303307112,1459.0,1435.0,1200.0,1528.0,1394.0,999.0,60.0,292.0,1649233291.398187,1649233292.5566394,feac0cab-a1ac-4f84-961d-29c04519433f
-0.0168228526199933,0.005757505049728,0.2351643211893845,-0.1694994529117552,0.0484275533268843,0.3180516746061317,0.0322445424919847,0.0137857956015949,-10.109185162020417,24.03587021082262,24.60665197890312,1.2669338550606013,-0.0887588565446994,-0.4154426709747424,3513.9999186197915,11.961777777777778,0.2,179.05443513807958,-3.7717404541858,94.2832748457858,1459.0,1435.0,1200.0,1528.0,1394.0,999.0,60.0,292.0,1649233292.6656532,1649233293.7673483,feac0cab-a1ac-4f84-961d-29c04519433f
-0.0079727684182149,0.0035449840103652,0.2367573362333873,-0.1662375645292939,0.0506653602856822,0.316319586851859,0.0339513444225543,0.0073252340719904,-10.078012259252366,24.030669368719217,24.49190684657133,1.2557258466917571,-0.0965615143943532,-0.4234692402280855,3521.700439453125,11.96,0.2044444444444444,179.0388956988079,-3.739670676462213,94.16118597328172,1459.0,1435.0,1200.0,1528.0,1394.0,999.0,60.0,292.0,1649233293.8764532,1649233295.1988418,feac0cab-a1ac-4f84-961d-29c04519433f
-0.1050202648341402,-0.2102857010464321,0.219512316212828,-0.1181563188966395,0.077620187488902,0.487214695585233,0.078821270312663,0.0508297187972517,-10.352019014047237,24.505678519860584,25.39715549068479,1.5335870441620498,-0.9116454517025828,-0.5251227954455009,3536.06689453125,11.956,0.2,179.08572954703678,-3.6916843761065112,93.95285837340715,1364.0,1435.0,1200.0,1528.0,1312.0,999.0,60.0,292.0,1649233296.778712,1649233297.8651628,be53d976-75a9-4390-a9d2-e4b7f9f6aa6d
-0.1401298146627168,-0.2095650512715088,0.2189180963132631,-0.1221135709899093,0.0757237409289764,0.4886559948512357,0.0786316256544471,0.0642565606541029,-10.283799089355938,24.54109101128152,25.18072578064753,1.5459574327739325,-0.9070570570589764,-0.5216793459467741,3538.337863498264,11.939555555555554,0.1955555555555555,179.08335567684523,-3.678688043935792,93.80688432937556,1364.0,1435.0,1200.0,1528.0,1312.0,999.0,60.0,292.0,1649233297.973657,1649233299.089257,be53d976-75a9-4390-a9d2-e4b7f9f6aa6d
-0.1404585320985369,-0.2168221209226463,0.2170595787601452,-0.1172333814952326,0.0759639575014114,0.4911340181517071,0.0782776223051446,0.0645852781004666,-10.283327197149273,24.531817781570584,25.152607178111776,1.5403591102986414,-0.9347484391369988,-0.5198399793749269,3540.44873046875,11.937777777777775,0.1911111111111111,179.07009144947708,-3.6706643266401895,93.70156433019378,1364.0,1435.0,1200.0,1528.0,1312.0,999.0,60.0,292.0,1649233299.198281,1649233300.2547538,be53d976-75a9-4390-a9d2-e4b7f9f6aa6d
-0.2455606226861601,-0.4314174751837044,0.1940791987366329,-0.0661334994642532,0.0931366603444452,0.6510226550526366,0.1099406938982699,0.0824599190802398,-10.570397044644242,25.525528978537587,24.70355641668261,1.7896084889178718,-1.7413312252003723,-0.5837464516204784,3540.44873046875,11.932111111111112,0.19,179.1420740542299,-3.64357944864585,93.52007709702762,1262.0,1435.0,1200.0,1528.0,1222.0,999.0,60.0,292.0,1649233301.35331,1649233302.315509,456fb388-35ea-43b2-8657-fb36535dc59a
-0.2295662432988535,-0.4334089973735786,0.1878416597579572,-0.0608204145441262,0.0890747246788381,0.6489815730190406,0.1041577962360459,0.0817165120615635,-10.5715594459608,25.417041083055903,24.786491385006947,1.7720197552179535,-1.7505788886576683,-0.5615115858275946,3535.0947265625,11.910333333333332,0.1866666666666666,179.15477820608612,-3.632792777535368,93.38491448354226,1262.0,1435.0,1200.0,1528.0,1222.0,999.0,60.0,292.0,1649233302.4291134,1649233303.5962312,456fb388-35ea-43b2-8657-fb36535dc59a
-0.2668883163993254,-0.4386179051145356,0.186754363772319,-0.060327338417869,0.089744802468988,0.6533560426893091,0.104461227686966,0.0831957401971098,-10.66747633422988,25.39690597381708,24.74511585358914,1.7804950179487915,-1.7691998516994698,-0.5621172983595261,3536.06689453125,11.909125,0.18,179.16561543956925,-3.626493849016736,93.2650053900208,1262.0,1435.0,1200.0,1528.0,1222.0,999.0,60.0,292.0,1649233303.7052314,1649233304.8306732,456fb388-35ea-43b2-8657-fb36535dc59a
-0.3087997915961138,-0.5444270078698187,0.1664497431723826,-0.0135483215607174,0.0861036250724448,0.7085679185720364,0.0963065075250484,0.0637508415902926,-11.005497265987612,26.666779904850817,23.856858141106564,1.8061368425850743,-2.16280845034876,-0.5322729909457531,3536.5537923177085,11.894333333333334,0.1833333333333333,179.1956409511606,-3.613837010450076,93.03124045812984,1153.0,1435.0,1200.0,1528.0,1121.0,999.0,60.0,292.0,1649233306.9623573,1649233308.1078691,b0d9bcf8-6178-48a4-beed-04449b0fe38d
-0.3072573481550257,-0.5361079265142136,0.1652486603601123,-0.0141298984733251,0.0836382445293939,0.700185625528738,0.0926526871424252,0.0722595650290505,-10.979138740059778,26.610102907537964,23.7298082437022,1.788170097076559,-2.130672855322142,-0.5212115715954225,3531.8577745225693,11.862111111111112,0.1888888888888888,179.21809405969216,-3.5984412897421745,92.85837671824578,1153.0,1435.0,1200.0,1528.0,1121.0,999.0,60.0,292.0,1649233308.2167077,1649233309.336562,b0d9bcf8-6178-48a4-beed-04449b0fe38d
-0.2923007039359094,-0.5341356215205406,0.165552091813423,-0.0131563891834782,0.084346251269023,0.6962663029887239,0.0924630425122091,0.0642565606861206,-10.983156576990607,26.53572399287534,23.576252188909898,1.7766623994148627,-2.1219879970550166,-0.522261174927686,3533.151611328125,11.862555555555558,0.18,179.22581065563446,-3.610449046894273,92.7269191029302,1153.0,1435.0,1200.0,1528.0,1121.0,999.0,60.0,292.0,1649233309.4451225,1649233310.5605917,b0d9bcf8-6178-48a4-beed-04449b0fe38d
0.1431360939925904,0.2559114456335634,0.2528139163909771,-0.2315132620160637,0.0160362456120172,0.126864582776604,-0.0206536747886352,-0.0507945333068176,-9.997057149099932,23.351017453038608,24.02620479705171,0.9735016679552116,0.8625638899938071,-0.2908013594562228,3518.64794921875,11.911333333333337,0.1833333333333333,178.8759668485266,-3.670132283362967,92.56454273906174,1553.0,1435.0,1200.0,1528.0,1471.0,999.0,60.0,292.0,1649233312.4930336,1649233313.6300428,ed198350-ae58-43da-adef-43f62f2a05e8
0.1187225056477146,0.252131195665284,0.2465430000556635,-0.2272020063075799,0.0113962729434761,0.1281668094028203,-0.0277084562229004,-0.0586584653565676,-10.13018737590068,23.406812300633785,24.19777014588563,0.9667207636076024,0.8468799336313126,-0.2661827258702552,3528.1440158420137,11.964,0.1911111111111111,178.84014022960017,-3.66418105416177,92.83994810895518,1553.0,1435.0,1200.0,1528.0,1471.0,999.0,60.0,292.0,1649233313.7377632,1649233314.8619893,ed198350-ae58-43da-adef-43f62f2a05e8
0.1340963655525414,0.2533069924760834,0.2512209013546297,-0.226544571427301,0.0155558124779396,0.1257646437923732,-0.0227776950064564,-0.0413123001395888,-10.03137680559618,23.376006069862022,24.14299197790601,0.9599094815168095,0.8512911143841653,-0.2850924965810841,3541.91162109375,11.961888888888888,0.1944444444444444,178.82015357826887,-3.671073284216744,93.04026693257296,1553.0,1435.0,1200.0,1528.0,1471.0,999.0,60.0,292.0,1649233314.9721138,1649233316.0889294,ed198350-ae58-43da-adef-43f62f2a05e8
0.1555894261444567,0.2549505794219034,0.2464544992153122,-0.4236739028708394,-0.0093761389025892,0.3146127850460815,0.0278195004470922,0.005201214031856,-9.830337379462849,22.8225106664238,25.594179500713988,1.8253779480089671,0.8671301073346156,-0.3157918177920379,3546.674865722656,11.96375,0.19,178.80232109271086,-3.6061518381211455,93.47458632960806,1553.0,1537.0,1200.0,1528.0,1471.0,999.0,60.0,292.0,1649233317.8146098,1649233319.1613648,eea80c9c-6a41-40bc-96c4-52e136d63df0
0.132073489260957,0.254773577749093,0.2450637718035061,-0.4212085218142768,-0.01076686641184,0.314802429686431,0.0244691114764122,0.0114847737532762,-9.958536458208368,22.943381881047223,25.90000609922773,1.820959048518117,0.8642734156006123,-0.3069393616462217,3547.77587890625,11.962,0.2,178.80104726243064,-3.6216032201275934,93.59009336620944,1553.0,1537.0,1200.0,1528.0,1471.0,999.0,60.0,292.0,1649233319.2703867,1649233320.387684,eea80c9c-6a41-40bc-96c4-52e136d63df0
0.1312896246718385,0.2501083194278556,0.246011995041971,-0.4181362777549963,-0.0090347785065122,0.315295505763849,0.0264287729571148,0.0082355285010219,-9.89373727689058,22.95361703710393,25.73327563150317,1.8152579321365288,0.8474769825724396,-0.3141128037511833,3552.1865234375,11.96,0.19,178.79250497250868,-3.6391142124759535,93.685128618321,1553.0,1537.0,1200.0,1528.0,1471.0,999.0,60.0,292.0,1649233320.4960997,1649233321.8184235,eea80c9c-6a41-40bc-96c4-52e136d63df0
0.1292541054228903,0.2531047048557351,0.2409168754997274,-0.6227629187484125,-0.038075697821514,0.5090996870633435,0.0734606480189197,0.0570879926248146,-9.841553196851724,22.77974377696337,27.07729928528457,2.711183556437559,0.87130182302936,-0.3340043231606859,3534.778021918403,11.954333333333333,0.19,178.8042771829981,-3.578091405156291,93.88915699356797,1553.0,1645.0,1200.0,1528.0,1471.0,999.0,60.0,292.0,1649233322.9355786,1649233324.085204,2879bfc8-de72-45a9-9caa-10b6864b9e60
0.1376363990697447,0.2541920008338519,0.2383503512696105,-0.6242168615970276,-0.0406042933244,0.50949161931997,0.0714630576561267,0.0422072085410686,-9.814354191559955,22.72417020298644,27.07708825888553,2.7148614773378386,0.8752045715090357,-0.3240573402608734,3525.1602783203125,11.9525,0.19,178.82441675467584,-3.571223851531287,93.92358418262448,1553.0,1645.0,1200.0,1528.0,1471.0,999.0,60.0,292.0,1649233324.1938355,1649233325.303891,2879bfc8-de72-45a9-9caa-10b6864b9e60
0.1605328300532937,0.2547103628680092,0.2428133219828686,-0.6265431702191341,-0.0366976132523489,0.5102754838288761,0.0778604040497343,0.0513986528977398,-9.665690202833511,22.641831928409715,26.998256647981105,2.721609171081487,0.8773631702364175,-0.344501461275087,3518.167751736112,11.951666666666666,0.19,178.81556369114662,-3.5800556537251,93.98495798577648,1553.0,1645.0,1200.0,1528.0,1471.0,999.0,60.0,292.0,1649233325.412469,1649233326.4815912,2879bfc8-de72-45a9-9caa-10b6864b9e60
0.1427568046915461,0.2544322173858475,0.2258970193657809,-0.7609127837116605,-0.0714278728434175,0.6440760983578675,0.0907562406113634,0.0752053788033112,-9.864289965303607,22.99315826616642,28.37123003597804,3.326987500218382,0.8810342977110347,-0.2920581726091052,3508.4068467881943,11.944555555555556,0.1888888888888888,178.8603985706784,-3.5335925092702465,94.06525520747896,1553.0,1761.0,1200.0,1528.0,1471.0,999.0,60.0,292.0,1649233328.4692624,1649233329.6060307,897e5a2a-d3c1-4619-bce1-9e288b11c1c6
0.1710897156462859,0.253686281773857,0.2254798011495317,-0.7657171171261287,-0.0732358186356032,0.6479574919674594,0.0912619597027505,0.06798623895279,-9.796247178721517,23.058096361963564,28.189494808863987,3.3469618981867475,0.879931878429772,-0.2901147794447716,3507.2898763020835,11.943777777777775,0.19,178.86638333421118,-3.5482995666687067,94.0622726915414,1553.0,1761.0,1200.0,1528.0,1471.0,999.0,60.0,292.0,1649233329.714258,1649233330.8294823,897e5a2a-d3c1-4619-bce1-9e288b11c1c6
0.1749963954525198,0.2583641830681602,0.2260487350910717,-0.7659067618218081,-0.0729197442003679,0.643469235513958,0.0906677397763031,0.0607923848552307,-9.81414556515516,22.9931206788682,28.17899947161683,3.33689089347324,0.8977548674663289,-0.2899110498544908,3512.0802137586807,11.944111111111113,0.18,178.86476533828775,-3.5443103804544,94.0668375346367,1553.0,1761.0,1200.0,1528.0,1471.0,999.0,60.0,292.0,1649233330.937996,1649233332.0655775,897e5a2a-d3c1-4619-bce1-9e288b11c1c6
0.1429590923165477,0.2603997022776603,0.2136586180299874,-0.7799531161700062,-0.0922002853368216,0.6573259371299384,0.0743203704206574,0.0550651161585519,-9.933521093920678,23.64076246850201,28.475653089220256,3.403377434477462,0.9045599023007448,-0.2232937359430664,3513.1996799045137,11.922,0.1722222222222222,178.88325238364126,-3.5225982762999872,94.05078127771782,1553.0,1887.0,1200.0,1528.0,1471.0,999.0,60.0,292.0,1649233334.0019555,1649233335.134695,c86f8501-e5c3-42bf-a6b9-6b8e5a3904aa
0.1457405471909401,0.2602100576330742,0.2108139483085398,-0.7766406543511907,-0.0942105187861299,0.6554042047890507,0.0703631186139688,0.05668341738264,-10.00647945022022,23.64935906212956,28.58369787728474,3.39148278289115,0.9028193766118194,-0.2109399090951313,3511.1212565104165,11.898777777777775,0.1788888888888888,178.8895376754975,-3.5549854443765683,93.9417130225015,1553.0,1887.0,1200.0,1528.0,1471.0,999.0,60.0,292.0,1649233335.2425563,1649233336.3647964,c86f8501-e5c3-42bf-a6b9-6b8e5a3904aa
0.1708115701561533,0.263813305922104,0.2086772852380325,-0.7933420349356611,-0.0995079265243505,0.6678196071508897,0.0713871997158757,0.0497297799202858,-9.922419887962205,23.65658028108044,28.65938633266838,3.4570519298640545,0.9169889375120002,-0.2018180873785974,3508.7259657118057,11.895,0.1733333333333333,178.88511474855497,-3.55302577298314,93.88757921986972,1553.0,1887.0,1200.0,1528.0,1471.0,999.0,60.0,292.0,1649233336.4730864,1649233337.6010325,c86f8501-e5c3-42bf-a6b9-6b8e5a3904aa
0.1214660316451066,0.2535472090327265,0.2693635725793905,0.0079573830967612,0.052485948996428,-0.0985470601651432,-0.0747150470190714,-0.0965241840020395,-10.226694312951803,24.512529764734715,22.84422929941464,-0.064995635316089,0.837382596114668,-0.2865250423485725,3535.2567545572915,11.922888888888888,0.1833333333333333,178.8920648454904,-3.7942151442178575,93.81446735717408,1553.0,1335.0,1200.0,1528.0,1471.0,999.0,60.0,292.0,1649233338.9131806,1649233340.0513675,45042a13-df36-49b0-a745-73bdf0b9da18
0.1295448938840966,0.2538253545161896,0.2704382255720625,0.0107641240759683,0.0531433838016207,-0.1019353782254795,-0.0745633312978887,-0.1009618692053738,-10.167698443959466,24.55280671382944,22.77267681008725,-0.0786021559634673,0.8383656608886335,-0.2891192997599056,3535.5816243489585,11.966888888888889,0.1977777777777778,178.8762946976068,-3.8109413288578335,94.02806255071852,1553.0,1335.0,1200.0,1528.0,1471.0,999.0,60.0,292.0,1649233340.160506,1649233341.4874058,45042a13-df36-49b0-a745-73bdf0b9da18
0.1284955268052264,0.2543184305972169,0.2699704354435736,0.0120157788344496,0.0529158102150454,-0.1032628909044659,-0.0746771180934966,-0.098863134900308,-10.111634443869974,24.50139347460033,22.81454350439483,-0.0847379031005281,0.839262492488711,-0.2878196847038953,3543.375732421875,11.963666666666668,0.19,178.8623823611773,-3.805055413340576,94.19947829049852,1553.0,1335.0,1200.0,1528.0,1471.0,999.0,60.0,292.0,1649233341.5954409,1649233342.6074216,45042a13-df36-49b0-a745-73bdf0b9da18
0.0926906161191623,0.253281706526046,0.2799457438463869,0.2209536155443271,0.0812992938204338,-0.3045770365429644,-0.1265512562591618,-0.1413941125193793,-10.33359203654702,25.395152684130515,21.232768351916413,-1.0023725681725304,0.8258871605809553,-0.2672651863834617,3540.286865234375,11.960666666666668,0.19,178.86096016401018,-3.877790572130733,94.4728490229292,1553.0,1236.0,1200.0,1528.0,1471.0,999.0,60.0,292.0,1649233344.441108,1649233345.5794256,0f26ffee-3862-4718-a045-28694d053098
0.1018188454895801,0.2469096463761177,0.2783147998828908,0.2246706506561553,0.0812992938083563,-0.3019220109439195,-0.1279925557701033,-0.142494051597754,-10.433794855897316,25.46212061323536,21.19713702131884,-1.0044844826952115,0.8024531673454145,-0.2638761694103165,3532.5049099392363,11.945555555555554,0.19,178.85139789917216,-3.881275154404171,94.5878967293089,1553.0,1236.0,1200.0,1528.0,1471.0,999.0,60.0,292.0,1649233345.687596,1649233347.0139408,0f26ffee-3862-4718-a045-28694d053098
0.0911987448262262,0.2503738219339135,0.2757862046034228,0.2203846815914534,0.078416695045156,-0.3022001565033262,-0.1305337943380114,-0.156376041576674,-10.46518446720069,25.3939834167645,21.060618055558272,-0.9960565762787016,0.8172443034987326,-0.2526899786104872,3531.696044921875,11.949222222222222,0.1811111111111111,178.8571686501109,-3.882798049429738,94.66223271368578,1553.0,1236.0,1200.0,1528.0,1471.0,999.0,60.0,292.0,1649233347.1227896,1649233348.2457771,0f26ffee-3862-4718-a045-28694d053098
0.0917423928128279,0.2536357098645493,0.2721070984617672,0.3624917361876662,0.0844726810479478,-0.4410074283633389,-0.1806632027391151,-0.1980978700072922,-10.661348394269169,26.28956827448044,20.168544905098244,-1.62302094898189,0.8210587210759865,-0.1846720680953665,3532.8281521267363,11.94877777777778,0.1822222222222222,178.87219506628492,-3.941435176022429,94.81214777686849,1553.0,1133.0,1200.0,1528.0,1471.0,999.0,60.0,292.0,1649233350.3805711,1649233351.5259752,2a17ef79-8cd2-4654-a600-ae12eaf1142f
0.0994925377303841,0.2564298076693156,0.2738391862288943,0.3570552564062846,0.0855094051652686,-0.4396293435515356,-0.1783116087719432,-0.198097869903813,-10.673582119630172,26.2345331552035,20.05849588322741,-1.607963130607447,0.8333784544381432,-0.1916440826454853,3528.7880859375,11.949444444444444,0.18,178.87663468924544,-3.9290978622428767,94.85991432537402,1553.0,1133.0,1200.0,1528.0,1471.0,999.0,60.0,292.0,1649233351.6562135,1649233352.7441275,2a17ef79-8cd2-4654-a600-ae12eaf1142f
0.0753823805509587,0.2526369147250585,0.2693509295991209,0.3596470665151836,0.0816027252602603,-0.4375558948880153,-0.183229727316291,-0.205810086751285,-10.727223008870494,26.331227747434124,20.127087130276696,-1.6087488559146577,0.8183225354132411,-0.1736193735726887,3526.3689778645835,11.943,0.19,178.88247222425608,-3.9336572032413377,94.90475224054542,1553.0,1133.0,1200.0,1528.0,1471.0,999.0,60.0,292.0,1649233352.852785,1649233353.9762,2a17ef79-8cd2-4654-a600-ae12eaf1142f
0.099441965829347,0.2505887525338161,0.2596158377169483,0.4067800817288927,0.0742445125875201,-0.4813638210343341,-0.209792624925664,-0.2355969443257164,-10.826351653518714,26.83329806462352,19.63912204925248,-1.810795791042992,0.8092553911673639,-0.1133054886010789,3526.6910807291665,11.939555555555554,0.18,178.87233167006832,-3.9507665899528734,94.96306687785918,1553.0,1026.0,1200.0,1528.0,1471.0,999.0,60.0,292.0,1649233355.909539,1649233357.0483963,aea1c7ae-8073-4927-aad3-d48f9afb69f2
0.1009591230594793,0.2570240275617847,0.2591480475915363,0.4019125359187313,0.0714757006200555,-0.4831464812480042,-0.2119925031985504,-0.2427781559848189,-10.825761763871848,26.888765690504005,19.633948562346184,-1.803477794755396,0.8340038468957758,-0.1050581185661982,3518.810980902778,11.927222222222222,0.1822222222222222,178.88307479872284,-3.943240053510604,94.93143399508313,1553.0,1026.0,1200.0,1528.0,1471.0,999.0,60.0,292.0,1649233357.1572964,1649233358.277298,aea1c7ae-8073-4927-aad3-d48f9afb69f2
0.0715894874182739,0.2514611179093903,0.2611456378693185,0.4033664781700007,0.0749272333505178,-0.4796949476528689,-0.2080731798893276,-0.2382519696554274,-10.827247418217658,26.85805620801352,19.56328286731353,-1.7991175979831906,0.8137234811947718,-0.1188109149340676,3514.9605577256943,11.924,0.1788888888888889,178.89901342460604,-3.938555539809229,94.92348593161896,1553.0,1026.0,1200.0,1528.0,1471.0,999.0,60.0,292.0,1649233358.385707,1649233359.7192209,aea1c7ae-8073-4927-aad3-d48f9afb69f2
0.1310620511032105,0.2531173478335813,0.2505002516937427,-0.2116132137853209,0.0152903099512792,0.1126665197302344,-0.0287578233644232,-0.0448776197725629,-10.054110395754485,23.54888459545421,24.18137930680671,0.8978995879654798,0.8485193853517832,-0.2751588553900376,3519.2904188368057,11.944333333333333,0.19,178.89688999468407,-3.750659739358724,94.89094766932293,1553.0,1435.0,1200.0,1528.0,1471.0,999.0,60.0,292.0,1649233360.279731,1649233361.555081,970cfeae-6ec0-428f-9a83-c0e6936489ef
0.142402801343301,0.2480222283047552,0.2525863428144609,-0.2079341070592663,0.0187671287158285,0.1124389461435135,-0.0265579452763121,-0.0563195146275822,-10.111699047355554,23.576329325948244,23.93756737551272,0.8893069904948878,0.8316578223392267,-0.2868498011534998,3524.274115668403,11.964,0.19,178.89944903889307,-3.771732485631768,94.89991418988336,1553.0,1435.0,1200.0,1528.0,1471.0,999.0,60.0,292.0,1649233361.6638498,1649233362.7816927,970cfeae-6ec0-428f-9a83-c0e6936489ef
0.1233371921952122,0.2522449824561731,0.2529529891344467,-0.2106397044715025,0.0165925366207923,0.1134124553548191,-0.0269372345960082,-0.0507945334808707,-10.007191421310916,23.67617133812707,24.3079392178199,0.8983895277558118,0.8438314958687161,-0.2828059649585058,3533.151611328125,11.9615,0.19,178.90980436458477,-3.770973160695133,94.90360021530545,1553.0,1435.0,1200.0,1528.0,1471.0,999.0,60.0,292.0,1649233362.8906186,1649233364.2228787,970cfeae-6ec0-428f-9a83-c0e6936489ef
0.1517838901179496,0.2702485809338115,0.3747048512145093,-0.2158106826490713,0.1273450159115016,0.093423908788707,0.0979880234789518,0.0757110978140313,-9.094965851331246,23.55344206083124,24.243603940774925,0.8708348329595742,0.9138226253780256,-0.7747523148775682,3529.7574055989585,11.96377777777778,0.19,178.89615688771315,-3.76974082144254,94.89337238647828,1553.0,1435.0,1200.0,1435.0,1471.0,999.0,60.0,292.0,1649233365.338208,1649233366.4834526,72f48bde-5dcb-4043-bccc-2c9159a69a79
0.182683325290397,0.2709818735665875,0.3760323637167925,-0.2145210988520375,0.1279771647556698,0.0911102439864693,0.098455813627806,0.0711469831823223,-9.051199290889135,23.602949129071,24.191765024148904,0.8631347912724261,0.916648818097326,-0.7780516937810068,3528.465386284722,11.964444444444444,0.19,178.8814765344571,-3.783795026592834,94.93984802923067,1553.0,1435.0,1200.0,1435.0,1471.0,999.0,60.0,292.0,1649233366.592358,1649233367.702379,72f48bde-5dcb-4043-bccc-2c9159a69a79
0.1728723753478509,0.2711588752364839,0.3745404925224545,-0.2153934643594135,0.1272944439991727,0.0920963961967558,0.0965972960034734,0.0815774392866197,-9.187444707613814,23.58185578064793,24.230470776449103,0.8670421216835267,0.9179464178939892,-0.7724603489790643,3531.211181640625,11.964333333333334,0.19,178.88295944441683,-3.7947857970366377,94.93674029315834,1553.0,1435.0,1200.0,1435.0,1471.0,999.0,60.0,292.0,1649233367.810716,1649233368.930622,72f48bde-5dcb-4043-bccc-2c9159a69a79
0.2343804566481487,0.2950667436153227,0.5385831070703283,-0.2051020798859887,0.2759379203183499,0.0489712013467998,0.2575423895908882,0.2259728770886591,-7.981657092064996,23.73654124931102,24.02026700498228,0.7566863194698917,1.0100791832639628,-1.4242114315160932,3528.304036458333,11.962333333333332,0.1866666666666666,178.87349280222725,-3.7997708390614937,94.91453534816662,1553.0,1435.0,1200.0,1330.0,1471.0,999.0,60.0,292.0,1649233369.8360558,1649233370.9745166,c6836a1a-359f-496d-b124-8c023d861d4c
0.2294117668645518,0.2937013021654567,0.5337787761993021,-0.2049882930916916,0.2716645942888316,0.0512722231815362,0.252965632110297,0.2292979800682776,-8.021392434051753,23.746817346275225,24.13597884109244,0.7614276889025627,1.003895229271086,-1.405358872588522,3525.885009765625,11.951,0.19,178.86281949328423,-3.799164659772655,94.91969897117914,1553.0,1435.0,1200.0,1330.0,1471.0,999.0,60.0,292.0,1649233371.082053,1649233372.4084232,c6836a1a-359f-496d-b124-8c023d861d4c
0.2197651757205853,0.2935369434724895,0.5394554724128143,-0.2046342896945365,0.2758114905524645,0.0511710793693016,0.2585032558044482,0.2340643821845859,-7.908446498512071,23.84362187007192,24.18642547226921,0.761391146367374,1.0023502020734063,-1.4265358307714893,3519.9328884548613,11.957222222222224,0.1844444444444444,178.88114564973728,-3.792845264402447,94.90548838315598,1553.0,1435.0,1200.0,1330.0,1471.0,999.0,60.0,292.0,1649233372.5168371,1649233373.6370466,c6836a1a-359f-496d-b124-8c023d861d4c
0.2204478964823851,0.2999216465376875,0.6263632890822982,-0.163633111045051,0.3576241903363937,0.0010416744791073,0.3324140956722933,0.3181781043459554,-7.4768753560568335,24.32151574981068,23.927979344335714,0.5639265559369828,1.02600224173459,-1.760792685737444,3518.327094184028,11.955,0.19,178.8529551823029,-3.8069522612232,94.87392380227162,1553.0,1435.0,1200.0,1210.0,1471.0,999.0,60.0,292.0,1649233375.281617,1649233376.503905,d45f2158-58b9-45a1-b107-ee2a429bbed9
0.2514864038566401,0.3014514466760947,0.6268563651431316,-0.1636583969989838,0.3572828299735941,0.0019393258622418,0.3321612361459296,0.3027031013164648,-7.484239338054083,24.3891495480878,24.26531001302167,0.56652370750273,1.0288378082729024,-1.7600120879865413,3521.217827690972,11.950444444444445,0.18,178.85053425969707,-3.808465764738658,94.88466541310632,1553.0,1435.0,1200.0,1210.0,1471.0,999.0,60.0,292.0,1649233376.6125758,1649233377.7344952,d45f2158-58b9-45a1-b107-ee2a429bbed9
0.2166297175587552,0.3005411523785696,0.6223807516638302,-0.1652387692595252,0.3533508643665021,0.0007382430159331,0.3276224076557535,0.3058006305285117,-7.525604032853997,24.35709858550724,23.72711814105577,0.5668477083976106,1.030396705385889,-1.742992377937841,3517.2041015625,11.949666666666666,0.1866666666666666,178.8516771780182,-3.805678383511124,94.87212215015056,1553.0,1435.0,1200.0,1210.0,1471.0,999.0,60.0,292.0,1649233377.8425608,1649233378.9801674,d45f2158-58b9-45a1-b107-ee2a429bbed9
0.2597675534548357,0.300667582143653,0.6718400734942342,-0.1212917774366202,0.401014884630173,-0.0432972475557485,0.3636801759497838,0.3339059668106039,-7.288108001951173,24.86581285840989,23.55956739810656,0.3746883481873191,1.028408222755406,-1.926547961033104,3518.0062391493057,11.943888888888887,0.1844444444444444,178.8570821343814,-3.819725473881032,94.82877321621822,1553.0,1435.0,1200.0,1071.0,1471.0,999.0,60.0,292.0,1649233379.8761666,1649233380.928488,f37bb37d-805a-4665-a0fe-c650a03ec6ea
0.2613479255046921,0.3052190536300717,0.6739388074978939,-0.1216204948526171,0.4016217474864804,-0.0456109124348316,0.3641353231000633,0.3344369718765415,-7.277258905068849,24.92237053760334,23.83053586085472,0.3707588259620206,1.0431751140870176,-1.9299689700801823,3519.4508463541665,11.935,0.1877777777777777,178.84949455312346,-3.821522572542653,94.79899435034685,1553.0,1435.0,1200.0,1071.0,1471.0,999.0,60.0,292.0,1649233381.0561783,1649233382.2377307,f37bb37d-805a-4665-a0fe-c650a03ec6ea
0.2387422835169229,0.3041317576661539,0.675784681983806,-0.1213676353033525,0.403315906282821,-0.0450546214361829,0.3673339960716865,0.3429204088821728,-7.15322685309884,24.887097584782587,23.81046453175884,0.3713558155709063,1.0384824044328709,-1.939403273876839,3529.595513237847,11.929222222222222,0.1688888888888889,178.8591600297089,-3.811791023363332,94.7715468557122,1553.0,1435.0,1200.0,1071.0,1471.0,999.0,60.0,292.0,1649233382.3461983,1649233383.679496,f37bb37d-805a-4665-a0fe-c650a03ec6ea
0.09977068322728,0.2291336213828032,0.1270289414888889,-0.1835963736890608,-0.0956771041889564,0.1177237104928653,-0.1610792294279397,-0.1882489899374286,-10.939740879479691,23.93147111419133,24.24240136817184,0.842016732538946,0.753022860092349,0.2293385733462668,3538.987060546875,11.936,0.18,178.899087797777,-3.7674640442873337,94.81402228434072,1553.0,1435.0,1200.0,1613.0,1471.0,999.0,60.0,292.0,1649233384.2814648,1649233385.3098392,6c3d222f-33fb-43b4-8df0-285309def520
0.0726388545261574,0.2320162200359654,0.1307206907310176,-0.1859353246749786,-0.0915681363995857,0.1181409287294763,-0.15561746286643,-0.1760864447915852,-10.893108261467308,23.755442853137808,24.43404541314309,0.8473013126986368,0.7623247939263583,0.2116367984497398,3550.225016276041,11.965333333333334,0.19,178.8881048535916,-3.776791379077024,94.83803495273274,1553.0,1435.0,1200.0,1613.0,1471.0,999.0,60.0,292.0,1649233385.4181516,1649233386.7433558,6c3d222f-33fb-43b4-8df0-285309def520
0.0853703324079154,0.2322185076602858,0.1260427892929615,-0.1834320149813348,-0.0976367657541579,0.1164088408832972,-0.163633111020319,-0.1897787903439488,-10.96137189258774,23.995951433300284,24.492250466380707,0.8390985749057935,0.7624500926459414,0.2376736322491132,3552.6774088541665,11.965333333333334,0.19,178.8947073697893,-3.781951160108146,94.84264077696304,1553.0,1435.0,1200.0,1613.0,1471.0,999.0,60.0,292.0,1649233386.8516986,1649233387.975767,6c3d222f-33fb-43b4-8df0-285309def520
0.0593890144801469,0.2218133379562597,0.0447863758948695,-0.1647709790708075,-0.1693350941956212,0.1112757922537222,-0.2516914559147709,-0.2723880125282913,-11.621309085304558,24.02776074566585,24.10752204542869,0.7812405215915437,0.7240568346747713,0.5693545082428337,3556.6083984375,11.964555555555554,0.19,178.89617661937075,-3.7851574121729055,94.8812685323591,1553.0,1435.0,1200.0,1694.0,1471.0,999.0,60.0,292.0,1649233389.909191,1649233390.9960434,c01fc651-d9f4-4045-b426-5451c18b808a
0.0615003916816156,0.2225339876196725,0.0461897463572378,-0.1659088471021227,-0.1696385256787836,0.112059656828624,-0.2506800176299525,-0.2677480390415448,-11.534455543393412,24.13357930684594,24.17789898902613,0.786395022313533,0.7257520886969917,0.5666085629592987,3559.890923394097,11.96288888888889,0.1877777777777778,178.88887742387772,-3.78490251330763,94.8771802846859,1553.0,1435.0,1200.0,1694.0,1471.0,999.0,60.0,292.0,1649233391.1045048,1649233392.2869682,c01fc651-d9f4-4045-b426-5451c18b808a
0.0613107470233893,0.2209789015026194,0.039653327146956,-0.1649100518235901,-0.1740003531691855,0.1126538767486988,-0.2560785695456024,-0.2719202220073705,-11.595846429967862,23.99182836346565,24.13262136900117,0.7841740020823083,0.7202156230774488,0.5889177531731794,3556.9365234375,11.965,0.19,178.89588368014634,-3.7849771236379386,94.88091184470244,1553.0,1435.0,1200.0,1694.0,1471.0,999.0,60.0,292.0,1649233392.4183042,1649233393.5023963,c01fc651-d9f4-4045-b426-5451c18b808a
0.018248766627384,0.2061866188871781,-0.0400227163521098,-0.1364507080524241,-0.2460906163522178,0.1048278740243324,-0.3468045869944945,-0.3608382941094176,-12.22872163484998,24.45430099140265,24.02695052513429,0.7011536561418681,0.6616043153558415,0.9225672679820972,3544.18994140625,11.962444444444444,0.19,178.9010761417354,-3.8021029217762297,94.88838407165446,1553.0,1435.0,1200.0,1774.0,1471.0,999.0,60.0,292.0,1649233395.4379694,1649233396.594568,ddff4ee0-13d3-43fc-ab40-72ba8b47c2a5
0.0376051648387976,0.2037212384456991,-0.0429558871440181,-0.1353381259933534,-0.248164064858049,0.1057128824012777,-0.349181467112312,-0.3679942204647934,-12.236877514392884,24.43801691368797,23.9348518269007,0.7003598876234265,0.6529084272908665,0.932356311833678,3537.85107421875,11.954444444444444,0.18,178.898231747401,-3.7988645583359975,94.84626001831325,1553.0,1435.0,1200.0,1774.0,1471.0,999.0,60.0,292.0,1649233396.703313,1649233397.808349,ddff4ee0-13d3-43fc-ab40-72ba8b47c2a5
0.0426117838219326,0.2045683178787273,-0.0423869531533081,-0.1378920075745585,-0.2479870631543171,0.1078242595463788,-0.3484355313235701,-0.3786775383705671,-12.26948563356142,24.44766134670637,24.02374197581729,0.7109553838600147,0.6558791197193111,0.930456369682434,3540.44873046875,11.954666666666666,0.1844444444444444,178.9069015341875,-3.791221624086623,94.8097587284788,1553.0,1435.0,1200.0,1774.0,1471.0,999.0,60.0,292.0,1649233397.9177122,1649233399.0354416,ddff4ee0-13d3-43fc-ab40-72ba8b47c2a5
-0.0149011200359636,0.1944033646640698,-0.1113164678416742,-0.1097993104810044,-0.310531879699539,0.093815841070264,-0.4284908782286123,-0.4494402961901888,-12.759533277120957,24.82262843191181,23.718606021607005,0.6148645097491372,0.616104997155406,1.2216743393948253,3530.7267252604165,11.949666666666666,0.1766666666666666,178.91752020161712,-3.7977062720892496,94.78762132646888,1553.0,1435.0,1200.0,1856.0,1471.0,999.0,60.0,292.0,1649233399.940787,1649233401.086728,feb05caa-df75-4190-8729-bfe20aaa7208
0.0089941072107612,0.194871154797633,-0.1093568062580714,-0.1085602986438164,-0.3079906408979745,0.0940813435874179,-0.4264680014347879,-0.4579616646026541,-12.8031301902099,24.78778144445437,23.999516287550605,0.6125556285293103,0.615649454439766,1.2131091793620676,3527.3359375,11.937222222222225,0.18,178.9159143482523,-3.800078861620313,94.7301232762159,1553.0,1435.0,1200.0,1856.0,1471.0,999.0,60.0,292.0,1649233401.221038,1649233402.3101666,feb05caa-df75-4190-8729-bfe20aaa7208
0.0087286047129029,0.1916219097986813,-0.1096728807328035,-0.1061960617737705,-0.3077124953840064,0.0928423318446108,-0.4274162249560488,-0.4586696715162095,-12.847732366515483,24.8457670745122,23.67515197835069,0.6047327627728373,0.6063431838967264,1.2136263415294866,3527.3359375,11.941333333333334,0.18,178.92877179990987,-3.811940528615165,94.7052765658352,1553.0,1435.0,1200.0,1856.0,1471.0,999.0,60.0,292.0,1649233402.4187057,1649233403.539025,feb05caa-df75-4190-8729-bfe20aaa7208
0.1035256473970049,0.2340138103254375,0.2104093730125849,-0.23450964800773,0.0068574440095706,0.161936200473079,-0.0143701150242125,-0.0387331326569955,-9.18238880649377,19.718889000873244,25.468973394816302,1.0335221758889097,0.7595002987930772,-0.2280244704684386,7202.87890625,11.637,8.04888888888889,179.7263360249319,-4.063147724075979,82.05646517899666,1553.0,1435.0,1350.0,1528.0,1471.0,999.0,60.0,292.0,1649233407.2952569,1649233408.44967,24c3cd79-611c-4c6a-97b8-c9a3d4e4a872
0.1008959081853143,0.2365803345613409,0.2090312885699738,-0.2374428190754444,0.0058965777339459,0.1622143459610939,-0.0138391099606616,-0.038568773953328,-9.103781450743742,19.53552356046213,25.48055765889198,1.0395209657128743,0.7687379537080676,-0.2251618945863313,7208.9375,11.636777777777777,8.05,-99.99646626258328,-4.101715620453056,76.06673078635397,1553.0,1435.0,1350.0,1528.0,1471.0,999.0,60.0,292.0,1649233408.561409,1649233409.6826108,24c3cd79-611c-4c6a-97b8-c9a3d4e4a872
0.1337297192226883,0.2401203679887041,0.2068566965791397,-0.2427781560730526,0.0031151227008371,0.1647429413137337,-0.0157987714842924,-0.0380251259803683,-9.158754367275357,19.496015518827683,25.61945538558056,1.056862555585914,0.7816916357396354,-0.2150638659394032,7215.00537109375,11.640888888888888,8.044444444444444,-179.88203853507133,-4.098178246509159,71.16295245496866,1553.0,1435.0,1350.0,1528.0,1471.0,999.0,60.0,292.0,1649233409.7911265,1649233410.9079716,24c3cd79-611c-4c6a-97b8-c9a3d4e4a872
0.2167940762527006,0.4509672832508429,0.23374830776087,-0.2921869172505235,-0.0174297155964667,-2.0335645883405584e-05,-0.0538667768668663,-0.0711244414791514,-9.00607801249114,19.47569975174808,25.054806601017063,0.7992627248424407,1.5842073403040335,-0.1451385524853673,7221.0830078125,11.633,8.05,-179.9930245556246,-4.058700322288916,64.78178447445201,1647.0,1435.0,1350.0,1528.0,1543.0,999.0,60.0,292.0,1649233411.8225794,1649233413.156287,bce1517a-7dcc-4dab-ae3e-d5592b356038
0.2223822718921708,0.4498673443315955,0.2333184465407405,-0.2924144908812564,-0.0180997934379092,-0.0006904134300898,-0.0542713521708738,-0.0759161299773809,-8.969577667517427,19.49916525482473,24.773028827673286,0.7983779287197734,1.5823221156619804,-0.1435805209754587,7222.436197916667,11.624222222222222,8.05,179.93245899152438,-4.035860169704392,61.54441141164936,1647.0,1435.0,1350.0,1528.0,1543.0,999.0,60.0,292.0,1649233413.2687886,1649233414.3951542,bce1517a-7dcc-4dab-ae3e-d5592b356038
0.2214719775817434,0.4543682438146835,0.2339505953860023,-0.2970165351531309,-0.0176067172830606,0.0001313800821895,-0.0506807465087611,-0.0777114327758038,-8.795140474641382,19.253587437405347,24.932539739009364,0.8091224388111488,1.5971573806742765,-0.1492740423460182,7221.0830078125,11.623666666666669,8.056666666666667,179.7982958623875,-3.9954901943194248,59.18988886930496,1647.0,1435.0,1350.0,1528.0,1543.0,999.0,60.0,292.0,1649233414.504033,1649233415.6291046,bce1517a-7dcc-4dab-ae3e-d5592b356038
0.3583954118835658,0.6657461590973331,0.2592365483980473,-0.3474746649868703,-0.038846919492245,-0.1659720620173898,-0.0917198521812861,-0.124123804517124,-8.842793757069977,19.225181088505284,24.097680578069248,0.5506006982131278,2.4055046821998385,-0.0724455481465972,7227.17236328125,11.610666666666669,8.06,179.22386481063091,-3.936432821365301,54.28707852750703,1745.0,1435.0,1350.0,1528.0,1614.0,999.0,60.0,292.0,1649233418.1714046,1649233419.3171265,ce9133bf-15c9-4354-bc58-2a80171e92e4
0.3701533797807951,0.6670989575214588,0.263434016576444,-0.3475378799579104,-0.0364700397197248,-0.1669076424242689,-0.0890648268440641,-0.1160955137222606,-8.81654308340031,19.372359603155665,24.1692647198304,0.5498502164993478,2.410034630794782,-0.0849626953322202,7233.2705078125,11.607333333333337,8.06,179.0629227864882,-3.897411903205149,52.956142553468986,1745.0,1435.0,1350.0,1528.0,1614.0,999.0,60.0,292.0,1649233419.42997,1649233420.551184,ce9133bf-15c9-4354-bc58-2a80171e92e4
0.3413653228860384,0.6667323112196212,0.2595779087520362,-0.3483723165757467,-0.0397066419757346,-0.1690443057346109,-0.0914922785739348,-0.1124922649814169,-8.704564451844833,19.23888817041652,23.682328983881824,0.5458330734608525,2.412038642905618,-0.0724472246606101,7227.17236328125,11.60777777777778,8.04888888888889,178.90798829317544,-3.885766810125231,52.00764974108243,1745.0,1435.0,1350.0,1528.0,1614.0,999.0,60.0,292.0,1649233420.6602142,1649233421.7680695,ce9133bf-15c9-4354-bc58-2a80171e92e4
0.4423700595123315,0.8012788612768934,0.2825375539416451,-0.3937858988937995,-0.0524634063798759,-0.2751694676211885,-0.1118727589398482,-0.1307613680194795,-8.519972980767758,19.55386909596568,21.39845748203944,0.4127577199367652,2.9426576566430183,-0.0446905408180951,7231.23779296875,11.593,8.056666666666667,178.52405577082993,-3.8313991683780992,50.01269415958437,1849.0,1435.0,1350.0,1528.0,1686.0,999.0,60.0,292.0,1649233423.9161603,1649233425.0496657,60512c9a-237b-45b1-8991-05f29a723526
0.4302201594761591,0.7908863350114602,0.2830812019190735,-0.3862886119284914,-0.0496945943329882,-0.2701502049584277,-0.1125554797997868,-0.1426710533473561,-8.783456564020268,19.7845213082842,21.643789098637992,0.4085871985506967,2.902485168242782,-0.049355431498545,7227.17236328125,11.580222222222224,8.05,178.41602342763775,-3.8202470347151527,49.43006194790936,1849.0,1435.0,1350.0,1528.0,1686.0,999.0,60.0,292.0,1649233425.1615765,1649233426.2786217,60512c9a-237b-45b1-8991-05f29a723526
0.4213827191787913,0.7907599052509497,0.2850914352135447,-0.3858208217083257,-0.047052211944375,-0.2710984283876663,-0.1088637301558268,-0.1405470329832374,-8.678174470247386,19.65393379187429,21.57562107782769,0.404677739490083,2.901937618846705,-0.0609310055074042,7227.17236328125,11.57475,8.06625,178.32273936013843,-3.798971973732866,48.9093304600217,1849.0,1435.0,1350.0,1528.0,1686.0,999.0,60.0,292.0,1649233426.4086907,1649233427.70386,60512c9a-237b-45b1-8991-05f29a723526
0.5060021579378918,0.9051282665807328,0.3104406028131205,-0.4152157495742539,-0.0541449223937472,-0.3682470801130968,-0.1241111615612204,-0.1469064509837675,-8.406795868034514,20.198718107017,19.87950983378888,0.257419398522387,3.349235735373161,-0.0529602670808093,7225.819173177083,11.563222222222224,8.063333333333333,178.0755809964675,-3.7696162653539256,47.955419173189206,1962.0,1435.0,1350.0,1528.0,1760.0,999.0,60.0,292.0,1649233429.8511913,1649233430.9849522,47dd0dcb-6155-405c-9651-bb380e0fe7b3
0.5020828353728357,0.8961517535376993,0.3081016521933858,-0.4127503686301378,-0.0533231288279495,-0.3630381726804019,-0.1253881023576553,-0.1502189112650168,-8.634498002003626,20.207823326366604,19.679694546062223,0.2633606379467281,3.3184992676279097,-0.05058257954215,7216.35595703125,11.52322222222222,8.04,178.0295394501823,-3.772645928569519,47.66676285685098,1962.0,1435.0,1350.0,1528.0,1760.0,999.0,60.0,292.0,1649233431.092549,1649233432.2114246,47dd0dcb-6155-405c-9651-bb380e0fe7b3
0.4827770109912218,0.9035226086148558,0.3092395200618666,-0.4169351948195853,-0.053740347125653,-0.3647449748358966,-0.1238709450033679,-0.1481075341206425,-8.513280727417985,20.09645315875129,19.92669766519,0.2683839315431094,3.343682814791917,-0.0523914251654639,7215.00537109375,11.517111111111111,8.05888888888889,178.00388525965974,-3.7332959281006057,47.430455766496415,1962.0,1435.0,1350.0,1528.0,1760.0,999.0,60.0,292.0,1649233432.319474,1649233433.4491255,47dd0dcb-6155-405c-9651-bb380e0fe7b3
-0.0244971399541342,-0.01791014866713,0.1913690502251948,-0.1690190198132703,0.0411704843704007,0.348028171372261,0.0398303288139704,0.0263402721022338,-9.21090109764411,20.06639707496294,25.537277016731075,1.305316997674866,-0.1950357457190591,-0.3559507233545685,7216.35595703125,11.547444444444444,8.066666666666666,178.6156561966989,-3.662042730632864,46.99192992156996,1459.0,1435.0,1350.0,1528.0,1394.0,999.0,60.0,292.0,1649233435.3738258,1649233436.5122583,223be775-0f87-4d28-a6c2-2f8526223525
-0.0163677054808539,-0.0208053905108898,0.1934930702931103,-0.1598022886931991,0.0452794519501061,0.3454742901609926,0.0407911950630904,0.0194877782049565,-9.304478299266137,20.0858238402988,25.98932894016929,1.2790468980024972,-0.2102386671525804,-0.3655159736171168,7227.17236328125,11.62677777777778,8.07111111111111,178.61867969377147,-3.6442166958090376,46.82045536627212,1459.0,1435.0,1350.0,1528.0,1394.0,999.0,60.0,292.0,1649233436.620404,1649233437.7464888,223be775-0f87-4d28-a6c2-2f8526223525
-0.0366849702688307,-0.0211214649561953,0.1901932533912664,-0.159966647482458,0.042611783761512,0.3430594816954083,0.0383384574996872,0.0216117985972485,-9.232612330123231,19.981686550633103,25.55948435450573,1.27310426236982,-0.2083138072502292,-0.3544452703230806,7227.17236328125,11.62411111111111,8.08,178.63019539271212,-3.635039340589872,46.68386789943488,1459.0,1435.0,1350.0,1528.0,1394.0,999.0,60.0,292.0,1649233437.8557312,1649233439.3753006,223be775-0f87-4d28-a6c2-2f8526223525
-0.1503326980248984,-0.250844376340229,0.1729355901907915,-0.1177264577153301,0.0691873217365923,0.534094850595326,0.0894919429057648,0.0643324184821891,-9.326207125426594,20.64838665083804,26.370510842034182,1.610745212715804,-1.0827234701388702,-0.4665710108431508,7231.23779296875,11.617666666666668,8.073333333333332,178.70643092858816,-3.618523231698743,46.57350039045647,1364.0,1435.0,1350.0,1528.0,1312.0,999.0,60.0,292.0,1649233441.318678,1649233442.4500608,e989093d-9ecf-4979-96ae-ae0fec2cde3b
-0.1273477638914444,-0.2457871848663111,0.1802558736813521,-0.1151472901814969,0.0750157341552226,0.5272676435661634,0.0939549137619816,0.0633462663306148,-9.324916853924403,20.72202501785225,26.486414507589124,1.5904573809630094,-1.0646445457834544,-0.4900735042735011,7227.17236328125,11.604888888888889,8.075555555555555,178.72060129438623,-3.619044460509779,46.619501335061535,1364.0,1435.0,1350.0,1528.0,1312.0,999.0,60.0,292.0,1649233442.5585597,1649233443.6902306,e989093d-9ecf-4979-96ae-ae0fec2cde3b
-0.1545554527163284,-0.2494410057036043,0.1727585884973694,-0.1118601159306951,0.0703378326403912,0.5287215858049961,0.0874690665668886,0.0655208582622701,-9.42488633964932,20.61099832147699,26.562457667518,1.5851619990532375,-1.079196896942533,-0.4645783257928569,7227.17236328125,11.607666666666669,8.082222222222223,178.7302880204491,-3.611472721496128,46.60088072156427,1364.0,1435.0,1350.0,1528.0,1312.0,999.0,60.0,292.0,1649233443.803067,1649233444.9106998,e989093d-9ecf-4979-96ae-ae0fec2cde3b
-0.2577853716683524,-0.4853969316417329,0.1539331961219614,-0.0668258289851553,0.0953962131482974,0.7146112610669026,0.1341342944507279,0.1094678464944982,-9.63335554441727,21.499422941981194,26.114935428514364,1.9060704214443005,-1.9654562541439344,-0.568786435980636,7227.17236328125,11.591,8.075714285714286,178.84060771810337,-3.583028415637563,46.59784838861204,1262.0,1435.0,1350.0,1528.0,1222.0,999.0,60.0,292.0,1649233446.8422756,1649233447.978377,6e37aade-70c9-4a61-91c2-0b51792596d5
-0.2897341792139812,-0.4840947046657702,0.149116221966032,-0.0671419034264498,0.0907562405893046,0.7160019884191923,0.129102389658841,0.1041072243227295,-9.67494839600163,21.490191457296422,26.41488272943005,1.9096343847699244,-1.9632027641249936,-0.5481836500016708,7227.17236328125,11.56411111111111,8.07888888888889,178.87853044619507,-3.5971448344603423,46.60984041193552,1262.0,1435.0,1350.0,1528.0,1222.0,999.0,60.0,292.0,1649233448.087426,1649233449.4222124,6e37aade-70c9-4a61-91c2-0b51792596d5
-0.2766866250288384,-0.4893415415037504,0.1494322963412057,-0.0586711084314944,0.0928044028210347,0.7146112610676097,0.1291150326092947,0.0975328762664969,-9.686473849606214,21.5314349376734,26.595937217766352,1.887713402486584,-1.9854268986323795,-0.5517523868390787,7227.17236328125,11.561333333333332,8.06,178.89567725665142,-3.607133891257747,46.64561125098374,1262.0,1435.0,1350.0,1528.0,1222.0,999.0,60.0,292.0,1649233449.5546036,1649233450.6441095,6e37aade-70c9-4a61-91c2-0b51792596d5
-0.3304572148143538,-0.6091464278829449,0.1152962588428301,-0.0453074810937014,0.076836322844634,0.8069302715548137,0.1214533886302598,0.0971030150098732,-10.014905768369902,22.496223622326504,24.61197351142744,2.069235850958866,-2.4186527117861094,-0.4903666428957628,7227.17236328125,11.531333333333334,8.06,178.9822051286968,-3.609900971645248,46.76558466211987,1153.0,1435.0,1350.0,1528.0,1121.0,999.0,60.0,292.0,1649233452.9856384,1649233454.1274178,21745440-3469-43b5-922c-89eeb9065a67
-0.3533410074178339,-0.6084510638890538,0.1157514060295463,-0.0467740665396314,0.0768236798844239,0.8057291888463589,0.1200879471252963,0.0889988667775021,-10.144639819134722,22.585551120876644,24.34237989967981,2.070351661666424,-2.412526110033653,-0.4894620865455202,7226.495768229167,11.508888888888889,8.05888888888889,179.0183595967034,-3.595013578279952,46.82156489255729,1153.0,1435.0,1350.0,1528.0,1121.0,999.0,60.0,292.0,1649233454.236,1649233455.35308,21745440-3469-43b5-922c-89eeb9065a67
-0.3647576177472966,-0.6041777361791026,0.1109091458746896,-0.039365281604831,0.0708688376917285,0.7961837419522058,0.1098218498809491,0.0938411268946614,-10.211811787956604,22.776298516705182,24.49030093142325,2.0332025064311314,-2.398550045174757,-0.4594687052039973,7217.70654296875,11.507777777777775,8.041111111111112,179.01996696788808,-3.6189744036389175,46.87180396954237,1153.0,1435.0,1350.0,1528.0,1121.0,999.0,60.0,292.0,1649233455.461585,1649233456.586754,21745440-3469-43b5-922c-89eeb9065a67
0.0910976010166216,0.2233810670466618,0.1934045694310968,-0.2244079081547366,-0.0020305691087579,0.1575111586019269,-0.0297060467187353,-0.0513508243108592,-9.450175642291942,19.371004415326173,24.562898244773265,0.9973593404649796,0.7272192432731538,-0.1734245777434038,7217.70654296875,11.558,8.077777777777776,178.67371584028362,-3.689174566177747,46.97560311326896,1553.0,1435.0,1350.0,1528.0,1471.0,999.0,60.0,292.0,1649233457.4998577,1649233458.6320794,e827f2b5-9917-46f5-87dc-07c70cc627a8
0.126004860356596,0.2290704064994498,0.1947952968728599,-0.2288582366165972,-0.0028650055992123,0.1582065223151537,-0.0298198335055343,-0.0605928409784339,-9.479657950774897,19.45563135300271,24.875514987634737,1.0096260096580305,0.7466332101473241,-0.1729867935630934,7221.0830078125,11.628333333333334,8.096666666666668,178.6702536932843,-3.674969764842628,47.013517113896754,1553.0,1435.0,1350.0,1528.0,1471.0,999.0,60.0,292.0,1649233458.7405682,1649233460.067271,e827f2b5-9917-46f5-87dc-07c70cc627a8
0.0974190895134489,0.2291083354285784,0.196982531822716,-0.2277456544898985,-0.0009685590049934,0.1568790097699518,-0.028037173686607,-0.0437776807200164,-9.45735773431429,19.482632125149888,24.85257836089402,1.0044286692317288,0.7468230522608826,-0.1811028841306788,7221.0830078125,11.628,8.1,178.6863683862661,-3.687722866387904,47.09949212007428,1553.0,1435.0,1350.0,1528.0,1471.0,999.0,60.0,292.0,1649233460.175578,1649233461.3024795,e827f2b5-9917-46f5-87dc-07c70cc627a8
0.1069645371304287,0.2168067192301154,0.1948837977215813,-0.5193433343107859,-0.0316404222993763,0.4496776996818857,0.0552421179893912,0.0344317774762371,-9.2001886737651,18.84414162933925,26.90883276939656,2.3162794420365027,0.7163978406607286,-0.2557410528070919,7221.0830078125,11.624555555555556,8.08222222222222,178.71870401961678,-3.617193953563398,47.22150813722721,1553.0,1537.0,1350.0,1528.0,1471.0,999.0,60.0,292.0,1649233463.636233,1649233464.7795837,82551aa1-f48f-4d7d-95b7-2ef04b911fd3
0.1376996139570883,0.215782638124082,0.1914449080738848,-0.5186858993554421,-0.0333092953345365,0.4475536796996712,0.0521572315641577,0.0241403938848826,-9.271260717483491,18.72405719610789,26.52724138068256,2.308959581653272,0.7161409910471799,-0.2450449492929684,7221.0830078125,11.624555555555556,8.094444444444443,178.71458010317792,-3.6207397229481497,47.28180960067952,1553.0,1537.0,1350.0,1528.0,1471.0,999.0,60.0,292.0,1649233464.888066,1649233466.0045204,82551aa1-f48f-4d7d-95b7-2ef04b911fd3
0.1037279350280845,0.2136333321060194,0.1910403328083828,-0.5193054053812559,-0.0348390956154689,0.4507017807442984,0.0526755936122594,0.0336352699138108,-9.13829732180951,18.810986282710115,26.59293803717893,2.318064759940745,0.7066085374726137,-0.243263394098827,7221.0830078125,11.623666666666669,8.086666666666666,178.71727271553073,-3.6280734014101057,47.34233152746005,1553.0,1537.0,1350.0,1528.0,1471.0,999.0,60.0,292.0,1649233466.1154437,1649233467.231499,82551aa1-f48f-4d7d-95b7-2ef04b911fd3
0.1478013524376793,0.204656818711939,0.2017110051038092,-0.8125340830003374,-0.0578619578347297,0.7483806498110935,0.1457658331467292,0.1284575978554072,-8.840380094019809,18.60359380692446,29.673509582000293,3.648238504065693,0.6803052147413863,-0.3580102730007092,7227.17236328125,11.613444444444443,8.08,178.74972066754768,-3.525820584052484,47.44341680935642,1553.0,1645.0,1350.0,1528.0,1471.0,999.0,60.0,292.0,1649233469.3688197,1649233470.509523,1f5eef5a-ddbc-4823-8c59-0ed15029cfe2
0.1488633624902775,0.2021029374348847,0.2027477291972738,-0.8088929038026068,-0.0553965771681666,0.7463830596115439,0.1459049058996879,0.1122240153556022,-8.961834092836137,18.614079913031656,29.515598649061204,3.635570870825807,0.6726033828887779,-0.3635684421614737,7227.17236328125,11.611555555555556,8.087777777777779,178.7633066727168,-3.543044471296356,47.50940668202251,1553.0,1645.0,1350.0,1528.0,1471.0,999.0,60.0,292.0,1649233470.6185367,1649233471.6658554,1f5eef5a-ddbc-4823-8c59-0ed15029cfe2
0.1373582535572837,0.2065911941331091,0.1997134147757318,-0.8133305909436337,-0.059138898591804,0.7457509108133672,0.1430475931193696,0.1247026336568861,-8.937216560150281,18.53112061967308,29.448212521999647,3.643461297342604,0.6902126870252754,-0.3498065650031776,7227.17236328125,11.605,8.08,178.7694917884652,-3.55471368348178,47.5510871525226,1553.0,1645.0,1350.0,1528.0,1471.0,999.0,60.0,292.0,1649233471.7753403,1649233472.7687626,1f5eef5a-ddbc-4823-8c59-0ed15029cfe2
0.154173412742535,0.1956803053031954,0.2032281622996676,-1.0674419367525174,-0.0863465866344887,1.0006838808187164,0.2158332099957227,0.1846050577085581,-8.640527021373492,18.571591731233266,31.195424503406816,4.790413819163916,0.6632148770904286,-0.4220640380629869,7227.17236328125,11.61011111111111,8.075555555555557,178.8174336451594,-3.4599970549518164,47.63971189264315,1553.0,1761.0,1350.0,1528.0,1471.0,999.0,60.0,292.0,1649233474.9015188,1649233476.0349786,0c716170-fb3e-405d-ad3d-4573f3bd97ae
0.1495207972580819,0.1912426204942104,0.2051119657908984,-1.056417253143573,-0.0826169082253401,0.9957784060143706,0.2158205670030771,0.1945550802705029,-8.711014288515273,18.6472346622836,31.329720450651465,4.755102750151592,0.6446428223504561,-0.430025046456417,7227.17236328125,11.598666666666666,8.07888888888889,178.82823141532728,-3.487360073427357,47.702465394007504,1553.0,1761.0,1350.0,1528.0,1471.0,999.0,60.0,292.0,1649233476.1444514,1649233477.480694,0c716170-fb3e-405d-ad3d-4573f3bd97ae
0.1356135227722212,0.1939355745239475,0.2061360469338949,-1.078567764335748,-0.0850190739640787,1.0160324540839296,0.2232799232038554,0.2008386396602017,-8.552271009973643,18.57958962137181,31.71688241536037,4.850326615306307,0.6529790607418545,-0.4379532154967385,7227.17236328125,11.595333333333334,8.083333333333332,178.85506950530598,-3.481632793796759,47.69135647077744,1553.0,1761.0,1350.0,1528.0,1471.0,999.0,60.0,292.0,1649233477.6147964,1649233478.675275,0c716170-fb3e-405d-ad3d-4573f3bd97ae
