raw_voltage_G-,raw_voltage_G0,raw_voltage_G1,raw_voltage_G2,raw_voltage_G3,raw_voltage_G4,raw_voltage_G5,raw_voltage_G6,load_x,load_y,load_z,load_l,load_m,load_n,rpm,voltage,current,roll,pitch,yaw,aileron1_pwm,elevator_pwm,throttle_pwm,rudder_pwm,aileron2_pwm,pbaro,pdiff,Tt,sample_start_time,sample_end_time,uid
-0.1883880624632105,-0.0287198944254548,-0.4446865356531128,-0.1079660787595251,-0.5415696943179502,0.3179631737446557,-0.7355509606421511,-0.7564371677483059,-21.92287989794108,24.5049581874019,22.33193383128163,1.0908790562753774,-0.1649619090338921,2.392749011924846,2944.29052734375,11.966666666666669,0.2288888888888889,179.77002646832275,-4.396736392437256,102.80694946662048,1553.0,1435.0,1200.0,1528.0,1471.0,999.0,60.0,292.0,1649235557.8120244,1649235558.7913122,440e9854-b88a-4573-b279-fa892a111014
-0.2012206855137396,-0.0289221820712107,-0.4479610674048858,-0.1092809485117651,-0.5454258033892516,0.3190378267276981,-0.7388128500522362,-0.7617345776331803,-21.88971008946453,24.54576065353808,22.258614954707696,1.0963724130764367,-0.1653505623514415,2.40697598942696,3170.357421875,11.965333333333332,0.22,179.82481521020495,-4.393080913138959,102.41434260402906,1553.0,1435.0,1200.0,1528.0,1471.0,999.0,60.0,292.0,1649235558.8999202,1649235560.0238264,440e9854-b88a-4573-b279-fa892a111014
-0.1865674736049608,-0.0271521652134177,-0.4462163362118934,-0.1067649958145957,-0.5422144863084746,0.3162943008917225,-0.7374094790713221,-0.7629988764423851,-21.981906155617857,24.429819574226965,22.45838457656573,1.0838356951523396,-0.160031062259171,2.398726796757108,3215.092122395833,11.962333333333332,0.22,179.85661201752112,-4.3737378174094825,102.05551406252302,1553.0,1435.0,1200.0,1528.0,1471.0,999.0,60.0,292.0,1649235560.1321783,1649235561.243719,440e9854-b88a-4573-b279-fa892a111014
-0.095070241267977,0.1616454120195986,-0.4218912428232724,-0.2659906649601787,-0.5701681170036071,0.2822214795812879,-0.7332372948715997,-0.7642378881801809,-21.46955678815939,23.73323137222737,23.18379712107609,1.3634106137486104,0.5591533998408234,2.4208183132548844,3212.9478895399307,11.947,0.21,179.77381039312291,-4.282395420909179,101.36795914100291,1647.0,1435.0,1200.0,1528.0,1543.0,999.0,60.0,292.0,1649235562.3596184,1649235563.5034437,07dcc3d2-c496-4f7e-8bbc-27eefd0e65fd
-0.104577760604618,0.1637947180663289,-0.4146341723402612,-0.2666607428806704,-0.5631765484663283,0.2816651885958153,-0.7262204395845225,-0.7452228422530626,-21.51063072558125,23.71301656406591,23.3716818317637,1.363908706835408,0.5663823157403371,2.3919116097314963,3202.2768283420137,11.939111111111112,0.2111111111111111,179.75821479451807,-4.253115158847243,101.09642117599954,1647.0,1435.0,1200.0,1528.0,1543.0,999.0,60.0,292.0,1649235563.6119685,1649235564.7338045,07dcc3d2-c496-4f7e-8bbc-27eefd0e65fd
-0.0706692941602471,0.1647050123921666,-0.4209177333188916,-0.2621471993489822,-0.5694980389733941,0.2759252773400487,-0.7346406658452493,-0.7586749761086675,-21.48847780002842,23.76328924008683,23.21610655149772,1.3408356473315768,0.5700653342545304,2.4210006565884283,3197.365478515625,11.941444444444445,0.22,179.75375543989992,-4.253864013198744,100.85259632409851,1647.0,1435.0,1200.0,1528.0,1543.0,999.0,60.0,292.0,1649235564.8648336,1649235565.9583817,07dcc3d2-c496-4f7e-8bbc-27eefd0e65fd
0.0098538297027939,0.3541473718854288,-0.3889942095176414,-0.4094884795892243,-0.5891199455825641,0.2310427108222609,-0.7292168264044785,-0.7517719071308127,-21.264817100685352,23.282253567491832,24.08329894822324,1.5709959122989408,1.291476930979548,2.41969631269673,3198.4264322916665,11.935444444444444,0.21,179.5883722749769,-4.186831730342461,100.31787067980702,1745.0,1435.0,1200.0,1528.0,1614.0,999.0,60.0,292.0,1649235567.8933268,1649235569.0343726,9eeb8dca-a1c6-4f07-a630-6a9f6c1484cb
0.0510699355495109,0.360658504645578,-0.3882103447698218,-0.4135215901293782,-0.5908393910022348,0.2303979190176423,-0.7289386807850495,-0.7582198285022721,-21.144346839113776,23.299453159646227,24.3736820238628,1.5789046680893113,1.3130178675673616,2.4218129789743377,3193.52685546875,11.929,0.21,179.56359690212753,-4.1630839689401045,100.13097621354795,1745.0,1435.0,1200.0,1528.0,1614.0,999.0,60.0,292.0,1649235569.1638012,1649235570.2538316,9eeb8dca-a1c6-4f07-a630-6a9f6c1484cb
0.0485286971390218,0.3552093818860971,-0.3909791573682245,-0.4084517552483423,-0.5912692524386557,0.2308277802141205,-0.7316442790646364,-0.7608874980068835,-21.25719242417852,23.29658540513067,24.319040675756334,1.568211925405201,1.2930635406023077,2.429255160519385,3194.717041015625,11.93588888888889,0.2144444444444444,179.52625094556572,-4.150860017328027,99.9883732473267,1745.0,1435.0,1200.0,1528.0,1614.0,999.0,60.0,292.0,1649235570.3623235,1649235571.6943843,9eeb8dca-a1c6-4f07-a630-6a9f6c1484cb
0.1180524278765226,0.4832953730129133,-0.3632025313448426,-0.5198111246165594,-0.6054926063055646,0.2028741589611872,-0.7253101448944631,-0.7505961099025418,-21.022864000283985,23.52985859580341,23.73645422485336,1.759550434125435,1.7924443810309232,2.4155152802401294,3192.7344021267363,11.912333333333333,0.2011111111111111,179.37298150059064,-4.102790663769294,99.76433697127102,1837.4444444444443,1435.0,1200.0,1528.0,1678.0,999.0,60.0,292.0,1649235572.261366,1649235573.3337083,35f70fc6-c906-4204-b870-1bd743dbf777
0.0932974790057975,0.4859883269095791,-0.3667931374975646,-0.5218340013938193,-0.608741852474426,0.2028741589904955,-0.7287111071697967,-0.7497869590604912,-21.059756363081515,23.44027319449257,23.82105722163132,1.763335803460728,1.802075791129812,2.4301159118304088,3190.621283637153,11.91088888888889,0.2,179.3386468985429,-4.076429453803891,99.58744493759652,1849.0,1435.0,1200.0,1528.0,1686.0,999.0,60.0,292.0,1649235573.4624808,1649235574.559107,35f70fc6-c906-4204-b870-1bd743dbf777
0.1296081087548275,0.4965704978390658,-0.3804601983337931,-0.5346919128802049,-0.6244697213426166,0.206679694888847,-0.7441102597758766,-0.7687261469067637,-21.256915790832263,23.43030425099223,24.042003584886192,1.800081010232851,1.841919066208324,2.4934382012029648,3193.397650824653,11.903777777777778,0.21,179.30419087090988,-4.072454947753113,99.44296746390305,1849.0,1435.0,1200.0,1528.0,1686.0,999.0,60.0,292.0,1649235574.6685476,1649235575.793511,35f70fc6-c906-4204-b870-1bd743dbf777
0.1963539230722674,0.6269473945712891,-0.3599674457275814,-0.6429011656334681,-0.6467142887334544,0.1724890402345288,-0.7495897283898567,-0.7727051465084963,-21.16277677408281,23.84192860962169,23.229452322832262,1.971010578493385,2.3520760132007665,2.5171815169660365,3258.276692708333,11.846,0.19,179.13724738721646,-3.9795183661277806,99.05979536928514,1962.0,1435.0,1200.0,1528.0,1760.0,999.0,60.0,292.0,1649235577.9262078,1649235579.0636609,1e968613-825d-4584-987b-2e44c61011db
0.1897006830540038,0.6309183004508175,-0.3605196910685468,-0.6481869433925204,-0.6483578763578777,0.1737776124143365,-0.7497212154713871,-0.771561209545307,-21.139712591390364,23.79618707824332,23.27157628936623,1.9855171922928985,2.3670477454941463,2.520888571984311,3267.794921875,11.851,0.19,179.12805091695398,-3.9459293456325577,98.80630959425808,1962.0,1435.0,1200.0,1528.0,1760.0,999.0,60.0,292.0,1649235579.173591,1649235580.3007383,1e968613-825d-4584-987b-2e44c61011db
0.2073462326848519,0.6292878622753908,-0.3547605611428376,-0.6419018648275941,-0.6406790350528923,0.1700565313959583,-0.7441067198867403,-0.7775175719087588,-21.18970791776357,23.715292253977847,23.38320130732715,1.962720960964736,2.359887034457456,2.4945990390959327,3271.9540201822915,11.854,0.1855555555555555,179.10028999252742,-3.944421676237016,98.62737153947218,1962.0,1435.0,1200.0,1528.0,1760.0,999.0,60.0,292.0,1649235580.4101954,1649235581.5236766,1e968613-825d-4584-987b-2e44c61011db
-0.3354259056530698,-0.2843482701879108,-0.4758767675279398,0.1182041434806328,-0.503451107687549,0.3577253341182195,-0.7444769061800732,-0.774655706111154,-22.63798898190357,25.77102291239361,21.81917509429508,0.6764434567147259,-1.1439200228945312,2.3653635942117965,3274.45703125,11.951,0.22,179.41732460650218,-3.9811310022499424,98.34941243773908,1459.0,1435.0,1200.0,1528.0,1394.0,999.0,60.0,292.0,1649235582.4306505,1649235583.4931717,c2cbb80b-72fe-4bd2-96e8-030b9b1d3b50
-0.3739111348655267,-0.2840321957098792,-0.4798213774216977,0.1163582688621378,-0.5075095044840374,0.3581931242201357,-0.7478399395771604,-0.7650723251628444,-22.5949251551868,25.736281291555965,21.6602161509215,0.6812281010508632,-1.141653887258549,2.380898694689313,3288.5519748263887,11.95955555555556,0.22,179.4027505006332,-3.959230569858727,98.33509863796844,1459.0,1435.0,1200.0,1528.0,1394.0,999.0,60.0,292.0,1649235583.604543,1649235584.8016922,c2cbb80b-72fe-4bd2-96e8-030b9b1d3b50
-0.3391808704824393,-0.2876860166103979,-0.4799857361310377,0.1187983634852319,-0.5063337072392132,0.3618090154679097,-0.745905563276411,-0.7696490846629064,-22.545005350617046,25.672342770829133,21.991840817366207,0.6834951869454493,-1.1589623699938305,2.3768752769588324,3292.059814453125,11.958666666666666,0.2166666666666666,179.36672808295054,-3.938242252312924,98.3368585500446,1459.0,1435.0,1200.0,1528.0,1394.0,999.0,60.0,292.0,1649235584.9106858,1649235586.2318008,c2cbb80b-72fe-4bd2-96e8-030b9b1d3b50
-0.4668749655707037,-0.5074210035041442,-0.5009604405191438,0.3234249394934882,-0.4688093415933361,0.3827963559521694,-0.7501156763886342,-0.7746304198225622,-22.89272265226045,26.839826089800788,21.046488359576,0.2754383826564134,-1.998766272021098,2.333501437991026,3287.150336371528,11.927444444444443,0.21,179.38503450774598,-3.908375684915358,98.18192102109218,1364.0,1435.0,1200.0,1528.0,1312.0,999.0,60.0,292.0,1649235588.3720963,1649235589.5123885,1d06ab7d-3593-43c5-8d13-e5b537f6291e
-0.4635372188230213,-0.5010615843314878,-0.493779227684384,0.3228307196144289,-0.4621085621345851,0.3785736018986491,-0.7451722703362905,-0.7755280717480226,-23.03599180308955,26.81650291932417,21.301780376933987,0.2674612462521778,-1.9756351902672216,2.308581321419599,3289.112060546875,11.93325,0.20125,179.3777184265075,-3.903805719178189,98.05660678148008,1364.0,1435.0,1200.0,1528.0,1312.0,999.0,60.0,292.0,1649235589.620867,1649235590.739484,1d06ab7d-3593-43c5-8d13-e5b537f6291e
-0.4691759879918513,-0.5090519479893006,-0.4976353366674753,0.3299487152714432,-0.4645739432159982,0.3779035241765426,-0.7478272965966836,-0.7732649779730095,-22.888698816233088,26.84871670575897,20.99926540121161,0.2499464993578854,-2.005085521080334,2.3197344423853705,3280.440863715278,11.929555555555554,0.2,179.3660040828985,-3.892713112511135,97.94402401448085,1364.0,1435.0,1200.0,1528.0,1312.0,999.0,60.0,292.0,1649235590.867669,1649235591.9662693,1d06ab7d-3593-43c5-8d13-e5b537f6291e
-0.5989056129591395,-0.7366003281009603,-0.5117196168983636,0.5438552280344637,-0.4206395877370123,0.3948071833082909,-0.7496858150273197,-0.7800036879489862,-23.39000013948229,28.427435983060583,19.63155466289841,-0.1852955525767022,-2.870062785844365,2.2531534521537355,3280.161919487847,11.89611111111111,0.1955555555555555,179.43345903114155,-3.92138804905788,97.67559682118944,1262.0,1435.0,1200.0,1528.0,1222.0,999.0,60.0,292.0,1649235593.900357,1649235595.040548,16cf2704-4da1-4885-863e-a66231acad31
-0.6147851975137625,-0.7296972596954961,-0.5109231092199268,0.5492790647112986,-0.4195649345356149,0.3836687212780347,-0.7510891861352706,-0.7836448667240666,-23.342487345794986,28.2943123328306,19.71862782404852,-0.2233650459868748,-2.8458996471343685,2.253695610405983,3279.046142578125,11.898,0.19,179.4233457977105,-3.91365784016911,97.5230938752212,1262.0,1435.0,1200.0,1528.0,1222.0,999.0,60.0,292.0,1649235595.1489592,1649235596.267234,16cf2704-4da1-4885-863e-a66231acad31
-0.6337749556196228,-0.7343878061282271,-0.5146275024855782,0.5455241008602072,-0.4225486777467633,0.388131691888299,-0.7530235624865859,-0.7756039295757559,-23.36933959031705,28.28233373041544,19.18708402131328,-0.2052279861910264,-2.8583636606949296,2.264199173751351,3269.734076605903,11.899222222222225,0.2,179.4124691009122,-3.938538654063781,97.39061476716972,1262.0,1435.0,1200.0,1528.0,1222.0,999.0,60.0,292.0,1649235596.375613,1649235597.502488,16cf2704-4da1-4885-863e-a66231acad31
-0.6657996282320643,-0.8265172224244071,-0.5108472513774278,0.6450243215519025,-0.4006383938520842,0.3771828744934454,-0.7518730511742528,-0.7850103089629694,-23.25648920632076,29.47354138110997,17.827839749621642,-0.4463545356589488,-3.204647522612571,2.2149632830751,3268.903103298612,11.855444444444444,0.1855555555555555,179.4310836431302,-3.967315189674429,97.0537407303858,1153.0,1435.0,1200.0,1528.0,1121.0,999.0,60.0,292.0,1649235599.428584,1649235600.5304115,50a4b296-017b-4bc6-91f5-44462d6434c4
-0.6643962572137352,-0.8209795956733064,-0.5094438806268358,0.642609513149006,-0.4012831858853361,0.3741106312976996,-0.7510891863119412,-0.7665894829878522,-23.121771082723736,29.469036602890107,17.854062030720744,-0.4476990507763511,-3.1846777601988925,2.2135944326046104,3261.577880859375,11.864,0.19,179.4050818718699,-3.950656974903068,96.89516726406524,1153.0,1435.0,1200.0,1528.0,1121.0,999.0,60.0,292.0,1649235600.6640797,1649235601.8046646,50a4b296-017b-4bc6-91f5-44462d6434c4
-0.6653950528567664,-0.8287044586711017,-0.5107966794400505,0.6493102903911242,-0.4004361061366488,0.3759817917551522,-0.7528465608459292,-0.7834805079647256,-23.26284476486473,29.566133580474933,17.908807393755293,-0.4580955940702704,-3.214046537678928,2.2158495706552586,3259.097412109375,11.858666666666666,0.1855555555555555,179.395748797824,-3.95748289520485,96.740697982526,1153.0,1435.0,1200.0,1528.0,1121.0,999.0,60.0,292.0,1649235601.912717,1649235603.0280302,50a4b296-017b-4bc6-91f5-44462d6434c4
-0.2163922596573,-0.0270004494807141,-0.4612235535087,-0.1099130973322709,-0.5551988275317161,0.3221227129590222,-0.7507857545108243,-0.7719627508359934,-22.10462533560635,24.27822810069761,22.78897098434417,1.1022730072773212,-0.1620897885889973,2.4563468073578814,3256.620849609375,11.958666666666668,0.2155555555555555,179.14081122814338,-3.808904936415916,96.53258970761476,1553.0,1435.0,1200.0,1528.0,1471.0,999.0,60.0,292.0,1649235603.9385483,1649235605.0740728,181774f1-261e-4422-8e56-f373f3c7d280
-0.2211839485083137,-0.0262418708298427,-0.4657244544559153,-0.1097993105164156,-0.5594721550913774,0.3223882154705484,-0.7555268730059778,-0.7752625690928353,-22.127494678309272,24.266590550285244,22.91187707967625,1.1023197702445011,-0.1604716475500278,2.475307717132839,3262.8193359375,11.965,0.22,179.11347377544536,-3.81276356641015,96.63070233940236,1553.0,1435.0,1200.0,1528.0,1471.0,999.0,60.0,292.0,1649235605.1827042,1649235606.30083,181774f1-261e-4422-8e56-f373f3c7d280
-0.1992483808981475,-0.0281509604426164,-0.4612109105616783,-0.1074730025744826,-0.55540111524277,0.3233237957153346,-0.7517592642012544,-0.7666021258071308,-22.14761959086993,24.38936951488985,23.113876344565448,1.1002352936322652,-0.1692779709531363,2.458255919157672,3262.8193359375,11.965333333333334,0.22,179.0740863512316,-3.791644763792079,96.724428471923,1553.0,1435.0,1200.0,1528.0,1471.0,999.0,60.0,292.0,1649235606.4092686,1649235607.5636585,181774f1-261e-4422-8e56-f373f3c7d280
-0.1839250911128399,-0.0363056809420615,-0.4909472000563267,-0.3290032722551037,-0.6055178922138897,0.5473826183453323,-0.7185335063122547,-0.7462342809699366,-22.129595817548456,23.9209396531922,24.848299229410102,2.099143000988195,-0.1899807935919095,2.519466204502005,3268.5738830566406,11.953125,0.21,179.0731500461329,-3.715339562358088,96.7932301057974,1553.0,1537.0,1200.0,1528.0,1471.0,999.0,60.0,292.0,1649235608.4393656,1649235609.5775692,a77cc106-f989-4062-8f5b-98aedc30fba6
-0.2113477112554073,-0.0312737758822871,-0.4822741155581471,-0.327106825406001,-0.5977551017224466,0.5390635401529646,-0.7127935923703433,-0.7351463853524302,-22.18589838892597,23.94692317012305,24.670411213127885,2.07671841396748,-0.1688162027114131,2.489222775943253,3264.06201171875,11.946,0.21,179.07654977279228,-3.720140651736077,96.80077404973568,1553.0,1537.0,1200.0,1528.0,1471.0,999.0,60.0,292.0,1649235609.6859295,1649235610.8078473,a77cc106-f989-4062-8f5b-98aedc30fba6
-0.1928131049788281,-0.0313369907733422,-0.4783168627565971,-0.3275746156202067,-0.5946828573201711,0.5403784096544039,-0.7082800477639436,-0.7239194168303598,-22.10200681608368,23.98160846208065,24.818947652599647,2.0812212056248685,-0.1706544836783227,2.4734599498484107,3262.8193359375,11.951666666666666,0.2033333333333333,179.0734124392335,-3.7063678598659617,96.79646875382883,1553.0,1537.0,1200.0,1528.0,1471.0,999.0,60.0,292.0,1649235610.9166076,1649235612.0380783,a77cc106-f989-4062-8f5b-98aedc30fba6
-0.2009678259455999,-0.034118445830059,-0.4971675464385789,-0.5364240011155406,-0.6351909696265688,0.7451819768995207,-0.6718556165302544,-0.6930199684309736,-22.166553017063418,23.727823143730934,26.276764498319817,3.010134094120858,-0.1690358903336148,2.5024157654372563,3261.577880859375,11.94922222222222,0.21,179.07773063660875,-3.6079560752790862,96.79798809146422,1553.0,1645.0,1200.0,1528.0,1471.0,999.0,60.0,292.0,1649235613.9746552,1649235615.1109734,33433911-3cb3-47cc-8329-0fb8db78392a
-0.1891339981865405,-0.0342575185798803,-0.4968135429906231,-0.5381434464745631,-0.6354311862792454,0.7492656581317367,-0.6694155210441178,-0.6837779484599313,-22.02212452159047,23.692000888860715,26.62304561237734,3.0230973763659392,-0.1734152729288327,2.4993584268240148,3267.933403862847,11.946555555555555,0.21,179.0775576051498,-3.609218237319462,96.78820574275296,1553.0,1645.0,1200.0,1528.0,1471.0,999.0,60.0,292.0,1649235615.2193472,1649235616.3403091,33433911-3cb3-47cc-8329-0fb8db78392a
-0.1913591624356265,-0.0334357250433073,-0.4978881963017161,-0.5387250235763212,-0.6360633353182862,0.7457509108160763,-0.6710591086571049,-0.7026286346997477,-22.06291666466439,23.638451819922377,26.15241354664136,3.016007116298644,-0.1658705614923264,2.5034484293344854,3264.4772135416665,11.946555555555555,0.2044444444444444,179.066454753199,-3.5923670697040486,96.78960517262288,1553.0,1645.0,1200.0,1528.0,1471.0,999.0,60.0,292.0,1649235616.449138,1649235617.565694,33433911-3cb3-47cc-8329-0fb8db78392a
-0.1979587970887779,-0.0376331935905674,-0.4950688117224465,-0.7030458533390144,-0.6541048701449667,0.9094648074093038,-0.6243306485516675,-0.6466707968937053,-21.84272629194522,23.69983232323441,27.51861850321008,3.755437538991168,-0.1748695277926312,2.457754179686247,3269.87291124132,11.929555555555556,0.2011111111111111,179.08649908168326,-3.542322937701534,96.72964673644888,1553.0,1761.0,1200.0,1528.0,1471.0,999.0,60.0,292.0,1649235619.2967403,1649235620.4394517,cf50eb0e-9ee6-4011-b535-9bf89de715b2
-0.2000196025655817,-0.0384549871318071,-0.4982801287898505,-0.702830922600107,-0.6572656156298881,0.9117026141949572,-0.6280856140429274,-0.6456720016707442,-21.91239977284867,23.76772284872565,27.723018980550723,3.760269021654677,-0.1794991092959051,2.471897027142318,3269.4574924045137,11.93422222222222,0.2022222222222222,179.07201149154375,-3.5640412554308165,96.6803820997854,1553.0,1761.0,1200.0,1528.0,1471.0,999.0,60.0,292.0,1649235620.553753,1649235621.6722946,cf50eb0e-9ee6-4011-b535-9bf89de715b2
-0.1643411177963414,-0.0394679424900192,-0.4939921355756685,-0.6999928258493935,-0.6526180555755146,0.908631888130286,-0.6245192818943229,-0.6468983706377357,-21.930693792788706,23.783533199430725,27.54717045204956,3.7472477213886783,-0.1816876125321307,2.454279194324364,3268.902777777778,11.934666666666669,0.2,179.0754675672638,-3.5597711539709587,96.64897537216184,1553.0,1761.0,1200.0,1528.0,1471.0,999.0,60.0,292.0,1649235621.803281,1649235622.7493002,cf50eb0e-9ee6-4011-b535-9bf89de715b2
-0.1776288879582704,-0.0323231430240821,-0.453094117487659,-0.7476123661117609,-0.625759305591133,0.9462432250854604,-0.5782975539540784,-0.6013457089494596,-21.82704397612917,24.37634091187624,27.98296320093285,3.9452713182191537,-0.1510205440461181,2.2970290349790403,3261.577880859375,11.877666666666666,0.1866666666666666,179.08325246509776,-3.52292818866646,96.50164819176467,1553.0,1887.0,1200.0,1528.0,1471.0,999.0,60.0,292.0,1649235624.8179114,1649235625.9639604,b3582a2b-c014-4982-9081-98f1e6b8d774
-0.1465777334908442,-0.0296301888102144,-0.4549273495755205,-0.7491421674568713,-0.6287051202601032,0.9453835028041976,-0.578841202074351,-0.6095636465612473,-21.609587800862908,24.300718645721147,28.02616164747183,3.946314020616741,-0.142771444888459,2.30487074828053,3258.6851399739585,11.878,0.18,179.07636308095496,-3.54141810364805,96.365303196643,1553.0,1887.0,1200.0,1528.0,1471.0,999.0,60.0,292.0,1649235626.0725448,1649235627.1945944,b3582a2b-c014-4982-9081-98f1e6b8d774
-0.1746325020894097,-0.0312990618417218,-0.4568617255850603,-0.7536557120729613,-0.631246359619429,0.9521348520458928,-0.5804721466948541,-0.595618437992322,-21.70732643430233,24.407404004048537,28.14805505445097,3.972247797141313,-0.1489844074536687,2.313109167503149,3255.384033203125,11.879333333333332,0.18,179.07367046860216,-3.5248780416629564,96.2508406098022,1553.0,1887.0,1200.0,1528.0,1471.0,999.0,60.0,292.0,1649235627.3038385,1649235628.6259272,b3582a2b-c014-4982-9081-98f1e6b8d774
-0.1933946819292869,-0.0126000981454402,-0.4252289894376133,0.0922481118028239,-0.5061693484839458,0.1144744653285611,-0.7790807498083763,-0.8114847152852602,-22.206388766355925,25.21157762025935,21.75939787508628,0.1873977418601593,-0.1208270581749115,2.38239703653084,3255.522705078125,11.957666666666666,0.21,179.0693917345421,-3.775822820307221,96.04171691343436,1553.0,1335.0,1200.0,1528.0,1471.0,999.0,60.0,292.0,1649235630.8367488,1649235631.7855313,c40bddde-452a-47eb-a579-c1e6d3539f50
-0.1953922725044532,-0.0169239964301743,-0.4294517447580646,0.0967110827732673,-0.5087611595304976,0.1151824721214746,-0.7832023623051249,-0.8019139771184375,-22.25677742723337,25.22464602696132,21.80994976542037,0.1787804195024952,-0.1379526730149423,2.3970981922664607,3251.67919921875,11.964111111111112,0.21,179.05045693234302,-3.767045458041324,96.2078089002113,1553.0,1335.0,1200.0,1528.0,1471.0,999.0,60.0,292.0,1649235631.8940363,1649235633.1492517,c40bddde-452a-47eb-a579-c1e6d3539f50
-0.2079088211357642,-0.0130552453289442,-0.4221567453356742,0.0883920038876281,-0.5046774767969603,0.1172053484188505,-0.7750729242705164,-0.807287244896446,-22.10136001652954,25.272664084732604,21.605490040236138,0.2028190972998029,-0.1212428539545711,2.3702133779698187,3253.599365234375,11.961222222222222,0.21,179.034377149217,-3.7761948758895096,96.38105588959876,1553.0,1335.0,1200.0,1528.0,1471.0,999.0,60.0,292.0,1649235633.257614,1649235634.7701252,c40bddde-452a-47eb-a579-c1e6d3539f50
-0.2101719142970052,-0.007302690602202,-0.3916365922492312,0.3210480599613482,-0.4555215694717042,-0.1142369957613256,-0.8137857382176696,-0.8386671298026693,-22.19253473304765,26.180771049624084,19.920223706619787,-0.8348526997837916,-0.1107802153812925,2.3167003508963537,3249.52197265625,11.9565,0.2025,179.01621529675896,-3.851724032652961,96.547828239108,1553.0,1236.0,1200.0,1528.0,1471.0,999.0,60.0,292.0,1649235635.8849251,1649235637.019492,adbbaabe-dd8f-492f-8539-f19a28a0e4c1
-0.2216264527585838,-0.0048120240528133,-0.3925974587166961,0.3147771436926424,-0.4587834583681908,-0.1118854018949981,-0.8142282426842271,-0.8347225186676192,-22.07545816022152,26.23202107000295,19.77399641882496,-0.8150951819255192,-0.1002592925761115,2.323183947068935,3248.119466145833,11.946333333333332,0.2088888888888888,179.02076837675068,-3.851324015983757,96.6372441428074,1553.0,1236.0,1200.0,1528.0,1471.0,999.0,60.0,292.0,1649235637.1282356,1649235638.262287,adbbaabe-dd8f-492f-8539-f19a28a0e4c1
-0.1844813821579433,-0.0077199088481949,-0.3913331607413063,0.3183551060099111,-0.4554709975601775,-0.1119991886823972,-0.8130903741511718,-0.8380729091525374,-22.22064019963074,26.195755333263023,19.83157954231062,-0.8236632406220509,-0.1110094125606932,2.315002884353957,3246.205864800347,11.946111111111112,0.2055555555555555,179.0271659872733,-3.8566209699807104,96.74022745838312,1553.0,1236.0,1200.0,1528.0,1471.0,999.0,60.0,292.0,1649235638.3968005,1649235639.4774995,adbbaabe-dd8f-492f-8539-f19a28a0e4c1
-0.1982875145370062,-0.0089842065983062,-0.347145947509611,0.494497049748874,-0.4026865565162901,-0.2812886693631345,-0.8214600290932788,-0.8388314882212563,-21.976615559106484,27.37534024775369,18.77050071973709,-1.591438844849249,-0.126939734117798,2.194374556601962,3238.166259765625,11.942666666666668,0.2,179.0135116802125,-3.9120153219693297,96.89107142729296,1553.0,1133.0,1200.0,1528.0,1471.0,999.0,60.0,292.0,1649235641.4142115,1649235642.5520642,b5c44bfc-85d8-4191-b831-418f9f3702d1
-0.1893362858525377,-0.0055073878030419,-0.3458057917270128,0.488580136991552,-0.4013590436638147,-0.2789623611828994,-0.81943715179295,-0.8478965074006996,-22.07271968239292,27.275400413584176,18.82556845827657,-1.5734995949024613,-0.1128956499433028,2.1882798028166666,3236.943359375,11.937,0.2,179.0046825223454,-3.913498611384084,96.95324436257786,1553.0,1133.0,1200.0,1528.0,1471.0,999.0,60.0,292.0,1649235642.660693,1649235643.788145,b5c44bfc-85d8-4191-b831-418f9f3702d1
-0.1963404958819537,-0.0032822237836156,-0.3465770134012768,0.4863549731854001,-0.4040519982823639,-0.2802013731945598,-0.8200566579191271,-0.8364672503539113,-21.89163832613989,27.30654436559731,18.661494267914307,-1.5710313432516112,-0.104151793765675,2.1940131840624044,3233.4163953993057,11.940777777777775,0.2,179.02300716097864,-3.920500409056993,97.01008519685072,1553.0,1133.0,1200.0,1528.0,1471.0,999.0,60.0,292.0,1649235643.9001644,1649235645.01019,b5c44bfc-85d8-4191-b831-418f9f3702d1
-0.1764783769005405,-0.001701851604191,-0.2954867346952144,0.5085939679997789,-0.3561856777507729,-0.3047413953968459,-0.7767670840154891,-0.8088296891402487,-21.74488794241124,27.6987328606702,18.662125839287008,-1.6711239827067634,-0.0987612917417101,1.997869496142336,3232.061279296875,11.93422222222222,0.2,179.0296870859869,-3.9408238266598414,97.06017780422358,1553.0,1026.0,1200.0,1528.0,1471.0,999.0,60.0,292.0,1649235645.9202795,1649235646.9696229,4f50ea02-c9c7-4a7c-b62f-4224f98460cd
-0.1904867969045842,-0.0073659055095565,-0.2953729481239396,0.5192899256899597,-0.354605305559098,-0.3108353113451186,-0.7780187395967695,-0.8055425136487242,-21.70521714598288,27.77392838458871,18.401692968800266,-1.708462684752377,-0.1192859203859552,1.99638195486792,3233.958441840278,11.920333333333334,0.1922222222222222,179.01804237236192,-3.9609275398443904,97.07208965413608,1553.0,1026.0,1200.0,1528.0,1471.0,999.0,60.0,292.0,1649235647.0785134,1649235648.2863991,4f50ea02-c9c7-4a7c-b62f-4224f98460cd
-0.185846823843474,-0.0045085925927296,-0.287989448251617,0.5193152116352148,-0.3483091016852961,-0.3130478326806108,-0.770799596270826,-0.7890181345490496,-21.620885431474072,27.765373904281123,18.544259078163844,-1.7131154378958668,-0.1099648824895615,1.9680727725152407,3232.4676920572915,11.925333333333334,0.19,179.0377542983066,-3.943503632407949,97.10678929184948,1553.0,1026.0,1200.0,1528.0,1471.0,999.0,60.0,292.0,1649235648.3941925,1649235649.7214172,4f50ea02-c9c7-4a7c-b62f-4224f98460cd
-0.1786276832080423,-0.0204513871426044,-0.4501356600163598,-0.1201033375464899,-0.5478911846692914,0.3266994703868892,-0.7384588466179172,-0.7714191023973195,-21.95899302606565,24.30836986007311,23.106678331007213,1.1364201460353152,-0.1394153437193063,2.41496928382102,3230.57421875,11.962222222222223,0.2055555555555555,179.04603248758065,-3.785993066845109,97.14386204084448,1553.0,1435.0,1200.0,1528.0,1471.0,999.0,60.0,292.0,1649235651.8595068,1649235653.003225,74718edb-caf6-4173-b5f8-afeeaaee225c
-0.1864157578579414,-0.0171262840679266,-0.4438520989146244,-0.1222526438428213,-0.5434282124176666,0.3254857446522423,-0.7340211597605104,-0.7540855730622493,-22.00754956731053,24.42272990713137,23.15606781119084,1.1395954674754871,-0.1263733426500817,2.394379308045321,3235.721435546875,11.963555555555557,0.2088888888888888,179.0602605305317,-3.760826902825112,97.1646630025068,1553.0,1435.0,1200.0,1528.0,1471.0,999.0,60.0,292.0,1649235653.1354983,1649235654.2271757,74718edb-caf6-4173-b5f8-afeeaaee225c
-0.1823067899095297,-0.0212478947268011,-0.4458623326950726,-0.1221009281414923,-0.5445913666023766,0.3305429351655649,-0.7340085167249778,-0.7525052001274086,-21.972384573300424,24.404755385323632,23.31299170308623,1.150440880594341,-0.1436180126055531,2.398441646087337,3241.0282389322915,11.961666666666666,0.2066666666666666,179.06643198590177,-3.7664291283324687,97.188699197106,1553.0,1435.0,1200.0,1528.0,1471.0,999.0,60.0,292.0,1649235654.335542,1649235655.4582884,74718edb-caf6-4173-b5f8-afeeaaee225c
-0.1543405220881791,0.0038484154640136,-0.3031104510460057,-0.1464007318765001,-0.4170869104715535,0.3185194647118397,-0.582962813805128,-0.5963138018784875,-20.792075036677467,24.12286363729984,23.04686884849525,1.184028053264493,-0.0434501382148268,1.818521904653076,3242.11474609375,11.964555555555554,0.21,179.05097906235957,-3.766077610749559,97.19925032155383,1553.0,1435.0,1200.0,1435.0,1471.0,999.0,60.0,292.0,1649235657.3930352,1649235658.533963,b0f303ce-d270-4e15-a894-244c3b919395
-0.1535693004329168,0.0050621412864176,-0.3027185186640022,-0.1449215034206391,-0.4181109917886898,0.3158138677912964,-0.5830639576056116,-0.6108658733426617,-20.63088099317226,24.17943149685136,23.024536200733426,1.1750835305576817,-0.0399972054689919,1.819744343773393,3236.943359375,11.964,0.2,179.0651570172567,-3.747066111217913,97.2044450598726,1553.0,1435.0,1200.0,1435.0,1471.0,999.0,60.0,292.0,1649235658.646552,1649235659.758187,b0f303ce-d270-4e15-a894-244c3b919395
-0.142443479662329,0.0067310142956682,-0.3004680683834144,-0.1445042852051804,-0.4149376038552336,0.3174068827988228,-0.5809399367779202,-0.5964023027404467,-20.76532056698128,24.125361143120724,23.55595923916501,1.1774927628471483,-0.0374059946883744,1.8102136021501003,3229.0850423177085,11.96622222222222,0.2044444444444444,179.0635572351711,-3.754270205813115,97.20683790281184,1553.0,1435.0,1200.0,1435.0,1471.0,999.0,60.0,292.0,1649235659.8724558,1649235660.9851968,b0f303ce-d270-4e15-a894-244c3b919395
-0.0798344415682669,0.0269198261929466,-0.1540325391470453,-0.153177873925521,-0.2824953152331597,0.2943905971996506,-0.4313648804478892,-0.4568865056262499,-19.7159019603085,24.084320711961688,23.095539499153503,1.1528118938005425,0.0453179263503185,1.2197198052614089,3224.0917154947915,11.965,0.2077777777777777,179.0489269699689,-3.763289328316509,97.193908354713,1553.0,1435.0,1200.0,1330.0,1471.0,999.0,60.0,292.0,1649235661.8979366,1649235663.0011177,9f7962df-0eeb-4e52-9f92-ce89f71bd96e
-0.1165506606833748,0.0271999945692504,-0.1510154188508159,-0.1539233038907768,-0.2798979416673462,0.2929300805634451,-0.4289207395473917,-0.4511723842886054,-19.732877727042784,24.11316641440517,22.850277748651425,1.1515052380622808,0.0489461640395236,1.2082472195814546,3225.97900390625,11.961333333333336,0.2033333333333333,179.052794374859,-3.753159351435604,97.2039874371982,1553.0,1435.0,1200.0,1330.0,1471.0,999.0,60.0,292.0,1649235663.1100056,1649235664.0603898,9f7962df-0eeb-4e52-9f92-ce89f71bd96e
-0.1133767675036184,0.0310748142389012,-0.1512450153256816,-0.1550186915240351,-0.2812067428204396,0.2909456389967012,-0.4300105644222208,-0.4517848102523825,-19.696929218474164,24.11757670079092,22.959115043441475,1.1495701078314873,0.0623804220337666,1.2125305818643783,3225.97900390625,11.964000000000002,0.2,179.0625069038587,-3.764907845990456,97.19707528575816,1553.0,1435.0,1200.0,1330.0,1471.0,999.0,60.0,292.0,1649235664.1691067,1649235665.2845497,9f7962df-0eeb-4e52-9f92-ce89f71bd96e
-0.0443719006387469,0.0462908901763895,-0.0324748587865469,-0.1458444408540328,-0.1728119132570216,0.2623214346771533,-0.3133259781001575,-0.3386498654441281,-18.894224873607417,24.256095554383965,23.11084064690916,1.0718133028850485,0.1188260710425921,0.7395022023928034,3221.66796875,11.965222222222222,0.2055555555555555,179.03523168177313,-3.764422949991254,97.16290081370094,1553.0,1435.0,1200.0,1210.0,1471.0,999.0,60.0,292.0,1649235667.4240167,1649235668.566646,f67e2c73-5e47-4883-9764-244aded3a0c7
-0.0802653142485097,0.0431175028968164,-0.0323737149734367,-0.1447192158792058,-0.1720786205268359,0.2634719455081944,-0.3127696870398527,-0.3276757595122574,-18.90928559230192,24.27508288553897,22.982131969189407,1.0719632299887587,0.108039471881212,0.7369995496668171,3215.2226833767363,11.96622222222222,0.2,179.04690826961425,-3.760670472520371,97.15772428921996,1553.0,1435.0,1200.0,1210.0,1471.0,999.0,60.0,292.0,1649235668.6750877,1649235669.7926369,f67e2c73-5e47-4883-9764-244aded3a0c7
-0.049239447025995,0.0435473641278591,-0.0253568624302458,-0.1425446235469142,-0.1652008403507647,0.2624099355207932,-0.3062964817136097,-0.3270436108043509,-18.92603130944184,24.303173843660804,23.22724046479264,1.065237657331408,0.107775413086065,0.7092441013705515,3212.4137098524307,11.964,0.2055555555555555,179.0403497701912,-3.764221411978869,97.1697537701682,1553.0,1435.0,1200.0,1210.0,1471.0,999.0,60.0,292.0,1649235669.9014118,1649235671.03658,f67e2c73-5e47-4883-9764-244aded3a0c7
-0.0481268649814009,0.0589338673449844,0.0782649792552344,-0.1269937605962967,-0.0730208880923791,0.2256441598114104,-0.2083892543695234,-0.227606581933081,-18.013506554589263,24.619690696208337,22.9469593076146,0.9552136810820612,0.1661694500552853,0.3051557212091126,3217.502197265625,11.9445,0.2,179.0346124112884,-3.78443642404458,97.15507986764632,1553.0,1435.0,1200.0,1071.0,1471.0,999.0,60.0,292.0,1649235672.9547622,1649235674.0894234,abcf1ea6-373f-4b21-8286-306a5f49f73d
-0.0338655862881678,0.0611211023841371,0.0801993547973001,-0.1296487859281592,-0.0713140860403131,0.2266050260578305,-0.2058985875507712,-0.2211586626484942,-18.01915782063736,24.561389322347097,23.0583599817325,0.9630867078430982,0.1738740989755056,0.2970665223452224,3218.039794921875,11.953444444444443,0.2,179.0420649065828,-3.7718370729034336,97.1315009162666,1553.0,1435.0,1200.0,1071.0,1471.0,999.0,60.0,292.0,1649235674.1981175,1649235675.321313,abcf1ea6-373f-4b21-8286-306a5f49f73d
-0.0133081048995638,0.0607291700967024,0.084194535534743,-0.1290924948939797,-0.0667626140740559,0.2257073747154852,-0.2020298361780494,-0.2284410183107691,-18.080144375661984,24.538053875643943,22.97991155204507,0.9598157447599008,0.173715434970043,0.279726841343935,3221.1298828125,11.950444444444448,0.1944444444444444,179.04126349772017,-3.780769015631172,97.12524901644628,1553.0,1435.0,1200.0,1071.0,1471.0,999.0,60.0,292.0,1649235675.4295032,1649235676.5554664,abcf1ea6-373f-4b21-8286-306a5f49f73d
-0.2529936827220131,-0.0361413222443028,-0.5698520425359165,-0.0913152769162547,-0.6598953558517628,0.3182792481623149,-0.8723986097881523,-0.8881264820115197,-22.658041135841334,24.93261386156242,22.51269430368811,1.0502905155552134,-0.1991732035833823,2.918182413285993,3217.6364474826387,11.955555555555556,0.2088888888888888,179.07371752101642,-3.790524660200065,97.17628646665436,1553.0,1435.0,1200.0,1552.7777777777778,1471.0,999.0,60.0,292.0,1649235678.2571042,1649235679.2072957,96d6c6b7-faaa-4c46-b892-9500652ed743
-0.2536511176130006,-0.0349149534169359,-0.5689291049050225,-0.0914290636949651,-0.6585172708158212,0.3182286762604223,-0.8719308193808567,-0.894308900795565,-22.751175183639248,24.90805343270093,22.667484731860288,1.0502944840977528,-0.1952141962355762,2.914691972686095,3217.099853515625,11.958666666666668,0.2066666666666666,179.07889025094786,-3.7711587497414873,97.16870951013507,1553.0,1435.0,1200.0,1613.0,1471.0,999.0,60.0,292.0,1649235679.3388317,1649235680.4402215,96d6c6b7-faaa-4c46-b892-9500652ed743
-0.210412130833158,-0.0308186286915863,-0.5643649887320193,-0.0922382142476857,-0.6556220279542925,0.3149288594501416,-0.8682011391127288,-0.9009085388462132,-22.654632584658017,24.926689760885672,22.69422100966617,1.045108264518373,-0.1803814752692561,2.8998030205228327,3211.474609375,11.956444444444449,0.2,179.07126320637468,-3.782003856914868,97.1574146539776,1553.0,1435.0,1200.0,1613.0,1471.0,999.0,60.0,292.0,1649235680.5484018,1649235681.669383,96d6c6b7-faaa-4c46-b892-9500652ed743
-0.2737534538754018,-0.0389480632533701,-0.6471765161967951,-0.0634248679814336,-0.7315304922553622,0.2977849835129694,-0.963933815785388,-0.98858763636671,-23.219031794423834,25.293144069666123,22.20802054519745,0.9395320376713336,-0.211359070301165,3.2504153893864225,3208.670355902778,11.931222222222225,0.19,179.07053617068303,-3.791154650287261,97.12557307097693,1553.0,1435.0,1200.0,1694.0,1471.0,999.0,60.0,292.0,1649235683.259136,1649235684.338855,d8e78871-2904-4304-bad6-eab8d5bb90d1
-0.2389852623583513,-0.0396181410647551,-0.6401849474199444,-0.0613261336581952,-0.7253986458663435,0.2985056331797598,-0.9566514566959126,-0.9825316464810568,-23.12037754973252,25.357515927632075,22.545317067918987,0.9372954925766314,-0.2173740497934182,3.222620408710602,3213.3477918836807,11.930222222222223,0.19,179.06962092533425,-3.798623509576539,97.0602089195298,1553.0,1435.0,1200.0,1694.0,1471.0,999.0,60.0,292.0,1649235684.4723098,1649235685.5577536,d8e78871-2904-4304-bad6-eab8d5bb90d1
-0.2502627993327727,-0.0387078466810568,-0.6412975298581406,-0.0609215584111515,-0.7269916616901166,0.298442418290287,-0.9582065438710946,-0.9742884204135848,-23.100818683498268,25.391270355329024,22.70520828290431,0.9364445136648112,-0.2156352082649801,3.22885986904595,3212.6787109375,11.925,0.19,179.05533520523022,-3.797126275192229,97.01449749905454,1553.0,1435.0,1200.0,1694.0,1471.0,999.0,60.0,292.0,1649235685.666906,1649235686.7891366,d8e78871-2904-4304-bad6-eab8d5bb90d1
-0.2561291414483234,-0.0425765978201378,-0.6904913720165664,-0.0200215259683261,-0.7702685909569038,0.2657476813049294,-1.0252017215992528,-1.0554184570793614,-23.7163537903292,25.87496522343828,22.42281900609474,0.7711167091925729,-0.2314320555543951,3.449111326391017,3216.161105685764,11.902333333333331,0.1811111111111111,179.0721981833811,-3.833008247110068,96.90665260660958,1553.0,1435.0,1200.0,1774.0,1471.0,999.0,60.0,292.0,1649235688.295666,1649235689.2513516,a9bbdac7-1870-4ef6-bfde-4534bea39a0b
-0.2918708426468764,-0.0420329497828924,-0.6969519359086421,-0.0231949133126445,-0.7778417377116476,0.2669993359548162,-1.0309416370892868,-1.052700215171397,-23.58831170781612,25.88594127173534,22.21340202250015,0.7808698681248666,-0.2284619050699543,3.476232733281672,3217.502197265625,11.906666666666666,0.18,179.0881929685974,-3.830844879554205,96.8512347284138,1553.0,1435.0,1200.0,1774.0,1471.0,999.0,60.0,292.0,1649235689.3624833,1649235690.4750843,a9bbdac7-1870-4ef6-bfde-4534bea39a0b
-0.2949936584573234,-0.0432466756275564,-0.7028688516492637,-0.0249522872020242,-0.7839482985235511,0.2694900023229504,-1.036934412355418,-1.059653857375634,-23.617444602672755,25.942669330462643,22.12203576753537,0.7904831381361681,-0.2321559111415266,3.5008131430165568,3213.4820149739585,11.908,0.18,179.0832934462328,-3.836343086972328,96.7822118723013,1553.0,1435.0,1200.0,1774.0,1471.0,999.0,60.0,292.0,1649235690.583863,1649235691.705948,a9bbdac7-1870-4ef6-bfde-4534bea39a0b
-0.285688426049392,-0.0376964084793692,-0.7187737231441089,0.0180717647731224,-0.7971602155907086,0.2242787183023163,-1.0728657778153543,-1.0991758321263332,-24.06527110578512,26.41884805034744,21.89726504998112,0.59393906157169,-0.212474681749124,3.5918701448050525,3206.6700032552085,11.866666666666667,0.1766666666666666,179.07784750873455,-3.833166764417056,96.63909208843285,1553.0,1435.0,1200.0,1856.0,1471.0,999.0,60.0,292.0,1649235693.025236,1649235694.1687982,1bec9b66-beb5-428e-910c-2220c39269bd
-0.2683801878779068,-0.0397319278609417,-0.7114660793893375,0.0219152299853869,-0.7899663582827867,0.2251637267171109,-1.0644961210324235,-1.1001114128261973,-23.939599329350315,26.436490108979,22.30190842181181,0.5878664634576956,-0.2245945829387815,3.560632880607273,3198.29345703125,11.864666666666666,0.1722222222222222,179.07655736189133,-3.832122694111429,96.55303322271052,1553.0,1435.0,1200.0,1856.0,1471.0,999.0,60.0,292.0,1649235694.2773962,1649235695.3277085,1bec9b66-beb5-428e-910c-2220c39269bd
-0.266660742764766,-0.0397445708453469,-0.7279525282736731,0.0150753791478777,-0.8067435967630493,0.2296140544122181,-1.078858553002358,-1.1042077402481634,-23.829767770740904,26.355697877553663,21.91927248024444,0.6119337671999776,-0.2222324609859419,3.6259147633841,3200.2861328125,11.862666666666668,0.17,179.0760944268476,-3.834876588439281,96.47305701989902,1553.0,1435.0,1200.0,1856.0,1471.0,999.0,60.0,292.0,1649235695.4371846,1649235696.420812,1bec9b66-beb5-428e-910c-2220c39269bd
-0.1830021537096646,-0.011373729341689,-0.4786835097013925,-0.1393712364891879,-0.5392813152279784,0.3477879547867949,-0.7269916619384895,-0.7549073671828797,-22.487763707958045,20.10909163039706,24.833298224913385,1.1980224940544817,-0.1164377951368614,2.4305477439023417,7148.81298828125,11.629555555555555,8.14,179.92361161981947,-3.983468871652725,83.85582463323306,1553.0,1435.0,1350.0,1528.0,1471.0,999.0,60.0,292.0,1649235701.3761337,1649235702.5560086,d01c7d4e-b4cd-498a-85b6-e213663052f1
-0.1850882451587069,-0.0103370051944203,-0.4831338385696858,-0.140483818359999,-0.5421133427833694,0.3496211863585349,-0.7312397039461552,-0.7613173593383784,-22.654490338571293,20.004951025887188,25.061186018061186,1.203692165666678,-0.1135360735515926,2.4468829120567,7153.453830295139,11.62922222222222,8.14,-179.84551675466935,-3.948715588495231,79.02791148968882,1553.0,1435.0,1350.0,1528.0,1471.0,999.0,60.0,292.0,1649235702.6643612,1649235703.7957366,d01c7d4e-b4cd-498a-85b6-e213663052f1
-0.1731406306667534,-0.0083647007246908,-0.479050155983769,-0.1438089218031335,-0.5403938974216512,0.3481040291710825,-0.726435370644915,-0.7499133888985922,-22.420322812377982,20.02803960777699,24.717859109789988,1.2082030724071182,-0.1040845484264106,2.4320136543757864,7154.77978515625,11.628666666666668,8.158888888888889,-179.69557437072996,-3.858662342768898,74.44313942021867,1553.0,1435.0,1350.0,1528.0,1471.0,999.0,60.0,292.0,1649235703.9038017,1649235705.020427,d01c7d4e-b4cd-498a-85b6-e213663052f1
-0.0660419643541912,0.1880313044017005,-0.4716413694580442,-0.3156902156613462,-0.586363775974821,0.3296326408819222,-0.7422770274513346,-0.775743002413518,-22.496226142385105,19.53569150200687,26.920448379872653,1.5518354550623772,0.6351592044215179,2.5325948545025887,7154.77978515625,11.612000000000002,8.14,-179.75887352831802,-3.739083659648545,68.61119453996182,1647.0,1435.0,1350.0,1528.0,1543.0,999.0,60.0,292.0,1649235705.9275296,1649235707.065416,b7bf6341-f7cc-498b-8688-e547455a667a
-0.0858914393742562,0.1929494223339456,-0.4691886313150988,-0.3132248346760289,-0.5844673288126035,0.3260167496442832,-0.7411012301320946,-0.7612541444951219,-22.47194196569328,19.511773829516724,27.428017646830053,1.5382054795246538,0.6487862295412203,2.5263537779109155,7156.108018663194,11.610666666666669,8.15,-179.77614631781907,-3.681120919372656,65.62199108828221,1647.0,1435.0,1350.0,1528.0,1543.0,999.0,60.0,292.0,1649235707.173908,1649235708.4960103,b7bf6341-f7cc-498b-8688-e547455a667a
-0.0530768435791276,0.1883332186949768,-0.4750317110563958,-0.3221123434838477,-0.5893991029299782,0.3304048738589172,-0.7433309465125137,-0.7678138293302537,-22.43095594737825,19.3648068146613,26.2166156409172,1.5666765413389436,0.6426405257192261,2.541954351609284,7160.7568359375,11.614,8.143333333333334,-179.8619987600465,-3.663049661784879,63.30129619616717,1647.0,1435.0,1350.0,1528.0,1543.0,999.0,60.0,292.0,1649235708.6042309,1649235709.9327755,b7bf6341-f7cc-498b-8688-e547455a667a
0.0622589702941652,0.4034170501009288,-0.4439406000930778,-0.4815534661391255,-0.6158345653862963,0.2831317738363815,-0.7433011091946404,-0.7763372227874883,-22.253035122366057,18.89299594462747,28.70682875111797,1.819014636670323,1.4475993114497068,2.563994779922997,7165.413628472223,11.598,8.14,179.8531574596209,-3.561290159583248,59.98672605863533,1745.0,1435.0,1350.0,1528.0,1614.0,999.0,60.0,292.0,1649235710.8491962,1649235712.1848228,bac8f8bf-1293-4bb1-b000-8f4c807bf4a9
0.055709908118968,0.3978288546372848,-0.444155530795416,-0.4804155978734774,-0.614898984834974,0.2832455606690517,-0.7404185091734624,-0.7715834611309311,-22.05582299581652,18.775453597543915,28.10457306346713,1.815916942836414,1.4304264240403148,2.557579784272661,7160.7568359375,11.592,8.15,179.72444026798226,-3.5278444070490536,58.36085265040734,1745.0,1435.0,1350.0,1528.0,1614.0,999.0,60.0,292.0,1649235712.2941656,1649235713.4136553,bac8f8bf-1293-4bb1-b000-8f4c807bf4a9
0.0523721621634508,0.3997253010615018,-0.4336239282894963,-0.4749791164978942,-0.6065546169202536,0.2793894528233523,-0.7316948510867204,-0.7479284404405854,-21.903421823660818,18.93928150724832,28.60326273770435,1.7967550309798654,1.4320417977633488,2.520457925070268,7160.7568359375,11.593875,8.146249999999998,179.6376071244265,-3.516958345421079,57.16007646087886,1745.0,1435.0,1350.0,1528.0,1614.0,999.0,60.0,292.0,1649235713.522431,1649235714.6434147,bac8f8bf-1293-4bb1-b000-8f4c807bf4a9
0.172783874498034,0.5705571932812954,-0.4048485062102597,-0.6165299295424245,-0.6284901897008545,0.2480854431418713,-0.7324155011558536,-0.7629356612105732,-22.11437161492518,19.105482176188936,29.52522363116905,2.0482900628980616,2.0853419549424257,2.5326511088256103,7160.7568359375,11.561333333333332,8.15,179.16055199266452,-3.542546555249048,54.61521371670288,1849.0,1435.0,1350.0,1528.0,1686.0,999.0,60.0,292.0,1649235716.9870892,1649235718.1304092,145e7a01-537a-42ce-ac0e-05c6b00eccc9
0.1400512076462694,0.5728329289559693,-0.4076173187964209,-0.6251903712747459,-0.63294051910184,0.2486290910279119,-0.7325419309831237,-0.7469928598801018,-21.86747169444073,18.98074344481342,28.77528967073296,2.06808750983392,2.099665138491051,2.542032394925965,7160.7568359375,11.559,8.149999999999999,179.05043112940612,-3.578439033325923,53.98584745345187,1849.0,1435.0,1350.0,1528.0,1686.0,999.0,60.0,292.0,1649235718.262634,1649235719.3539422,145e7a01-537a-42ce-ac0e-05c6b00eccc9
0.1362456716133143,0.5700767601967588,-0.4132560878211722,-0.6258351642497144,-0.6381999995361644,0.2568343827877494,-0.7384462038600645,-0.7548441520167356,-22.04465179771218,19.11732041887766,29.427890327855327,2.0886198435609984,2.084522120147286,2.565690012174846,7160.7568359375,11.55788888888889,8.13888888888889,178.99174159059794,-3.573642580413151,53.432458317253314,1849.0,1435.0,1350.0,1528.0,1686.0,999.0,60.0,292.0,1649235719.4625444,1649235720.5095253,145e7a01-537a-42ce-ac0e-05c6b00eccc9
0.2536230668562951,0.7256359360869633,-0.3507491968735278,-0.7723041117866529,-0.6329658052073964,0.2250120109171783,-0.7001379676089561,-0.7164727004782131,-21.38384719286289,19.629842435355897,27.777882963381323,2.354088393244243,2.6999153280887933,2.434277312400963,7164.748372395833,11.495,8.123333333333333,178.81370132623294,-3.58689902895476,52.74924815495527,1962.0,1435.0,1350.0,1528.0,1760.0,999.0,60.0,292.0,1649235721.2873418,1649235722.6256,4099b220-d8d8-42c0-aea1-e5918fb2c2d7
0.2632443719529988,0.7108310112635162,-0.3534800804856306,-0.7644275340877248,-0.6303107792248748,0.2337735936248065,-0.6996196052036454,-0.7287490361730578,-21.579722375676297,19.574941240472693,27.98537861488632,2.355443760940183,2.642791356497791,2.4321014000888024,7166.744140625,11.504333333333337,8.123333333333331,178.71121661446665,-3.5614614123471253,52.301365330320856,1962.0,1435.0,1350.0,1528.0,1760.0,999.0,60.0,292.0,1649235722.733754,1649235724.0647123,4099b220-d8d8-42c0-aea1-e5918fb2c2d7
0.2599824840404817,0.7194408778770514,-0.3582338407847259,-0.7639091713996344,-0.6371379892697976,0.2255177300146819,-0.7069272489613703,-0.7264985853261636,-21.447558887368817,19.5681266026958,28.031776873173424,2.3355144771444376,2.6733716436125663,2.459491735608834,7160.7568359375,11.494111111111112,8.122222222222222,178.64676543163856,-3.579506819566168,51.93053880262775,1962.0,1435.0,1350.0,1528.0,1760.0,999.0,60.0,292.0,1649235724.17328,1649235725.4980936,4099b220-d8d8-42c0-aea1-e5918fb2c2d7
-0.3251724495768616,-0.2594416018834751,-0.4738538909633447,0.083435956674788,-0.4699219240849108,0.3719866112863461,-0.6984438078699035,-0.7142222495225619,-22.611996998722223,21.231943741182345,23.0032520203294,0.7571314158105318,-1.0568513146640062,2.257656900985741,7166.744140625,11.627,8.173333333333334,178.93520583810803,-3.69266564661727,51.45549648966869,1459.0,1435.0,1350.0,1528.0,1394.0,999.0,60.0,292.0,1649235726.4127796,1649235727.5258248,6e349761-83d5-4865-8f57-fa6455e16e92
-0.3270056815648102,-0.2572290806201652,-0.4830579809403688,0.0811602208346635,-0.4786961526225534,0.3686741515460787,-0.7070536789784353,-0.7295202585364675,-22.538292385261496,21.08321843201031,22.475765760936497,0.7533301753739304,-1.0447054011688548,2.2940288987855344,7172.075303819444,11.627666666666666,8.17,178.87175489853843,-3.691027112694505,51.22422742273692,1459.0,1435.0,1350.0,1528.0,1394.0,999.0,60.0,292.0,1649235727.6386197,1649235728.7740347,6e349761-83d5-4865-8f57-fa6455e16e92
-0.3153741406953703,-0.2609334733939462,-0.4679622624225678,0.0780121193896094,-0.4626774966811536,0.377815023325787,-0.6889742144674569,-0.7057135225182668,-22.64573774074936,21.040080220032912,22.9756463927731,0.7814635765309703,-1.0609252288054527,2.2260642474599,7166.744140625,11.625555555555556,8.175555555555555,178.81685383798987,-3.659722363589829,51.05376449434615,1459.0,1435.0,1350.0,1528.0,1394.0,999.0,60.0,292.0,1649235728.8819818,1649235730.0034745,6e349761-83d5-4865-8f57-fa6455e16e92
-0.4645865861961053,-0.4780640030980735,-0.4791765857146253,0.2898578371892059,-0.4166444064014261,0.3832641460695504,-0.6880765626058595,-0.7024010611909343,-22.956037604970728,22.329308655781627,21.18529708872327,0.3233829096063199,-1.8840044886089689,2.1496872197282624,7166.744140625,11.604888888888889,8.164444444444444,178.8119512799856,-3.710151120619979,50.81527971201121,1364.0,1435.0,1350.0,1528.0,1312.0,999.0,60.0,292.0,1649235731.7572567,1649235732.8701527,a46b80b6-d9f5-4109-8758-c61b470afed9
-0.4617292726778291,-0.4833487688510569,-0.4782283621102928,0.2846742169211184,-0.4147858882790688,0.3920383715241288,-0.6819826451898704,-0.6976346568236368,-22.81846106698236,22.183330842074724,21.046166414840894,0.3539193280191741,-1.902870343319328,2.136461861124556,7166.744140625,11.599666666666668,8.16,178.77435943661365,-3.6641440573037656,50.70770802713304,1364.0,1435.0,1350.0,1528.0,1312.0,999.0,60.0,292.0,1649235732.9793918,1649235734.0991943,a46b80b6-d9f5-4109-8758-c61b470afed9
-0.4409821424047493,-0.4812500341201543,-0.4753078338725143,0.2830179869642527,-0.4126745108108123,0.3925946624876642,-0.6787333990694626,-0.7026665641711892,-22.768678245396924,22.17090246341916,21.224302444083715,0.3590219259974278,-1.8965411252669488,2.12550943852926,7166.744140625,11.599,8.17,178.77193547836822,-3.656770820662868,50.653539314645485,1364.0,1435.0,1350.0,1528.0,1312.0,999.0,60.0,292.0,1649235734.208108,1649235735.3426888,a46b80b6-d9f5-4109-8758-c61b470afed9
-0.5669947286719788,-0.7072559661355344,-0.4809592458818551,0.5105409862750727,-0.3603452181539316,0.3892442738025082,-0.6779495340443892,-0.7017183400529349,-23.24793761337425,23.8584066973249,19.01635022336108,-0.1514309281742061,-2.749582277491605,2.0313288292880967,7166.744140625,11.556777777777777,8.145555555555555,178.8625720886543,-3.698065859793549,50.595332063083696,1262.0,1435.0,1350.0,1528.0,1222.0,999.0,60.0,292.0,1649235737.4673178,1649235738.5163052,b66e655e-cb62-470f-bc27-7b9c0a284572
-0.6090199979839059,-0.7150440432034593,-0.4840694191058484,0.5141063055024165,-0.3614072284957678,0.3900281383229855,-0.6788598287666354,-0.6986840244404596,-23.167347912389307,23.7985630493616,18.494824428062287,-0.1583061106617437,-2.7753775761497987,2.0367451559845806,7166.744140625,11.56475,8.15,178.84588403923718,-3.675576015279271,50.62754864244256,1262.0,1435.0,1350.0,1528.0,1222.0,999.0,60.0,292.0,1649235738.6244376,1649235739.623458,b66e655e-cb62-470f-bc27-7b9c0a284572
-0.5835191049473267,-0.7144371800386745,-0.4878243843093826,0.5125765053738705,-0.3638473236015018,0.3921395153473123,-0.6831331566216553,-0.7162577696094667,-23.385611831623425,23.75923240492801,18.649880642291627,-0.1506435617181431,-2.7729812719156937,2.051413607986498,7166.744140625,11.56522222222222,8.152222222222223,178.8500045405815,-3.690120974264617,50.663607772392,1262.0,1435.0,1350.0,1528.0,1222.0,999.0,60.0,292.0,1649235739.7326782,1649235741.0629983,b66e655e-cb62-470f-bc27-7b9c0a284572
-0.6609573662328855,-0.8533077044529075,-0.4771031372540909,0.6530652542400591,-0.3238955091451429,0.3824170666670383,-0.6750669343472155,-0.6975461564621058,-23.595838763089755,25.41839493162029,16.370000208370865,-0.4783360132031579,-3.288725077532176,1.951283903192607,7170.742513020833,11.520666666666664,8.133333333333333,178.85090308991232,-3.6617546294591232,50.67987842135983,1153.0,1435.0,1350.0,1528.0,1121.0,999.0,60.0,292.0,1649235742.7901466,1649235743.930497,687152cd-6821-4a03-a482-082cadfdaa97
-0.6614630854879936,-0.8503745321970549,-0.4779502167573979,0.6446576752485117,-0.3255138102805155,0.3803689045240659,-0.6741313536102356,-0.7047526559561811,-23.4777071239364,25.248459738996694,15.389153839756563,-0.4652386566290866,-3.268888217685966,1.9523608380639328,7166.744140625,11.528555555555556,8.14,178.87459929287277,-3.689267959528273,50.69693909554166,1153.0,1435.0,1350.0,1528.0,1121.0,999.0,60.0,292.0,1649235744.038929,1649235745.1607516,687152cd-6821-4a03-a482-082cadfdaa97
-0.6890753579324612,-0.8442300422454535,-0.4722735186321257,0.643684166101311,-0.3233012889634583,0.3835422915314135,-0.6693902354104911,-0.6874570565854223,-23.33810858991693,25.40841950327754,16.605410055276323,-0.4543044312892638,-3.257127891790631,1.9373413419252248,7168.076931423611,11.523111111111112,8.135555555555555,178.88111225770135,-3.674137999583704,50.76699672531343,1153.0,1435.0,1350.0,1528.0,1121.0,999.0,60.0,292.0,1649235745.2695558,1649235746.3903725,687152cd-6821-4a03-a482-082cadfdaa97
-0.1877179846567805,-0.011538088048707,-0.4718057282930047,-0.1354898420587629,-0.5279405613826927,0.3479523134603919,-0.7171048497602015,-0.7358038204919686,-22.61520572215606,19.72746445856476,25.411333027585712,1.1874769610436642,-0.1213236850542918,2.392546255852835,7168.743326822917,11.621333333333332,8.176666666666668,178.66618745399848,-3.5647190568422022,50.85702165421383,1553.0,1435.0,1350.0,1528.0,1471.0,999.0,60.0,292.0,1649235747.2985504,1649235748.4414616,7cc6cabf-abef-4a6a-a457-f000494d43b6
-0.1991345941057559,-0.0100335737503699,-0.4806052426331995,-0.1441249961606973,-0.5363355006194773,0.3480787432480053,-0.7256515057473887,-0.7543005037789575,-22.74550322359349,19.623352481696305,24.44423434410129,1.205891780180953,-0.1056836924438739,2.4268377247464814,7172.74169921875,11.62022222222222,8.177777777777777,178.69916208949144,-3.56334120847276,50.89265892511828,1553.0,1435.0,1350.0,1528.0,1471.0,999.0,60.0,292.0,1649235748.5500891,1649235749.662906,7cc6cabf-abef-4a6a-a457-f000494d43b6
-0.1782989657924862,-0.0168734245318822,-0.4754721926176696,-0.1364759941866895,-0.5315690968137683,0.3542864445728534,-0.7206069558643873,-0.7476502954270169,-22.702177556243253,19.885315071575462,25.41049440668845,1.2047550492451624,-0.1408197835961389,2.4066914875855527,7172.74169921875,11.619333333333334,8.17,178.68691328357988,-3.553261699100721,50.95928742047176,1553.0,1435.0,1350.0,1528.0,1471.0,999.0,60.0,292.0,1649235749.771081,1649235750.896033,7cc6cabf-abef-4a6a-a457-f000494d43b6
-0.1843296664411407,-0.0089842066082213,-0.4954228154383481,-0.3909791575743633,-0.5768688972312459,0.5914181035922453,-0.6734992044768979,-0.6933234004027811,-22.72968060544427,19.178327041691016,27.016089772123483,2.306280312335039,-0.0952080775412191,2.4297735146422594,7172.74169921875,11.613,8.163333333333334,178.775443159962,-3.5228799504554464,51.08193750685263,1553.0,1537.0,1350.0,1528.0,1471.0,999.0,60.0,292.0,1649235751.7989457,1649235752.9439042,361b60ff-e02e-4a32-bc1b-97b2e66fb953
-0.1760358726841848,-0.0101852894633864,-0.4897840460143691,-0.3841898779136032,-0.5742897289103565,0.5869298471261973,-0.6691373755066992,-0.6947141283903336,-22.378788248409624,19.417086661561896,27.133184512621167,2.28293848453498,-0.1037085945977887,2.412590761440454,7174.07666015625,11.614222222222224,8.162222222222221,178.782314330267,-3.5472272981168183,51.13384770345464,1553.0,1537.0,1350.0,1528.0,1471.0,999.0,60.0,292.0,1649235753.0522995,1649235754.171935,361b60ff-e02e-4a32-bc1b-97b2e66fb953
-0.1756692263252737,-0.0111587987208307,-0.4953469574627941,-0.382596862665699,-0.57714704270122,0.5836679593308238,-0.6748393604064143,-0.6940819793100927,-22.53726704711288,19.26113488079996,26.702026754894177,2.270555812737915,-0.1029682699310673,2.431425038782646,7172.74169921875,11.613222222222223,8.162222222222221,178.81891048383994,-3.536690924980297,51.19118827990175,1553.0,1537.0,1350.0,1528.0,1471.0,999.0,60.0,292.0,1649235754.280487,1649235755.398633,361b60ff-e02e-4a32-bc1b-97b2e66fb953
-0.1788046849236511,-0.0005513406795267,-0.5022500248683509,-0.6371379894421115,-0.6143426935056742,0.8219121981276454,-0.6180344439362886,-0.637239132796324,-22.484539020364817,18.97089082115556,28.9211936942738,3.3782173476633424,-0.0523285487211343,2.4129560010918905,7172.74169921875,11.599333333333332,8.163333333333334,178.85169083839654,-3.488900897699495,51.3190065427546,1553.0,1645.0,1350.0,1528.0,1471.0,999.0,60.0,292.0,1649235756.3119428,1649235757.65434,a5d3ffa2-f8ea-4a89-8511-294896ae8c73
-0.1500545525008345,-0.0005007687653314,-0.4962193236039527,-0.634027816170254,-0.6092349294881803,0.8189031698331325,-0.6114474510672842,-0.6316509352973482,-22.2698831154426,18.97160170832957,28.955021575490488,3.364858316301655,-0.0539585732207079,2.38863098086445,7172.74169921875,11.6,8.16,178.87385556116317,-3.526050059435848,51.3818328994701,1553.0,1645.0,1350.0,1528.0,1471.0,999.0,60.0,292.0,1649235757.7633944,1649235759.0937908,a5d3ffa2-f8ea-4a89-8511-294896ae8c73
-0.1541382345042166,-0.0009432729720126,-0.4905552681646992,-0.6353553290691184,-0.6034318007785185,0.8200916095839054,-0.6056696083575847,-0.6315624344564265,-22.347392940269124,18.97580842087828,28.932982711987734,3.3707908323200018,-0.054351720151894,2.36462756412907,7171.992004394531,11.60225,8.1675,178.92223530887418,-3.539529319183195,51.454983798594114,1553.0,1645.0,1350.0,1528.0,1471.0,999.0,60.0,292.0,1649235759.202864,1649235760.316492,a5d3ffa2-f8ea-4a89-8511-294896ae8c73
-0.1226951479950393,0.0131536467863939,-0.4947400945659398,-0.8495148100936303,-0.639894159125478,1.014072792803278,-0.5584986458831768,-0.5906244605123753,-21.756509805405752,19.052880573130665,30.598416767643823,4.290649231159369,0.0056811015976302,2.35539208692813,7170.076117621527,11.587888888888893,8.158888888888889,179.0006724423927,-3.561168188531508,51.568920887755645,1553.0,1761.0,1350.0,1528.0,1471.0,999.0,60.0,292.0,1649235762.4558709,1649235763.5914266,9996c512-6328-4c57-9370-2ca9b127e940
-0.1506361294748538,0.0104986215469529,-0.491288560903141,-0.853080131568768,-0.6335979543515377,1.015526735031101,-0.5542379612578215,-0.576110318372461,-22.06288370214416,18.904881787192643,30.002040149426616,4.300900400019916,0.0038325190065403,2.3346981318046023,7167.410536024306,11.587555555555555,8.168888888888889,179.0038158472307,-3.54174502780676,51.64375433757707,1553.0,1761.0,1350.0,1528.0,1471.0,999.0,60.0,292.0,1649235763.7006214,1649235764.820022,9996c512-6328-4c57-9370-2ca9b127e940
-0.1539233037976187,0.0078183103392111,-0.4901759787710632,-0.8473022876060039,-0.6334335956249041,1.018573692363286,-0.5552114710004686,-0.572696713740894,-22.10899129650609,19.18081425473287,30.81516635711408,4.296704916040095,-0.013736821335615,2.335071461418192,7172.74169921875,11.59,8.149999999999999,179.01260857742227,-3.5607881881111214,51.661875588355024,1553.0,1761.0,1350.0,1528.0,1471.0,999.0,60.0,292.0,1649235764.9276695,1649235766.0475452,9996c512-6328-4c57-9370-2ca9b127e940
