raw_voltage_G-,raw_voltage_G0,raw_voltage_G1,raw_voltage_G2,raw_voltage_G3,raw_voltage_G4,raw_voltage_G5,raw_voltage_G6,load_x,load_y,load_z,load_l,load_m,load_n,rpm,voltage,current,roll,pitch,yaw,aileron1_pwm,elevator_pwm,throttle_pwm,rudder_pwm,aileron2_pwm,pbaro,pdiff,Tt,sample_start_time,sample_end_time,uid
-0.2154061073338254,-0.0472544995334912,-0.4405017092215638,-0.1561737540609476,-0.5178135335576809,0.4129751400372555,-0.6740554953961901,-0.6981024470886014,-21.102240529320127,21.61368280551208,27.226675590473235,1.3953634369573606,-0.277516545358082,2.273130192654768,2891.409505208333,11.949333333333334,0.23,-179.83327098439744,-9.16996808498751,108.53620928289538,1553.0,1435.0,1200.0,1528.0,1471.0,998.0,60.0,292.7,1649242472.783959,1649242473.7620094,b3088f98-2830-4783-8276-70ffd3d95059
-0.2174036979449569,-0.0468119953131257,-0.4461151923247015,-0.1582472023751493,-0.5233385160796169,0.4162243849198134,-0.6782529654014001,-0.6993414593336154,-21.04541563975358,21.55198769646387,27.44132982234391,1.406716438468442,-0.2782631784687276,2.294686690452248,3128.420328776041,11.949666666666666,0.22,-179.7383268014748,-9.156594859183835,108.15287402264728,1553.0,1435.0,1200.0,1528.0,1471.0,998.0,60.0,292.7,1649242473.872111,1649242474.996911,b3088f98-2830-4783-8276-70ffd3d95059
-0.2191610719465652,-0.0527415518210325,-0.4394776278419835,-0.1502568403537656,-0.5147665752884414,0.4162243848948035,-0.6716153998755485,-0.6944865542192047,-21.114562166812888,21.594732095845263,27.71218087410144,1.389314372150038,-0.3029760379103115,2.264181883050856,3166.7848036024307,11.94511111111111,0.22,-179.69128197629158,-9.14597249206839,107.84709707824452,1553.0,1435.0,1200.0,1528.0,1471.0,998.0,60.0,292.7,1649242475.1060658,1649242476.2202556,b3088f98-2830-4783-8276-70ffd3d95059
-0.1214106214124959,0.1153185105609567,-0.4303129845500121,-0.3006799648628345,-0.5499661506407135,0.3945573581089232,-0.6804144096084255,-0.7039374362004593,-21.108243238351942,20.91504290931729,28.35917886139664,1.6760002972742918,0.3406620937339439,2.332372745120737,3171.078857421875,11.947,0.23,-179.64700717227174,-9.018907921617703,107.21378676020282,1647.0,1435.0,1200.0,1528.0,1543.0,998.0,60.0,292.7,1649242478.1596787,1649242479.1139252,8261b9d6-6275-4e90-aeae-fa8082a0a889
-0.1175241700180904,0.1120596568345544,-0.4265059304276256,-0.3005059973992702,-0.5463234549964542,0.398220786889964,-0.6751048629133045,-0.7019079847478413,-21.0311379860788,20.949840128768155,28.483006546832083,1.6843188754383644,0.3270167151712548,2.314483656846377,3167.1734212239585,11.948666666666668,0.22,-179.68843909977704,-8.942253846927514,106.99336061857842,1647.0,1435.0,1200.0,1528.0,1543.0,998.0,60.0,292.7,1649242479.2219849,1649242480.3193195,8261b9d6-6275-4e90-aeae-fa8082a0a889
-0.0853225053607347,0.1074576132177254,-0.4315884085914304,-0.2951706603992504,-0.5486244776775057,0.3981449290186978,-0.6793402622836104,-0.7032860699870491,-21.09087730709862,20.859476605797607,28.495149705040923,1.6712329598106612,0.309090820610486,2.330078385934521,3168.734130859375,11.946000000000002,0.23,-179.7071947992379,-8.917389966210159,106.76022121817896,1647.0,1435.0,1200.0,1528.0,1543.0,998.0,60.0,292.7,1649242480.4274883,1649242481.7539735,8261b9d6-6275-4e90-aeae-fa8082a0a889
-0.0020811409399889,0.2533449214031871,-0.4134457322491257,-0.4358870215245801,-0.5728610718976294,0.3884856952514133,-0.6753577225193861,-0.7003908268726331,-20.97642542060996,20.47036812052854,29.11109119286776,1.965428740605221,0.8684565347167178,2.350215783050993,3171.6006673177085,11.930333333333332,0.22,-179.78765290984083,-8.785059035318177,106.46726985121762,1745.0,1435.0,1200.0,1528.0,1614.0,998.0,60.0,292.7,1649242482.66313,1649242483.8016016,2c4245e4-8da1-480f-bcfd-6ab295a37be0
-0.0355496308899671,0.2518019725575388,-0.4139428542055342,-0.4367295497347361,-0.574264948509605,0.389245285250182,-0.6757071745167257,-0.6944572227850512,-20.898854062597707,20.5462510336247,28.88941151978481,1.9695181720447927,0.8641587540868282,2.3528194506726403,3173.427001953125,11.93,0.2166666666666666,-179.8275290720352,-8.77937062610442,106.2775954979664,1745.0,1435.0,1200.0,1528.0,1614.0,998.0,60.0,292.7,1649242483.9138966,1649242485.0425522,2c4245e4-8da1-480f-bcfd-6ab295a37be0
-0.0334357250640421,0.2549126504861885,-0.4122572922429228,-0.4364053839543007,-0.5736449367993588,0.3841870833016073,-0.6742704262713114,-0.6962818578867437,-20.74018451966196,20.5025265677977,28.65790901222129,1.9572575206386296,0.8768206668162757,2.347813369992684,3170.78564453125,11.93,0.2175,-179.87933264179514,-8.711850150734023,106.09623120820532,1745.0,1435.0,1200.0,1528.0,1614.0,998.0,60.0,292.7,1649242485.1519892,1649242486.1991189,2c4245e4-8da1-480f-bcfd-6ab295a37be0
0.047063628941413,0.3881407948705672,-0.3612560181988438,-0.5453772544205985,-0.5657182933641871,0.3468538917177733,-0.6466485452995532,-0.6702110174355215,-20.50787289599732,20.709724392923803,27.94251033327739,2.12309465928853,1.3978570186109216,2.24240253166123,3170.297281901041,11.917333333333334,0.2133333333333333,-59.99390458745302,-8.610121953566088,105.80387634443154,1849.0,1435.0,1200.0,1528.0,1686.0,998.0,60.0,292.7,1649242487.1693776,1649242488.3102648,fa187d3a-45a4-4044-af0b-14e2341d60a3
0.0829175948709755,0.3882834076382729,-0.3670080681608496,-0.5473728225105419,-0.5723047807748658,0.3485212474232046,-0.6512854852812835,-0.6735371331276048,-20.359779262860577,20.70225890533909,27.897500649070995,2.131074411335562,1.3976235738031664,2.265859163469612,3159.65185546875,11.914333333333335,0.2155555555555555,179.97354789175134,-8.569623769838575,105.62274655783196,1849.0,1435.0,1200.0,1528.0,1686.0,998.0,60.0,292.7,1649242488.4188929,1649242489.5359347,fa187d3a-45a4-4044-af0b-14e2341d60a3
0.0468092522475701,0.3854134520489455,-0.3654276956684189,-0.5423788451158402,-0.5693589661521844,0.345777721573889,-0.6509441246934133,-0.667734004592804,-20.47129142157413,20.737893984865817,27.76910919982684,2.113882475486282,1.3882726072749014,2.25862944053475,3152.4189453125,11.919,0.21,179.93037806055722,-8.510797342655762,105.43077953774932,1849.0,1435.0,1200.0,1528.0,1686.0,998.0,60.0,292.7,1649242489.644286,1649242490.761839,fa187d3a-45a4-4044-af0b-14e2341d60a3
0.1541481267675524,0.5296192370972641,-0.3215944864978252,-0.647732807619213,-0.5718622764527305,0.2953069600787261,-0.6343691758650797,-0.6663559196758297,-19.963042078492943,20.986060222943607,27.116643192772187,2.242100221052795,1.947071831680781,2.1945488497520547,3142.1465657552085,11.869555555555555,0.2,179.708025046677,-8.36845468253288,105.03089169350268,1962.0,1435.0,1200.0,1528.0,1760.0,998.0,60.0,292.7,1649242492.698006,1649242493.8331044,cd7a9d42-985b-4c7a-8ed7-23dabde5f045
0.1316183420761613,0.5322363331277307,-0.3196221817457341,-0.6447617068409438,-0.570496834519673,0.2904394142084692,-0.6339519574404743,-0.6601608583092763,-19.92300444336823,21.010353054669903,27.18680096216345,2.224750705330568,1.9557419893927304,2.189866270035069,3142.0185546875,11.86588888888889,0.2,179.6691976979752,-8.34510093766827,104.78516880792228,1962.0,1435.0,1200.0,1528.0,1760.0,998.0,60.0,292.7,1649242493.941602,1649242495.0727031,cd7a9d42-985b-4c7a-8ed7-23dabde5f045
0.1756032583264158,0.5342339233335145,-0.3142362727124156,-0.635115111838087,-0.565894789503509,0.2781630841296776,-0.6323589418944396,-0.6615515866185936,-19.839260795725604,21.11973907066708,27.00786709336694,2.176410744337982,1.963382927310615,2.1740760070864087,3138.56689453125,11.86322222222222,0.2,179.61402646549948,-8.320416254552889,104.5630434670144,1962.0,1435.0,1200.0,1528.0,1760.0,998.0,60.0,292.7,1649242495.185281,1649242496.295121,cd7a9d42-985b-4c7a-8ed7-23dabde5f045
-0.2830081144148942,-0.2309063990321072,-0.4275552978468676,0.0288182955879511,-0.4573548016690279,0.4119510589865686,-0.6501096880326418,-0.6772794559846719,-21.128422215455224,22.680719894730338,25.84674170110353,0.9832504633992948,-0.9758448522909005,2.1160397152865658,3130.54296875,11.95977777777778,0.23,179.78488288867743,-8.318246056807856,104.10960390403524,1459.0,1435.0,1200.0,1528.0,1394.0,998.0,60.0,292.7,1649242498.2287362,1649242499.3661747,22ac44ec-5d2e-412f-a15d-34db49cbd3f6
-0.3219105608935829,-0.2310328288266993,-0.4332572817952399,0.0299814494627225,-0.4617545587576948,0.4101557563671534,-0.657240329728159,-0.679441405704163,-21.30125390983981,22.67018105535044,25.677921742325644,0.9761246946106404,-0.9741043968554663,2.139597544634893,3138.1842176649307,11.955444444444446,0.2211111111111111,179.6957367774502,-8.317445786310103,104.09663337480136,1459.0,1435.0,1200.0,1528.0,1394.0,998.0,60.0,292.7,1649242499.4748886,1649242500.5950534,22ac44ec-5d2e-412f-a15d-34db49cbd3f6
-0.2800875863004048,-0.2339154279338666,-0.4238509047605973,0.0251139031879433,-0.4529044727303475,0.4190943404724345,-0.6441927725648112,-0.6679995070944942,-21.20435582026276,22.64610374110399,25.99594073479374,1.007599111883255,-0.9872251063356536,2.0962792476847585,3138.1861979166665,11.957,0.23,179.63952128494142,-8.282573686320172,104.08353838434265,1459.0,1435.0,1200.0,1528.0,1394.0,998.0,60.0,292.7,1649242500.7030842,1649242501.8191707,22ac44ec-5d2e-412f-a15d-34db49cbd3f6
-0.4193752897245157,-0.4052530813351596,-0.4367214582714135,0.1909391889871053,-0.4213096657669448,0.4262249790233043,-0.6465064382485244,-0.6649146196594421,-21.340725648957267,23.67500892050852,24.78194153973508,0.655479096984672,-1.6393357595545186,2.0525763371031767,3144.0674913194443,11.92377777777778,0.22,179.6271222148681,-8.305092155967534,104.0206900192398,1364.0,1435.0,1200.0,1528.0,1312.0,998.0,60.0,292.7,1649242502.733535,1649242503.8715737,fe2ec635-d72b-4391-8664-8576198daea7
-0.3841772342535063,-0.4068966686908902,-0.4420315100081336,0.1924942750039915,-0.4254186343416085,0.4275524914533619,-0.651386629251845,-0.6759898716866276,-21.38100239710436,23.637764476819907,24.906645380272835,0.654442602793302,-1.6468491144816044,2.0723372020121698,3144.7107747395835,11.936333333333332,0.2233333333333333,179.58589974649735,-8.312896026549227,103.9237096810346,1364.0,1435.0,1200.0,1528.0,1312.0,998.0,60.0,292.7,1649242503.9956026,1649242505.0971496,fe2ec635-d72b-4391-8664-8576198daea7
-0.4203614421694163,-0.4117515729087143,-0.4446233207027548,0.1923046304536159,-0.4266829321645923,0.4305235908904979,-0.6531566465251573,-0.6773553136549129,-21.46801059072842,23.64502876719767,24.611707485986923,0.6613751400537669,-1.6619689418110788,2.079043353133057,3146.2476399739585,11.936666666666667,0.22,179.54186324018858,-8.289870320492252,103.83244241661518,1364.0,1435.0,1200.0,1528.0,1312.0,998.0,60.0,292.7,1649242505.205592,1649242506.3304904,fe2ec635-d72b-4391-8664-8576198daea7
-0.5324541050615609,-0.5986148244211938,-0.4444083900675964,0.360380359087486,-0.3801441238763761,0.4501707757230248,-0.640058517548851,-0.6630940301098787,-21.793801888027165,24.8992930139038,23.417073574422155,0.3343582674417911,-2.3705846886818915,1.9731495930622505,3142.146891276041,11.903666666666664,0.2055555555555555,179.5288130254144,-8.301348548256199,103.60066070604071,1262.0,1435.0,1200.0,1528.0,1222.0,998.0,60.0,292.7,1649242508.2638235,1649242509.3325148,1932c168-3df4-4b03-be9a-78c621a7301a
-0.530545014997956,-0.5932794863298826,-0.4495667261217087,0.3568529687739635,-0.3875529100504696,0.4446963670989647,-0.646645511173429,-0.6668616388020089,-21.656797317483992,24.91773950971228,22.87440278238559,0.3298613617417353,-2.3466263350248173,1.999587981405154,3140.6114908854165,11.898,0.2077777777777777,179.51679189247517,-8.314587826461143,103.46658333372343,1262.0,1435.0,1200.0,1528.0,1222.0,998.0,60.0,292.7,1649242509.4406292,1649242510.4883022,1932c168-3df4-4b03-be9a-78c621a7301a
-0.5353493476633158,-0.6009158470044331,-0.4519815351804019,0.3670179216453978,-0.3873000503533789,0.4461629523225092,-0.6491614644204233,-0.6721843341515137,-21.73988173463201,24.981819326276494,23.330275415978235,0.3105627289415815,-2.38012318952747,2.005841101766119,3140.8671875,11.902,0.2088888888888888,179.50385551418717,-8.315187460152027,103.33453832213922,1262.0,1435.0,1200.0,1528.0,1222.0,998.0,60.0,292.7,1649242510.5971766,1649242511.5540602,1932c168-3df4-4b03-be9a-78c621a7301a
-0.6198929619503895,-0.7352348860700031,-0.4671910402109725,0.5147890262118365,-0.3690183018895688,0.4287282882007908,-0.6677087185468598,-0.6883926371265416,-22.02629536066317,26.29233266155578,21.343438635780533,-0.0544813642004545,-2.8834005637510667,2.0095829072172084,3138.8224826388887,11.855,0.1911111111111111,179.52315155750236,-8.353178395271716,103.09840502215354,1153.0,1435.0,1200.0,1528.0,1121.0,998.0,60.0,292.7,1649242513.1489418,1649242514.1124086,d59b412a-d33e-4441-91ea-3687852bee38
-0.5785630563148799,-0.7312902755353442,-0.4641061531307514,0.507152668732097,-0.3683229380575086,0.4353658507273851,-0.6629802434954338,-0.6890500720015289,-21.91989405663245,26.30645237452618,21.865858667850453,-0.0219560788403627,-2.8728531498737007,1.9989141982895684,3140.8671875,11.858222222222222,0.2,179.5118377285972,-8.339280857585509,102.91627878684508,1153.0,1435.0,1200.0,1528.0,1121.0,998.0,60.0,292.7,1649242514.220977,1649242515.3413951,d59b412a-d33e-4441-91ea-3687852bee38
-0.6172126498978664,-0.7311891316654097,-0.4736895320368774,0.508960614313636,-0.3744800690426757,0.4327361117117779,-0.6740175665782835,-0.6920591020235938,-22.25375673559542,26.168075658474365,21.666953622992285,-0.0335380046611033,-2.869180389201329,2.0356492967492974,3137.928765190972,11.862222222222222,0.2,179.50967635317983,-8.31787257826949,102.7146546381859,1153.0,1435.0,1200.0,1528.0,1121.0,998.0,60.0,292.7,1649242515.4497075,1649242516.5666244,d59b412a-d33e-4441-91ea-3687852bee38
-0.2100328414760678,-0.0388595624172042,-0.4290977413265561,-0.148170748891193,-0.5063084212896444,0.3962864115110157,-0.6662800616427431,-0.6890500719653231,-21.085581429917323,21.48834714178916,27.14651359437172,1.3395414004160109,-0.2457023784428419,2.231880377458166,3132.19580078125,11.959,0.2311111111111111,179.24743503454673,-8.24267959487925,102.366950957018,1553.0,1435.0,1200.0,1528.0,1471.0,998.0,60.0,292.7,1649242518.649511,1649242519.6036923,ab6e045e-c558-4f54-a58c-0e3dc226717d
-0.1807901382279893,-0.0444644472306322,-0.4324167763601396,-0.1411205185561123,-0.5081401362657121,0.3960563093622354,-0.6698165563956874,-0.6908281810508277,-21.091068326520407,21.55128550987938,27.228834990574665,1.3233830586471078,-0.2684922577733501,2.243404728885781,3139.3355305989585,11.957333333333333,0.23,179.18584190643136,-8.238641055805001,102.47758332555424,1553.0,1435.0,1200.0,1528.0,1471.0,998.0,60.0,292.7,1649242519.7133553,1649242521.0759635,ab6e045e-c558-4f54-a58c-0e3dc226717d
-0.1860617544547801,-0.0460028447451905,-0.4343192920305768,-0.1436951345891594,-0.5092415927780185,0.4023297541314733,-0.6704775315093402,-0.6928682525447731,-21.19669680041537,21.531130470970968,27.56007897060037,1.3430593184293316,-0.2762543392811736,2.248632251648845,3150.101318359375,11.957666666666666,0.23,179.14387570635097,-8.267281177359727,102.60411713338816,1553.0,1435.0,1200.0,1528.0,1471.0,998.0,60.0,292.7,1649242521.1849053,1649242522.2999544,ab6e045e-c558-4f54-a58c-0e3dc226717d
-0.2109937078405306,-0.0600491928886632,-0.4532584760854961,-0.3395348739853421,-0.5450338710004275,0.6034036447862726,-0.6316762207890438,-0.6558116726655414,-21.18596315972961,21.10743418918416,28.632317192116247,2.233090214873504,-0.3156116405276026,2.266230968071681,3158.743896484375,11.95288888888889,0.2277777777777778,179.0781055381032,-8.198495101138436,102.78224543130244,1553.0,1537.0,1200.0,1528.0,1471.0,998.0,60.0,292.7,1649242524.2388463,1649242525.3768957,ca4f6cd5-404a-406a-a65a-b476f21d0827
-0.1746628452279391,-0.0554699063849281,-0.4530339367523661,-0.342966178543279,-0.5463371094437341,0.6046340592047518,-0.6305676841631402,-0.6561419073261052,-21.048888689409527,21.05750638585005,29.00068397092072,2.2434032254787524,-0.302235681938261,2.2672815419341528,3157.321587456597,11.947777777777777,0.22,179.06287421625407,-8.206754602256014,102.86639108514728,1553.0,1537.0,1200.0,1528.0,1471.0,998.0,60.0,292.7,1649242525.4855173,1649242526.5210483,ca4f6cd5-404a-406a-a65a-b476f21d0827
-0.1876547697422847,-0.0501750273563546,-0.4547124188643804,-0.3446805665641087,-0.5492186976980377,0.6005589752002184,-0.6347484654041806,-0.6610458673145915,-21.11987353617599,21.10203399208964,28.911818367949643,2.238274910977531,-0.2809812132258569,2.279879262396176,3151.6467556423613,11.941777777777778,0.22,179.05289151532713,-8.204740645088245,102.88703191681908,1553.0,1537.0,1200.0,1528.0,1471.0,998.0,60.0,292.7,1649242526.6306503,1649242527.6705885,ca4f6cd5-404a-406a-a65a-b476f21d0827
-0.1720280485601373,-0.0688107764400988,-0.4730320970589919,-0.5231235858873987,-0.5826593823290257,0.7939459352334899,-0.5992849024696031,-0.6241536467382003,-21.185147853823587,20.86887571179928,30.516680710259383,3.073130099258488,-0.3438336306630163,2.2983998932333813,3151.259765625,11.943777777777775,0.2122222222222222,179.03507686415193,-8.180188486615512,102.9096580568096,1553.0,1645.0,1200.0,1528.0,1471.0,998.0,60.0,292.7,1649242528.7439537,1649242529.8779192,bcbdefbb-abeb-4c2d-afb1-83a3c66b3764
-0.1800689827389813,-0.0637409423755036,-0.476079055276468,-0.5323023894675516,-0.5877039317119214,0.7972836808680344,-0.601484781302183,-0.6287177630992299,-21.12950949189081,20.83535565316693,30.47572549151124,3.1009831431597514,-0.3239131022635472,2.3130841226422323,3149.9727376302085,11.949,0.22,179.03347859988617,-8.182329656056572,102.92575908941303,1553.0,1645.0,1200.0,1528.0,1471.0,998.0,60.0,292.7,1649242529.985984,1649242531.1112754,bcbdefbb-abeb-4c2d-afb1-83a3c66b3764
-0.1852020319440918,-0.0615537072273088,-0.4698334231459117,-0.5304691576244213,-0.5814077272510562,0.7928965682396713,-0.596427588843776,-0.6216756224663398,-21.171205617079675,20.81373016232309,30.440722639671385,3.0871304577798546,-0.3149344333725965,2.2890056935396363,3155.255425347222,11.947,0.2144444444444444,179.02815560579302,-8.174758675952827,102.93906505682612,1553.0,1645.0,1200.0,1528.0,1471.0,998.0,60.0,292.7,1649242531.2204468,1649242532.345987,bcbdefbb-abeb-4c2d-afb1-83a3c66b3764
-0.1753152229750904,-0.0610479881269616,-0.4640682240593826,-0.66904887482994,-0.59589658352517,0.9258880334511368,-0.5567033422646837,-0.5767171811060432,-20.94470087011285,21.04157226205431,31.44678718616805,3.700653777672035,-0.3061260726068408,2.244652542724084,3173.035563151041,11.924333333333337,0.1966666666666666,179.01947215862822,-8.164008147926705,102.96150678170906,1553.0,1761.0,1200.0,1528.0,1471.0,998.0,60.0,292.7,1649242534.273909,1649242535.583362,f3f0ab2c-d52b-49f1-afd2-fd3141ddbf18
-0.1925349593646657,-0.0653971724443366,-0.4534354778163884,-0.657316187552274,-0.5840880391315255,0.9174425253488748,-0.5478026837990897,-0.5677785937312412,-20.91012656522163,21.107962125043,31.25059909326088,3.656165201836701,-0.3217134159788721,2.2006994802062847,3168.734130859375,11.924666666666669,0.2088888888888888,179.03980031941796,-8.149189957658624,102.9388578744213,1553.0,1761.0,1200.0,1528.0,1471.0,998.0,60.0,292.7,1649242535.692894,1649242536.8410146,f3f0ab2c-d52b-49f1-afd2-fd3141ddbf18
-0.1747943322212392,-0.0585992962166753,-0.4521003791121599,-0.6567467480555669,-0.585599128259039,0.9079087099494824,-0.5489799981645892,-0.5727396993169568,-20.707458104325084,21.16248199718341,30.9157811473632,3.6339334737135367,-0.2946687490185525,2.2030886569225543,3165.095133463541,11.926888888888888,0.21,179.05108530974667,-8.166269225133194,102.9078920734542,1553.0,1761.0,1200.0,1528.0,1471.0,998.0,60.0,292.7,1649242536.9493954,1649242538.0746555,f3f0ab2c-d52b-49f1-afd2-fd3141ddbf18
-0.1778185326024742,-0.0526277650140125,-0.4026612706389504,-0.6759140143076674,-0.5461338103814266,0.9191746131693348,-0.4979008394750872,-0.5200260552047314,-20.41047402719425,21.57228156520882,31.220311342344345,3.7078625056310863,-0.2715718735596307,2.0102421891868385,3137.41796875,11.88711111111111,0.1977777777777777,179.03239487653786,-8.15332364506256,102.82222176960464,1553.0,1887.0,1200.0,1528.0,1471.0,998.0,60.0,292.7,1649242540.213255,1649242541.3474658,bce59895-485e-402e-a220-7f3372731569
-0.1619136660423524,-0.0513508242984578,-0.4099941989670291,-0.6784805400705627,-0.5542379612628447,0.9202998380868777,-0.5046395479643544,-0.5196846947094671,-20.30994560080289,21.558476880302297,31.16764917366385,3.7157660545788977,-0.2671764499370523,2.0410041079285746,3137.162868923612,11.892888888888889,0.2,179.05322391786677,-8.173971970969676,102.69481217973711,1553.0,1887.0,1200.0,1528.0,1471.0,998.0,60.0,292.7,1649242541.45658,1649242542.575183,bce59895-485e-402e-a220-7f3372731569
-0.1688040891207337,-0.0484429394194747,-0.4048485061098189,-0.6718682598465316,-0.5493451274856691,0.9095027363827304,-0.5014155879571119,-0.5207087762012195,-20.18814405801045,21.52526761352646,30.93548743965541,3.6766482180095625,-0.2555630183914478,2.022916709797133,3128.0042588975693,11.884666666666668,0.2,179.05213867669863,-8.184556487453474,102.62666965911762,1553.0,1887.0,1200.0,1528.0,1471.0,998.0,60.0,292.7,1649242542.685035,1649242543.6306922,bce59895-485e-402e-a220-7f3372731569
-0.1707637507340696,-0.0277210992078134,-0.4016371893343999,0.0326364747536452,-0.4684679812989419,0.2081842091734072,-0.6972300815399886,-0.7231734809156678,-21.06740482566497,22.44532166953348,25.60218517350888,0.5164680641052877,-0.2108718319766901,2.187349710786312,3128.828857421875,11.95575,0.22,179.07488320663478,-8.364008679985961,102.43322636953688,1553.0,1335.0,1200.0,1528.0,1471.0,998.0,60.0,292.7,1649242545.7428818,1649242546.876361,d4b9f343-7ae3-41b7-b6f1-fda434981dce
-0.1707890367028978,-0.0335874407831333,-0.3963271377171236,0.0359995066563386,-0.4617419156907781,0.2121667467967635,-0.6905293008819311,-0.714487751984299,-21.105048969057147,22.46657574241789,25.83749521747615,0.5182550434920868,-0.234770362376721,2.161026392495479,3129.400797526041,11.956666666666669,0.22,179.05452924290816,-8.36008665729849,102.57173520653312,1553.0,1335.0,1200.0,1528.0,1471.0,998.0,60.0,292.7,1649242546.9845395,1649242548.0104487,d4b9f343-7ae3-41b7-b6f1-fda434981dce
-0.1707511077508146,-0.0301359079138868,-0.3982994425362183,0.0336858418385227,-0.4645992292114563,0.2109403780692089,-0.6929061814908531,-0.7168772756158972,-21.07161115328707,22.446772878833777,25.824374116452955,0.5205035471695557,-0.2217858960467653,2.171401151496129,3132.576714409722,11.957555555555556,0.22,179.02214048586396,-8.34266341390822,102.68182115993577,1553.0,1335.0,1200.0,1528.0,1471.0,998.0,60.0,292.7,1649242548.1190288,1649242549.345545,d4b9f343-7ae3-41b7-b6f1-fda434981dce
-0.1774518862256789,-0.0216145410743028,-0.3734686306236529,0.2220914833738018,-0.4263542146709637,0.019626851109801,-0.7258411500856228,-0.7520374098465,-21.077530527087703,23.24725587044511,24.43781425484854,-0.3280815583677948,-0.1991036988705725,2.132750058352891,3128.7652994791665,11.951444444444444,0.2155555555555555,179.00993721454685,-8.389576568222454,102.8616812902596,1553.0,1236.0,1200.0,1528.0,1471.0,998.0,60.0,292.7,1649242551.2728145,1649242552.4064064,fcb24393-10cd-4c41-a7aa-c82bfaf10356
-0.1788678998182753,-0.0180492214262526,-0.3730387693313889,0.2215478353913879,-0.4266829321478292,0.0149868784470789,-0.7265744430592659,-0.7468158579773442,-21.04819315696802,23.227538632722595,24.20270677788695,-0.3374138733614264,-0.1837616223261287,2.133779535700879,3131.940863715278,11.947111111111113,0.21,179.0104775584012,-8.40008585776164,102.92537280426995,1553.0,1236.0,1200.0,1528.0,1471.0,998.0,60.0,292.7,1649242552.51554,1649242553.6446607,fcb24393-10cd-4c41-a7aa-c82bfaf10356
-0.1911568747433304,-0.0180239354808599,-0.3754030064814113,0.2216236932450881,-0.4293632438701413,0.0150753792715893,-0.7287237500970407,-0.7526189872481083,-20.985503086572507,23.233655775367147,24.21094908189553,-0.3374304184170756,-0.1843426569079189,2.143769767766792,3133.340169270833,11.94611111111111,0.2155555555555555,178.9972770794653,-8.404479187217776,102.99581254518031,1553.0,1236.0,1200.0,1528.0,1471.0,998.0,60.0,292.7,1649242553.758173,1649242554.8641388,fcb24393-10cd-4c41-a7aa-c82bfaf10356
-0.1975289358691196,-0.0136621082539816,-0.3401670229419698,0.3992954398377227,-0.3841393053560696,-0.1584874189814656,-0.7495593853180114,-0.7779555244449915,-21.05356868472421,24.37301563369541,23.44581894885256,-1.1190818888261136,-0.1803421708233272,2.064299370519437,3129.399658203125,11.946666666666664,0.21,179.00929517676488,-8.465833068984706,103.05014214656832,1553.0,1133.0,1200.0,1528.0,1471.0,998.0,60.0,292.7,1649242555.7782605,1649242556.9215384,14e77259-670a-4514-b60a-15ed4a878d52
-0.2025229123341011,-0.0106657225946747,-0.3431254801926353,0.4046687047297669,-0.3877551976403626,-0.1699925291042716,-0.7553751573612809,-0.7790554642104865,-20.944417459935167,24.39402497177264,22.89674276089583,-1.15709679655068,-0.1658587579762492,2.081240431789441,3129.653727213541,11.939222222222222,0.21,179.0111484347597,-8.453205282437953,103.09095404467898,1553.0,1133.0,1200.0,1528.0,1471.0,998.0,60.0,292.7,1649242557.0340016,1649242558.144379,14e77259-670a-4514-b60a-15ed4a878d52
-0.2069605977330778,-0.0118035905632549,-0.3494090408399565,0.4052249956800601,-0.3913963756933726,-0.1673122177134609,-0.7597749152289981,-0.7896123546307913,-21.02867867175625,24.20143603569917,23.153578619563,-1.1539196835885763,-0.1722765060123508,2.101278906485448,3134.3594835069443,11.938333333333333,0.21,179.0024133817211,-8.462357451334555,103.1279789823498,1553.0,1133.0,1200.0,1528.0,1471.0,998.0,60.0,292.7,1649242558.2528126,1649242559.3692029,14e77259-670a-4514-b60a-15ed4a878d52
-0.2166071902975446,-0.0197180944518485,-0.3053482583456914,0.487960631118596,-0.3460712942689596,-0.241956362535479,-0.7413793756691089,-0.7637068828172302,-20.933432862103,25.16171869564785,22.49919494906265,-1.499782972502013,-0.2042120712024128,1.9518107990700253,3133.9765625,11.92688888888889,0.2077777777777777,179.0181121920735,-8.481428288134616,103.13939905864204,1553.0,1026.0,1200.0,1528.0,1471.0,998.0,60.0,292.7,1649242561.1274006,1649242562.2415123,b09cd275-7302-4254-9a26-80c0dc278aaa
-0.1741267829661749,-0.0168228526372187,-0.3030093074870789,0.4675927967244456,-0.3460712944888222,-0.22534348860876,-0.7343878067607525,-0.7647056791250898,-20.95470846467719,25.091355214131884,22.634679986745727,-1.4168458787368898,-0.1917485710312158,1.93904487459584,3128.006618923612,11.92888888888889,0.21,179.01293946214204,-8.488295758753846,103.12801541002536,1553.0,1026.0,1200.0,1528.0,1471.0,998.0,60.0,292.7,1649242562.3493452,1649242563.4735253,b09cd275-7302-4254-9a26-80c0dc278aaa
-0.21149942698948,-0.0198824531582773,-0.3041092464617071,0.4689329522146493,-0.3457172909136471,-0.224369979213585,-0.7335660125340172,-0.7578405389035864,-20.90292804957653,24.983230522065654,22.522354851963414,-1.4184447171854666,-0.2028314532351838,1.938455688552324,3125.089545355903,11.934111111111111,0.2011111111111111,179.01417952093135,-8.49195759392262,103.15834752121948,1553.0,1026.0,1200.0,1528.0,1471.0,998.0,60.0,292.7,1649242563.5821683,1649242564.706301,b09cd275-7302-4254-9a26-80c0dc278aaa
-0.1800942687346202,-0.0425892407947687,-0.4195396485389156,-0.1467673782526881,-0.4981410559198814,0.4006861672363037,-0.6547370192408206,-0.6858134686303485,-20.866680595395263,21.58961254627322,27.514806791744853,1.3475787056428743,-0.264069575047701,2.1914845450163933,3131.689778645833,11.961333333333334,0.22,179.04836385881734,-8.318687742374184,103.12576827778844,1553.0,1435.0,1200.0,1528.0,1471.0,998.0,60.0,292.7,1649242565.8133335,1649242566.7905157,6d680d46-d682-4491-ac49-1f333427b4f2
-0.1980599409310746,-0.0417042323670531,-0.4282506616327103,-0.1459961566294892,-0.5056762722482893,0.4009137407921913,-0.6653697668076892,-0.6858513975171152,-21.098475315264825,21.61445117619317,27.69774030966488,1.3459937958634565,-0.2613777688939362,2.228960184769936,3144.0372924804688,11.963,0.2175,179.05447801648938,-8.293383670194384,103.16189827095052,1553.0,1435.0,1200.0,1528.0,1471.0,998.0,60.0,292.7,1649242566.8988993,1649242567.9417207,6d680d46-d682-4491-ac49-1f333427b4f2
-0.2187817826084704,-0.0447006180614657,-0.444673892604906,-0.1472730973984124,-0.5198490534300102,0.4060594320937812,-0.6809585635243353,-0.6992656016303263,-21.257858948521417,21.55186770728223,27.723055984005523,1.3591284819743563,-0.2725973189468179,2.2924219925278138,3169.909505208333,11.964444444444446,0.2188888888888888,179.04600213118434,-8.304846079429938,103.19295912538357,1553.0,1435.0,1200.0,1528.0,1471.0,998.0,60.0,292.7,1649242568.0530343,1649242569.2044952,6d680d46-d682-4491-ac49-1f333427b4f2
-0.1618883800576704,-0.0330690786974669,-0.3085090030961436,-0.1662754936486407,-0.3944559767256356,0.4093845348121459,-0.5344896250894882,-0.5675130910148897,-20.437283637217984,21.3706448104601,28.413953067038804,1.4155671257342517,-0.2299345519636468,1.73034727359407,3208.7702026367188,11.964,0.21625,179.04100205325693,-8.334043359436645,103.22934980409896,1553.0,1435.0,1200.0,1435.0,1471.0,998.0,60.0,292.7,1649242571.343707,1649242572.4896076,9931ce9b-9070-42b0-8e09-f90782039628
-0.171370613690399,-0.0286313935906336,-0.3159304318614925,-0.1671731449914327,-0.4026865565599276,0.4044411311576248,-0.5432385677575879,-0.5622283250601267,-20.377983115519424,21.33862404321929,28.149797540290493,1.4058894544859108,-0.21172954743654,1.764341609185342,3219.651068793403,11.965777777777776,0.21,179.0456257118701,-8.361208326142188,103.25809712167818,1553.0,1435.0,1200.0,1435.0,1471.0,998.0,60.0,292.7,1649242572.6013775,1649242573.7101982,9931ce9b-9070-42b0-8e09-f90782039628
-0.1481075338658712,-0.0312232039829028,-0.3052597574913797,-0.1633043936731848,-0.3912320169333485,0.4054399262723077,-0.5312024500937118,-0.5586630043826735,-20.330475173702244,21.30355259289869,28.524575093028,1.3997894168043237,-0.2249087627701733,1.717354461740539,3218.0391981336807,11.963555555555557,0.21,179.03583880969936,-8.3574606392901,103.28644771910308,1553.0,1435.0,1200.0,1435.0,1471.0,998.0,60.0,292.7,1649242573.8181722,1649242574.8638127,9931ce9b-9070-42b0-8e09-f90782039628
-0.1040467555658507,-0.0055832456727794,-0.1698155274665015,-0.1727613414036045,-0.2722362965318291,0.3819619195249719,-0.3957076317445088,-0.4183006365430045,-19.27819928677572,21.448122479339613,28.55618827463724,1.3766010757663782,-0.1267180205816741,1.181477496367611,3219.3828938802085,11.965,0.21,179.0326604950056,-8.38881604563112,103.33192008295738,1553.0,1435.0,1200.0,1330.0,1471.0,998.0,60.0,292.7,1649242576.6683643,1649242578.0171423,147257eb-ebe4-4c9e-a67f-b763a4b02d7b
-0.1264860185199296,-0.0113165830761613,-0.1729798119903561,-0.169469109903733,-0.2721604385761732,0.3837885767136874,-0.3982696051028604,-0.4174141109321027,-19.482819975672307,21.38044430305496,28.42817221692772,1.372549736311962,-0.1462457543681679,1.188374404410747,3216.027045355903,11.96288888888889,0.2022222222222222,179.01622857768237,-8.393924457947858,103.35849786683772,1553.0,1435.0,1200.0,1330.0,1471.0,998.0,60.0,292.7,1649242578.1304538,1649242579.2399757,147257eb-ebe4-4c9e-a67f-b763a4b02d7b
-0.1351864102500528,-0.0159884160992854,-0.1730142009168163,-0.1707384648512855,-0.271604147535529,0.3865639628673594,-0.3963524237030367,-0.414899675142328,-19.426603911675294,21.358110358768727,28.013279152336303,1.381462147969942,-0.1603349394535466,1.1838208213042785,3214.2853190104165,11.964333333333334,0.21,179.0064082834757,-8.395897623708086,103.37356298741706,1553.0,1435.0,1200.0,1330.0,1471.0,998.0,60.0,292.7,1649242579.3491611,1649242580.4688294,147257eb-ebe4-4c9e-a67f-b763a4b02d7b
-0.068507344960382,0.0091584659553753,-0.045712056319796,-0.1666927121283883,-0.1588793512703786,0.3545393040441263,-0.272362726386642,-0.2925535636019716,-18.424479603304693,21.546784240263307,28.452652525698305,1.3085362580288542,-0.0694304290202079,0.6845451480755093,3210.6730143229165,11.963222222222225,0.2022222222222222,179.0276881172898,-8.401980381482673,103.4101227133144,1553.0,1435.0,1200.0,1223.3333333333333,1471.0,998.0,60.0,292.7,1649242582.1316073,1649242583.0858183,ca9fa325-1d19-46e5-9621-7669f0928fd9
-0.0641960895792716,0.0066551564233032,-0.0467487805360124,-0.1670720012233003,-0.1587149926171469,0.3566886100826336,-0.2731086621254226,-0.2993175575764679,-18.5485428637512,21.53525826977616,28.353854120499665,1.3140153906311232,-0.0770848443874761,0.686268905685304,3213.4816080729165,11.962,0.2166666666666666,179.01464549161471,-8.407514067938983,103.42682707929454,1553.0,1435.0,1200.0,1210.0,1471.0,998.0,60.0,292.7,1649242583.1947489,1649242584.359162,ca9fa325-1d19-46e5-9621-7669f0928fd9
-0.0857397236321821,0.0098285437394018,-0.0463315622031253,-0.1689684481725674,-0.1593850703878697,0.3535910808423351,-0.2732603777720456,-0.2879768051866418,-18.483731715694645,21.52122964158349,28.10827598248536,1.3112540034469793,-0.0632051723687533,0.6869009393344497,3209.337239583333,11.962222222222222,0.2011111111111111,179.01122432575045,-8.404897061985745,103.45397784015525,1553.0,1435.0,1200.0,1210.0,1471.0,998.0,60.0,292.7,1649242584.4672928,1649242585.588336,ca9fa325-1d19-46e5-9621-7669f0928fd9
-0.0455856264896159,0.0161879613437521,0.0543444665823197,-0.149751121057566,-0.0675338357374138,0.3236019411964828,-0.1757956561618155,-0.2074157449781674,-17.616898097744762,21.824403934789373,28.001177219010668,1.2079568636645834,-0.0405181107471139,0.2870634367958383,3193.1304524739585,11.953666666666663,0.2,179.02279618402426,-8.416125228935078,103.46803816401666,1553.0,1435.0,1200.0,1071.0,1471.0,998.0,60.0,292.7,1649242587.7296317,1649242588.8670988,65de4b2d-8694-45d6-803f-7a59c0638a73
-0.0381515556674753,0.0245196833830971,0.0584913631121828,-0.1530635814348399,-0.0657891048000092,0.3185573936196283,-0.1736337068563814,-0.1955819172758766,-17.573389134738687,21.83355083819836,28.034890220031688,1.2043875897946037,-0.0092049496518464,0.2770095358649589,3187.984130859375,11.948333333333332,0.2033333333333333,179.02516398293653,-8.408250590004481,103.46111235219828,1553.0,1435.0,1200.0,1071.0,1471.0,998.0,60.0,292.7,1649242588.976516,1649242589.9832833,65de4b2d-8694-45d6-803f-7a59c0638a73
-0.029225613529312,0.0210175786688813,0.0614751056603497,-0.1475891718154526,-0.0621226413080073,0.3153840065927325,-0.1715096865781893,-0.1985530173981916,-17.5752086321311,21.895903508933863,27.83163389731155,1.1854362362887625,-0.0210094441471172,0.2642350650731623,3184.03662109375,11.949999999999998,0.21,179.03539105285375,-8.39359158108956,103.44514792337822,1553.0,1435.0,1200.0,1071.0,1471.0,998.0,60.0,292.7,1649242590.0959733,1649242591.348767,65de4b2d-8694-45d6-803f-7a59c0638a73
-0.2385427581294349,-0.0603273383971788,-0.5609387409109756,-0.1170816658282256,-0.6277442535253909,0.3975886380799022,-0.8108778522096297,-0.8322065650085383,-21.961149081090674,22.11515730982114,27.343790718043632,1.269519430289847,-0.3339461178570194,2.7799542807795348,3165.223876953125,11.954555555555556,0.21,179.0674899063132,-8.394481308092692,103.44444137825408,1553.0,1435.0,1200.0,1613.0,1471.0,998.0,60.0,292.7,1649242593.6666949,1649242594.8054264,4c2537b0-3ee5-451e-8269-5d80fcb13fde
-0.2447251746570222,-0.05580115239457,-0.5543517478468932,-0.1166391616807334,-0.6231295652915091,0.3908372887927602,-0.8072366730406894,-0.8283630981301175,-21.95703957044912,22.22092858365269,27.11063655928098,1.2543441273776472,-0.3145679228128571,2.759688017551416,3160.4262966579863,11.956333333333331,0.2055555555555555,179.0651919271125,-8.38242602420762,103.40752648251988,1553.0,1435.0,1200.0,1613.0,1471.0,998.0,60.0,292.7,1649242594.9139843,1649242596.0337849,4c2537b0-3ee5-451e-8269-5d80fcb13fde
-0.2211207336411801,-0.0592400423279311,-0.5527840182142598,-0.11473007189901,-0.6205630400344097,0.3929233798852332,-0.8051758667503282,-0.8313341992981607,-22.01321046601047,22.237642660248923,27.192116966099817,1.2548989893360427,-0.3279258265455179,2.75079059279898,3153.320719401041,11.957444444444445,0.21,179.06501586001386,-8.368938297871614,103.39660273330732,1553.0,1435.0,1200.0,1613.0,1471.0,998.0,60.0,292.7,1649242596.1464443,1649242597.2703998,4c2537b0-3ee5-451e-8269-5d80fcb13fde
-0.2702639917341428,-0.0659155345302859,-0.6329531619704034,-0.0841593515011492,-0.6930705403463441,0.3742370610794607,-0.8994293094837036,-0.9207580242063452,-22.714503650563888,22.58783966375472,26.935870916271394,1.1418840304808562,-0.3545685650609211,3.0914893574311364,3158.4849989149307,11.934333333333337,0.2,179.0551090500777,-8.38298913535919,103.34412183645468,1553.0,1435.0,1200.0,1694.0,1471.0,998.0,60.0,292.7,1649242599.1479747,1649242600.1986897,8c391fc8-8992-4bd6-b7e1-b6127a42bc6f
-0.2780899956292277,-0.0650178831264559,-0.6397930150528945,-0.0894946881572837,-0.7021734875493849,0.3785609589176427,-0.9057381585403754,-0.9288242476518556,-22.58231533301052,22.69177171455632,26.924586040443,1.1640487590516515,-0.3518123588288799,3.1222895357608995,3158.7436794704863,11.935222222222222,0.2,179.06472747424888,-8.386220763473993,103.25036838317732,1553.0,1435.0,1200.0,1694.0,1471.0,998.0,60.0,292.7,1649242600.3073552,1649242601.5657294,8c391fc8-8992-4bd6-b7e1-b6127a42bc6f
-0.2479870631740622,-0.0655109592533913,-0.6326876592801824,-0.0845133548724866,-0.6925648209944164,0.3755645735848157,-0.8977225065192065,-0.9234383363685584,-22.637905385183902,22.504147987548684,27.142666913988617,1.1451956133291286,-0.355367135704564,3.0884339491140023,3159.261040581597,11.934,0.2,179.06803176798738,-8.379175802800077,103.17578347635072,1553.0,1435.0,1200.0,1694.0,1471.0,998.0,60.0,292.7,1649242601.6751974,1649242602.7917774,8c391fc8-8992-4bd6-b7e1-b6127a42bc6f
-0.2598714631630582,-0.0632731522040685,-0.684169881087828,-0.0486072983779998,-0.7442114037387995,0.3410998203133471,-0.9682324308771496,-0.9901300805115688,-22.83379564616008,23.229530681475925,26.7780600004308,0.98884189646388,-0.3500282341188112,3.3289821610869463,3153.578369140625,11.898777777777775,0.19,179.07498034710295,-8.398906227173736,102.99192161408314,1553.0,1435.0,1200.0,1774.0,1471.0,998.0,60.0,292.7,1649242604.725762,1649242605.869993,16a127b9-ef2c-446a-9a73-665ce90d306c
-0.2601622516863369,-0.063551297736374,-0.6826653662195058,-0.0502129564126934,-0.7414046616384883,0.3428571940513165,-0.9657796916595812,-0.9884485639572108,-22.94048136399575,23.12627261159622,26.79599088778115,0.995752481028352,-0.3501839567915737,3.319561606347068,3150.8736165364585,11.906,0.19,179.0954193087393,-8.401126987291375,102.89685676448516,1553.0,1435.0,1200.0,1774.0,1471.0,998.0,60.0,292.7,1649242605.983718,1649242607.0932186,16a127b9-ef2c-446a-9a73-665ce90d306c
-0.2506294457109063,-0.0650558120519959,-0.6751175059801893,-0.047608502958608,-0.7341855186053583,0.3412009641864407,-0.9578778262169544,-0.9881957041231112,-22.83986066730826,23.148260068628247,26.750625036885328,0.9867207113554616,-0.3559786893575063,3.288027883072568,3148.173258463541,11.905666666666669,0.1933333333333333,179.08420413812212,-8.371566782337206,102.80568056925466,1553.0,1435.0,1200.0,1774.0,1471.0,998.0,60.0,292.7,1649242607.2013562,1649242608.255257,16a127b9-ef2c-446a-9a73-665ce90d306c
-0.2677859678946663,-0.0596699035613406,-0.6913763807048786,-0.0079348397906667,-0.7494203124465983,0.3000607191482634,-0.993594258504034,-1.0195376646674246,-23.202663858651707,23.72149235917024,26.640882395124493,0.8075693468162712,-0.3381434612715107,3.382149241766681,3148.944091796875,11.87,0.18,179.085176301714,-8.407934480311958,102.61871381682693,1553.0,1435.0,1200.0,1856.0,1471.0,998.0,60.0,292.7,1649242610.255214,1649242611.1991527,9d450ed7-9d1b-4912-b1b1-d31f5bc951e0
-0.2624253448649506,-0.0627295041523132,-0.6863191880019753,-0.0064682542145764,-0.7432758230283821,0.2993147836198784,-0.9873359809345084,-1.017274570035594,-23.182705807022906,23.65426744022782,26.34509998861396,0.8023539416134422,-0.3469996790011429,3.357243280592868,3144.709282769097,11.867666666666668,0.1755555555555555,179.08822484281353,-8.388054574402402,102.48754477700372,1553.0,1435.0,1200.0,1856.0,1471.0,998.0,60.0,292.7,1649242611.3070717,1649242612.414728,9d450ed7-9d1b-4912-b1b1-d31f5bc951e0
-0.2942730086578688,-0.0623122859067886,-0.6870271949425355,-0.0093255671024002,-0.7447676949081712,0.3010468713992942,-0.987057835201525,-1.0116357981866075,-23.095673047083228,23.644138054678766,26.273453744438168,0.8126215582648503,-0.3451091138171089,3.3598337361058865,3140.8671875,11.859,0.18,179.07838026348983,-8.388566838590155,102.39396814973492,1553.0,1435.0,1200.0,1856.0,1471.0,998.0,60.0,292.7,1649242612.5235367,1649242613.6487072,9d450ed7-9d1b-4912-b1b1-d31f5bc951e0
-0.1609907286003496,-0.008630203244232,-0.495132027200048,-0.1978070817869051,-0.5396479617225365,0.4356187102705526,-0.6924889636578014,-0.7165232724968484,-21.88858690531308,17.21398970299759,30.149695971648075,1.508344947174853,-0.1514049734511138,2.413268907439596,7137.573079427083,11.629,8.134444444444446,-179.29773406541452,-8.496636463231557,89.66687824154857,1553.0,1435.0,1350.0,1528.0,1471.0,998.0,60.0,292.7,1649242618.8113658,1649242619.9926922,565abc96-198b-46eb-a345-aca02b95dcf4
-0.2047470650671815,-0.0128155344900941,-0.5051685306758442,-0.2012495119673708,-0.5479675486601087,0.4337404697438394,-0.6983097923777157,-0.7200708932457615,-21.64332525068347,16.932304044890042,28.79093172812461,1.5094293534764387,-0.1570129199427065,2.4444030646367456,7142.85498046875,11.63025,8.0675,-178.87161165429333,-8.494930919935527,84.27048636638192,1553.0,1435.0,1350.0,1528.0,1471.0,998.0,60.0,292.7,1649242620.1011193,1649242621.2237358,565abc96-198b-46eb-a345-aca02b95dcf4
-0.1636968316361631,-0.0151034076905228,-0.4973713515023311,-0.1948460962319464,-0.5416693211159249,0.4423660137554269,-0.6936945979857612,-0.7181774799933668,-21.85527745033981,17.359948256932,30.579376086665576,1.5177691151686334,-0.1802314725096045,2.4206032036374143,7148.154893663194,11.625,8.15111111111111,-178.69631010605804,-8.443221443146165,80.44276696241917,1553.0,1435.0,1350.0,1528.0,1471.0,998.0,60.0,292.7,1649242621.3319347,1649242622.2695456,565abc96-198b-46eb-a345-aca02b95dcf4
-0.0908095577355563,0.1538067664012807,-0.485902651280723,-0.3337191040370054,-0.573847224775579,0.4194230578685131,-0.7004919709641,-0.7187357941119894,-21.72700096423191,16.67887417357938,32.69042766350711,1.7759339386892106,0.451480014123329,2.481042763012697,7154.77978515625,11.609333333333332,8.123333333333333,-178.77797032995488,-8.401339576929294,72.33333344891695,1647.0,1435.0,1350.0,1528.0,1543.0,998.0,60.0,292.7,1649242624.1810646,1649242625.3202665,384c24d8-8034-4e31-bacc-83dc7d9c9b5a
-0.1016445897480498,0.1566514361825938,-0.4887473218584109,-0.3413933924355561,-0.5762241051903246,0.4159083104970573,-0.7022999174294782,-0.7190265828514779,-21.74716703910477,16.467747596714222,31.567824260260767,1.7836168167127693,0.4730025431561321,2.489498020718644,7154.77978515625,11.606555555555556,8.163333333333334,-178.87131169515226,-8.380489475850444,69.66717062422228,1647.0,1435.0,1350.0,1528.0,1543.0,998.0,60.0,292.7,1649242625.4285514,1649242626.545575,384c24d8-8034-4e31-bacc-83dc7d9c9b5a
-0.1058420583976702,0.1523022521696166,-0.4820591852159558,-0.3321008027175386,-0.5696244690722222,0.4115211977731738,-0.6968507921429693,-0.7156003346877262,-21.63752857782019,16.612782589593404,31.59918815408393,1.7541512507778196,0.4549188225551276,2.4632506282898747,7154.77978515625,11.602111111111112,8.124444444444444,-179.00639462309735,-8.34259321474175,67.47064705339825,1647.0,1435.0,1350.0,1528.0,1543.0,998.0,60.0,292.7,1649242626.6538074,1649242627.7753992,384c24d8-8034-4e31-bacc-83dc7d9c9b5a
0.0078688822520703,0.3205423409302837,-0.4586696717910944,-0.4642957982185839,-0.5906118175666201,0.3842376552381145,-0.6960669271930734,-0.7241722765477383,-21.700527943337782,16.198942204837184,33.94678618289059,1.989804761766376,1.0833124218577177,2.4814724584113543,7148.81298828125,11.579,8.173333333333334,-179.43375045254618,-8.397358430416823,64.32908940209236,1745.0,1435.0,1350.0,1528.0,1614.0,998.0,60.0,292.7,1649242628.6884458,1649242629.8332827,f73485a9-370b-4e9d-889f-ba21d362ef8b
0.0346467081615232,0.3247524520337955,-0.4532964054446328,-0.4698587100530511,-0.5889808732230163,0.3796608978299763,-0.6921223168115144,-0.7225286888574763,-21.52711473532362,16.32506631613958,33.18826696622067,1.9931387671547955,1.1056259477775323,2.465770746679875,7148.81298828125,11.59375,8.1875,-179.63288575616272,-8.446471261382818,62.86372069617275,1745.0,1435.0,1350.0,1528.0,1614.0,998.0,60.0,292.7,1649242629.94321,1649242631.0528405,f73485a9-370b-4e9d-889f-ba21d362ef8b
0.0076286656921635,0.320592912839767,-0.4504138057350394,-0.4669887532082517,-0.583569677118856,0.381380342594579,-0.6863950459248933,-0.708077760272797,-21.50028739389817,16.145998460658046,33.2641237508917,1.9895107376085124,1.0889893041858942,2.446037890298364,7148.81298828125,11.581555555555555,8.178888888888888,-179.79394427297632,-8.449555020645272,61.59318427469261,1745.0,1435.0,1350.0,1528.0,1614.0,998.0,60.0,292.7,1649242631.1615703,1649242632.2833543,f73485a9-370b-4e9d-889f-ba21d362ef8b
0.1429843782538397,0.5048642900949181,-0.4065300227139137,-0.61762986860619,-0.5978309600602213,0.3491786821978324,-0.6711096808936325,-0.6976472999226939,-21.16162786728184,16.374483108074696,34.85620294487329,2.2610827870764822,1.7849445167580629,2.407245309505708,7148.81298828125,11.55,8.137777777777778,179.7683265101293,-8.358055340066581,59.85891348760679,1849.0,1435.0,1350.0,1528.0,1686.0,998.0,60.0,292.7,1649242633.210317,1649242634.331107,92580057-91f9-4f24-b581-db1e12d6d4a0
0.1084564083939409,0.5024747676329802,-0.4108539219880249,-0.6204113246837311,-0.6009411337035274,0.3473201646458369,-0.6770013107606597,-0.7013264078217905,-21.413853109340927,16.400503681976794,33.85736297303389,2.262851741015734,1.786689022348813,2.423854491952676,7148.81298828125,11.552444444444443,8.165555555555555,179.65992381890212,-8.392463366647908,58.90932291203862,1849.0,1435.0,1350.0,1528.0,1686.0,998.0,60.0,292.7,1649242634.4394188,1649242635.5641649,92580057-91f9-4f24-b581-db1e12d6d4a0
0.1191397238877788,0.5071905976774004,-0.403862354147891,-0.6210814028462378,-0.5949989324584413,0.343931846980096,-0.6686316566137044,-0.6911108782518702,-21.18644945754052,16.25564676515463,34.00442095336961,2.2562750414664383,1.8019866463069445,2.3953047520434483,7148.81298828125,11.561777777777776,8.130000000000003,179.49393049041322,-8.441822108139958,58.184182977335794,1849.0,1435.0,1350.0,1528.0,1686.0,998.0,60.0,292.7,1649242635.6721678,1649242636.784682,92580057-91f9-4f24-b581-db1e12d6d4a0
0.2337483077578278,0.6527365368683137,-0.3391808708708301,-0.7465629990900602,-0.5822042352909101,0.3056362717281085,-0.6293499123907083,-0.6628285276121818,-20.66103800245043,16.74305954705415,32.79967483523479,2.4597997680326227,2.3743895084323325,2.248760137165477,7154.77978515625,11.472222222222223,8.127777777777778,179.05085460113466,-8.485917714557822,56.77488803749973,1962.0,1435.0,1350.0,1528.0,1760.0,998.0,60.0,292.7,1649242638.6465485,1649242639.862384,b57b64ac-2f35-47c0-87ec-5af57cf271f2
0.2215478354149689,0.6590706678082859,-0.3454644315818164,-0.7534154957206004,-0.5910163931433016,0.3003135787008658,-0.6357472610306123,-0.6547496623613669,-20.43638374325845,16.67432846768831,31.9795675770211,2.4625103690211634,2.404269072023875,2.278171233836032,7154.77978515625,11.486,8.122222222222222,178.9072642931234,-8.512081513083464,56.20098708431372,1962.0,1435.0,1350.0,1528.0,1760.0,998.0,60.0,292.7,1649242639.9700124,1649242641.294572,b57b64ac-2f35-47c0-87ec-5af57cf271f2
0.2100943100767208,0.6589381694205418,-0.3391925025552168,-0.7468022047770517,-0.5849548424158852,0.2953898979802617,-0.6319745955294781,-0.655116308820202,-20.472473406712137,16.795811843120315,32.16417520177953,2.437657125989545,2.401976813025774,2.256221610147505,7150.801920572917,11.481666666666666,8.12,178.8343603717425,-8.522028165789772,55.75566178606852,1962.0,1435.0,1350.0,1528.0,1760.0,998.0,60.0,292.7,1649242641.4036248,1649242642.5233903,b57b64ac-2f35-47c0-87ec-5af57cf271f2
-0.2913651234983574,-0.2107282053002985,-0.4740688217113484,-0.0170630694895796,-0.4677346885681273,0.4500822748893883,-0.6478845233592717,-0.6659892730444793,-21.4587220853288,17.938378668727314,27.95897466716642,1.138850337211602,-0.9139274020670412,2.197146137193698,7148.81298828125,11.59311111111111,8.148888888888889,178.8985626321208,-8.653182976052172,55.2738974286013,1514.888888888889,1435.0,1350.0,1528.0,1434.6666666666667,998.0,60.0,292.7,1649242643.1242187,1649242644.1595843,571c9f14-e8ca-4496-923b-741a3eea1a04
-0.2736775960280839,-0.2187059247357249,-0.4744860401597895,-0.0153056955698023,-0.465421023284154,0.4513845014468881,-0.6483270277936583,-0.6729429130656387,-21.70202491189344,17.96202733900755,27.261054565451545,1.137714679411532,-0.936183433217408,2.1930794839420544,7157.436252170139,11.618444444444444,8.146666666666667,178.82145738549045,-8.683730902251314,54.98246729655015,1459.0,1435.0,1350.0,1528.0,1394.0,998.0,60.0,292.7,1649242644.2685485,1649242645.3912709,571c9f14-e8ca-4496-923b-741a3eea1a04
-0.3094572264572136,-0.2128775116572314,-0.482767192059786,-0.0118794489053345,-0.4730953121162561,0.4509293542555508,-0.6582264823061812,-0.6784805390770076,-21.800246663502893,17.91345461391761,28.38713550895925,1.1283588508058544,-0.9245562270406764,2.231189742721614,7154.77978515625,11.618,8.1775,178.7087475010817,-8.686123709616641,54.7522674388147,1459.0,1435.0,1350.0,1528.0,1394.0,998.0,60.0,292.7,1649242645.5005429,1649242646.5423574,571c9f14-e8ca-4496-923b-741a3eea1a04
-0.4178581321372283,-0.4017509759505386,-0.4858267935348556,0.1661210254510691,-0.4286805233510825,0.4550383215276843,-0.6515636310456293,-0.6703384590258028,-22.0594464367025,19.17241476194183,25.96575934130378,0.7437437843928608,-1.6317396836735565,2.139973201147891,7154.77978515625,11.58711111111111,8.176666666666668,178.61468023855753,-8.735301486669588,54.38099211077488,1364.0,1435.0,1350.0,1528.0,1312.0,998.0,60.0,292.7,1649242648.1504347,1649242649.6950254,cf655897-cdf9-4cd4-ba42-e35885a9a256
-0.4203235132276723,-0.4050507937358318,-0.4867750168378058,0.1627832796661275,-0.4282000899167807,0.4602219416915124,-0.6479856670901321,-0.6711349665828548,-21.92611424730027,18.9594437130664,25.818158624367346,0.7615057693841103,-1.643404293873702,2.135061035795692,7154.77978515625,11.589333333333334,8.16,178.57044641567265,-8.756279464067896,54.22575633022874,1364.0,1435.0,1350.0,1528.0,1312.0,998.0,60.0,292.7,1649242649.8033988,1649242650.9158983,cf655897-cdf9-4cd4-ba42-e35885a9a256
-0.4121435052989115,-0.4020796934261113,-0.4910357017224364,0.1648440847135859,-0.4324734176158781,0.4540521693034659,-0.6543577306350694,-0.6663306340954112,-21.955298146055675,18.95284572595461,25.58412946575377,0.7426849071916718,-1.6305040561194513,2.1557915000963392,7154.77978515625,11.592,8.18,178.53869969641045,-8.749732727748441,54.10471854794695,1364.0,1435.0,1350.0,1528.0,1312.0,998.0,60.0,292.7,1649242651.024236,1649242652.149391,cf655897-cdf9-4cd4-ba42-e35885a9a256
-0.5343505521774323,-0.6094119304629412,-0.4830074087886546,0.3680167166462184,-0.373468630901957,0.4518775774758728,-0.6397045142879931,-0.6663053475653152,-22.303551416263744,20.573659987767453,23.06316380322416,0.2900577995602551,-2.407796356631806,2.015848203247427,7154.77978515625,11.55788888888889,8.137777777777778,178.53980011577673,-8.75595901435934,53.95089851383378,1262.0,1435.0,1350.0,1528.0,1222.0,998.0,60.0,292.7,1649242654.287484,1649242655.421832,ef71323b-cc0f-4a22-8a66-c6c8d436c774
-0.5382193042726381,-0.6103475110812433,-0.4823120449165862,0.3719992541032804,-0.3715216120838089,0.4498673442958875,-0.63889536335314,-0.6624998100006714,-22.31003748184912,20.51085825860095,23.17492503768592,0.2761897631130513,-2.412697301319924,2.011196959616029,7154.77978515625,11.554,8.13,178.51471207204537,-8.803891005224765,53.90166043901706,1262.0,1435.0,1350.0,1528.0,1222.0,998.0,60.0,292.7,1649242655.5301502,1649242656.5752056,ef71323b-cc0f-4a22-8a66-c6c8d436c774
-0.5184962544519549,-0.6118646688391147,-0.4863451556836223,0.3810769110246995,-0.374467426382278,0.4454043737498926,-0.64315604823489,-0.6720199754559801,-22.17075234830132,20.47904890888535,23.48498219779409,0.2453917498948242,-2.4234952911055325,2.027216932922231,7150.801920572917,11.549666666666669,8.15,178.50837820995503,-8.749164399091253,53.92045142778862,1262.0,1435.0,1350.0,1528.0,1222.0,998.0,60.0,292.7,1649242656.6841135,1649242657.8846245,ef71323b-cc0f-4a22-8a66-c6c8d436c774
-0.6450651381870883,-0.7934305354507953,-0.4827545491332194,0.5905836671539427,-0.3277516175712679,0.4116602705346702,-0.6500464731694555,-0.6747761454188582,-22.672180722843123,22.61928012178538,20.788965668482724,-0.2893471953695119,-3.102564812498225,1.9433403585514948,7154.77978515625,11.511,8.146666666666668,178.58676601432956,-8.785325128104592,53.95242582002318,1153.0,1435.0,1350.0,1528.0,1121.0,998.0,60.0,292.7,1649242659.8177786,1649242660.9570775,65acbcd4-7be7-4c78-8d4f-10ac591327af
-0.6242295046144383,-0.7925455266901704,-0.484777425933494,0.5933145499776612,-0.3282826226153459,0.4076777330553474,-0.6529543589589358,-0.6803896294696555,-22.76967038442465,22.53286247715672,20.686213528534072,-0.3051957432874018,-3.098110729398683,1.950914618634816,7154.77978515625,11.506333333333334,8.149999999999999,178.55983989080153,-8.797619563474354,53.97900853681792,1153.0,1435.0,1350.0,1528.0,1121.0,998.0,60.0,292.7,1649242661.0649345,1649242662.385295,65acbcd4-7be7-4c78-8d4f-10ac591327af
-0.6133059686838632,-0.7955419136201597,-0.4854475041679969,0.5832507411069907,-0.3296986365832264,0.418538049542539,-0.6494522533205136,-0.6780380351322168,-22.678957849741685,22.48905340609088,20.50638115380531,-0.2583964598708939,-3.1072013454775367,1.9481473952774824,7154.77978515625,11.508111111111113,8.14,178.5617933249042,-8.7765176940336,53.93551996346254,1153.0,1435.0,1350.0,1528.0,1121.0,998.0,60.0,292.7,1649242662.494363,1649242663.5764935,65acbcd4-7be7-4c78-8d4f-10ac591327af
-0.1732164885749001,-0.0102864332866711,-0.493652798397511,-0.1965680700171045,-0.5340344781749404,0.4349107035910534,-0.6875455575341489,-0.7186472934197012,-21.94522236599781,16.83032588981216,30.01027546418247,1.5014386233016204,-0.1560455911188338,2.396300106854865,7154.77978515625,11.60288888888889,8.183333333333332,178.3718078185907,-8.719190967692297,53.96727161563915,1508.5555555555557,1435.0,1350.0,1528.0,1432.111111111111,998.0,60.0,292.7,1649242664.1243446,1649242665.270734,29bdc57a-c4b9-41ca-8e2b-1c324ed1fef0
-0.1975036498613275,-0.0074164774047108,-0.4906058400076767,-0.194987697664787,-0.5335666877480123,0.4320028190865865,-0.684422740803693,-0.70853290745705,-21.63130303803031,16.888375240539425,30.22478097955697,1.492068032478516,-0.1494049447157886,2.3879227637906606,7160.7568359375,11.609333333333334,8.185555555555554,178.32485406259642,-8.664908228991099,54.10408827326854,1553.0,1435.0,1350.0,1528.0,1471.0,998.0,60.0,292.7,1649242665.37941,1649242666.695956,29bdc57a-c4b9-41ca-8e2b-1c324ed1fef0
-0.159422999284987,-0.0121955228817125,-0.4957894619763996,-0.2014229736189204,-0.5357539234481591,0.4421677718653087,-0.6887087116778415,-0.7148417555803478,-22.094550684331978,16.853715464356718,30.12821812268373,1.5286899911649552,-0.1627315653538421,2.402989395831736,7166.744140625,11.611444444444444,8.135555555555555,178.34771698247818,-8.666755415706632,54.19157768416706,1553.0,1435.0,1350.0,1528.0,1471.0,998.0,60.0,292.7,1649242666.8285558,1649242667.9196198,29bdc57a-c4b9-41ca-8e2b-1c324ed1fef0
-0.1782610368731954,-0.0109438681173701,-0.5155251546377593,-0.4683415517695958,-0.5822927362783743,0.7000086238656869,-0.6347990375750145,-0.6588965604115772,-21.953386948425663,16.186354401435718,32.153391077451424,2.705182889627685,-0.145384343611328,2.417563001427117,7166.744140625,11.612,8.17,178.4074917624545,-8.624841011227465,54.43832547757789,1553.0,1537.0,1350.0,1528.0,1471.0,998.0,60.0,292.7,1649242669.6517537,1649242670.6168091,2c0e2397-e203-4ffa-a7bc-efe22b7853c9
-0.1717499030370217,-0.0090347785199948,-0.5205317746851622,-0.4712241513185908,-0.5886142265820212,0.7007798453984443,-0.6387183615647144,-0.661425156709772,-21.768793844435933,16.15941746663823,32.11659203746812,2.7130775547677506,-0.1391673926962523,2.4388719253940563,7164.083116319444,11.61288888888889,8.13111111111111,178.49918173969257,-8.612377528675745,54.48341952484317,1553.0,1537.0,1350.0,1528.0,1471.0,998.0,60.0,292.7,1649242670.7249625,1649242671.771221,2c0e2397-e203-4ffa-a7bc-efe22b7853c9
-0.1784127525853997,-0.0143321860666328,-0.5145895740059141,-0.4669128949183481,-0.5796756390795157,0.7025372190515842,-0.6325233007993736,-0.6607297927491403,-22.011628034021093,16.122161227613855,32.241304713333186,2.707248019027435,-0.1585772323397192,2.40919510765974,7160.7568359375,11.609333333333334,8.17,178.56105262883415,-8.611780266578323,54.57094384559744,1553.0,1537.0,1350.0,1528.0,1471.0,998.0,60.0,292.7,1649242671.879945,1649242673.0426943,2c0e2397-e203-4ffa-a7bc-efe22b7853c9
-0.1526969349068407,0.0006118132415768,-0.5206202757584263,-0.7314293489543182,-0.6217261948311725,0.947368449942728,-0.5743529440440136,-0.6015479963049469,-21.66458540127021,16.07196552662934,34.699094542909386,3.854034234929687,-0.0945832891785971,2.395086514442903,7160.7568359375,11.5985,8.135,178.6199106456419,-8.553462973079894,54.73523209325105,1553.0,1645.0,1350.0,1528.0,1471.0,998.0,60.0,292.7,1649242675.2849636,1649242676.4166954,60da76c2-de6a-4555-a667-eb792bffa764
-0.1295097131324368,-0.0031052221066594,-0.5171055273071199,-0.7312017753098081,-0.6158472085883081,0.9477098103186457,-0.5671085160815789,-0.6007388458946236,-21.57050911822748,15.81849920608092,34.30387706877104,3.852767074686217,-0.1054969794751414,2.3711382432036787,7160.7568359375,11.602,8.100000000000001,178.63365298625197,-8.54125315616485,54.79690357881438,1553.0,1645.0,1350.0,1528.0,1471.0,998.0,60.0,292.7,1649242676.5253534,1649242677.6451466,60da76c2-de6a-4555-a667-eb792bffa764
-0.1677294359643714,-0.0044580207042294,-0.5248809600889252,-0.7371819063398376,-0.6244823646356567,0.952804929746196,-0.5741127271838427,-0.5971103097439069,-21.56893304493149,15.880403747944085,33.9994565094844,3.877681673817953,-0.1076394690218143,2.4028011268254805,7164.083116319444,11.605,8.124444444444444,178.6554200402269,-8.528522157870638,54.88918702360033,1553.0,1645.0,1350.0,1528.0,1471.0,998.0,60.0,292.7,1649242677.753896,1649242678.805569,60da76c2-de6a-4555-a667-eb792bffa764
-0.1296108569911081,0.0171108986735705,-0.5288508561604172,-0.951897694723982,-0.6584919851936564,1.1433345846618583,-0.531012805678385,-0.5577906390369546,-21.54600695632524,15.880183415181572,36.1310151277855,4.790325649523682,-0.0196126876975368,2.3969194521200907,7160.7568359375,11.581,8.153333333333332,178.702901997517,-8.464775243437,55.06498736537252,1553.0,1761.0,1350.0,1528.0,1471.0,998.0,60.0,292.7,1649242680.8085792,1649242681.9483612,dfa37e0d-c4bc-404b-8ed5-15c7d2108681
-0.1117969009910029,0.0074643069660813,-0.5249568180592975,-0.9487748778158456,-0.6510452689611779,1.1455091766828676,-0.5247924591401918,-0.5555781173119319,-21.6663985255442,15.782037798870848,35.54638724379359,4.787557421137143,-0.0498989163985699,2.370603969284952,7161.422092013889,11.580777777777778,8.16,178.7236247914588,-8.477378175684274,55.08649828725357,1553.0,1761.0,1350.0,1528.0,1471.0,998.0,60.0,292.7,1649242682.056235,1649242683.1741557,dfa37e0d-c4bc-404b-8ed5-15c7d2108681
