raw_voltage_G-,raw_voltage_G0,raw_voltage_G1,raw_voltage_G2,raw_voltage_G3,raw_voltage_G4,raw_voltage_G5,raw_voltage_G6,load_x,load_y,load_z,load_l,load_m,load_n,rpm,voltage,current,roll,pitch,yaw,aileron1_pwm,elevator_pwm,throttle_pwm,rudder_pwm,aileron2_pwm,pbaro,pdiff,Tt,sample_start_time,sample_end_time,uid
-0.0783091927279898,0.0293523350174467,-0.1958848429718082,-0.1438554474569058,-0.3079774922487966,0.3189786576285343,-0.4338762820144596,-0.4564525985185597,-17.753020075581194,21.35566403807385,27.998695599078392,1.1686325346315525,-0.0067553102148048,1.3248365742846706,3027.3910861545137,11.959555555555555,0.22,179.18475818308306,-8.754763636390846,107.51917817837244,1553.0,1435.0,1200.0,1528.0,1471.0,998.0,60.0,292.7,1649240983.2583616,1649240984.2354496,757003b6-4793-49cc-a05e-14c4c49491fd
-0.1046409754908872,0.0228887393223951,-0.1956324890989017,-0.1431388434742761,-0.3061574089643922,0.3240823743021513,-0.4317021951316961,-0.4549526354630889,-17.796273340677008,21.351093956447663,27.92739328289111,1.178433915761972,-0.0301319462018072,1.3180133819368876,3251.17271592882,11.961555555555556,0.2155555555555555,179.22309679380427,-8.746973046732542,106.86467302442622,1553.0,1435.0,1200.0,1528.0,1471.0,998.0,60.0,292.7,1649240984.3438008,1649240985.3876314,757003b6-4793-49cc-a05e-14c4c49491fd
-0.0821111890161602,0.0266057746317126,-0.1967830001676269,-0.1433790601938275,-0.3078642111854804,0.3223123575570459,-0.433725071908865,-0.4617166297299752,-17.79480367783953,21.33643376667285,28.14988801754593,1.174880056663905,-0.0182167800596192,1.325555036210016,3278.906792534722,11.965333333333334,0.2188888888888889,179.2659296689993,-8.701878335421087,106.32537722467006,1553.0,1435.0,1200.0,1528.0,1471.0,998.0,60.0,292.7,1649240985.4971075,1649240986.6960037,757003b6-4793-49cc-a05e-14c4c49491fd
0.0073378772107405,0.1801168010189549,-0.1932556092107658,-0.2471273406494173,-0.3413681060080638,0.2780366543989091,-0.4532458330962913,-0.4824764034439601,-17.674153175505868,20.74122854151217,29.601212597002128,1.3059393772055814,0.5568130725224993,1.4142145324269193,3337.6445583767363,11.953444444444449,0.21,179.22883111706744,-8.607149777776009,105.11839855932904,1647.0,1435.0,1200.0,1528.0,1543.0,998.0,60.0,292.7,1649240988.836825,1649240989.970731,02918351-1cb6-45f0-9f68-9193fde69f71
-0.0034086535669133,0.1875508713104378,-0.188754708864947,-0.2512995236105579,-0.339484302018931,0.276152850914465,-0.4493138662403198,-0.4763824867616948,-17.551330940734644,20.73672549185545,29.854460735574968,1.3114141001465738,0.5823804602818284,1.4012230836991433,3353.453125,11.951,0.21,179.2149567261334,-8.593218089143953,104.79540119020888,1647.0,1435.0,1200.0,1528.0,1543.0,998.0,60.0,292.7,1649240990.079703,1649240991.2068837,02918351-1cb6-45f0-9f68-9193fde69f71
0.0081975996775848,0.1833786890074804,-0.1903477241547606,-0.2494283627793449,-0.3391176556458174,0.2785297304650808,-0.4506666651127791,-0.4769514208499781,-17.710850006493185,20.73009365389161,29.84574893402831,1.312329414137155,0.5676070080953179,1.4042117017351667,3364.8634440104165,11.95188888888889,0.2044444444444444,179.19806339158626,-8.582879649197753,104.4900044596699,1647.0,1435.0,1200.0,1528.0,1543.0,998.0,60.0,292.7,1649240991.3157728,1649240992.4233649,02918351-1cb6-45f0-9f68-9193fde69f71
0.0784799099309077,0.3269144010001987,-0.1713832566823997,-0.3608762230510895,-0.3609647239057565,0.2389066422383963,-0.4528286146893581,-0.4823246874995608,-17.339876504490825,20.45167793660409,29.68319895530908,1.4739495918707004,1.1196873555486817,1.4277307832964004,3371.923095703125,11.940666666666669,0.2066666666666666,179.0713815963203,-8.582973374571363,104.1067929017368,1745.0,1435.0,1200.0,1528.0,1614.0,998.0,60.0,292.7,1649240993.3386233,1649240994.315759,0142a393-1068-4658-9a0f-7f87dbc2e989
0.055545549467694,0.3284062722046059,-0.1725211247510426,-0.3619003043752578,-0.362355451666358,0.238198635550812,-0.4546871327836389,-0.4787467240812131,-17.383342998958078,20.462837150085456,29.644880235314982,1.4746580122646025,1.1259841834416404,1.433904693019356,3371.922119140625,11.936444444444444,0.2,179.0436540639297,-8.582386642348913,103.9191030978944,1745.0,1435.0,1200.0,1528.0,1614.0,998.0,60.0,292.7,1649240994.4236715,1649240995.3670175,0142a393-1068-4658-9a0f-7f87dbc2e989
0.0830566676210508,0.3239938734750717,-0.1724452668765453,-0.3576649062884967,-0.3605222196566488,0.240588158107393,-0.4543963442492084,-0.4814776078106914,-17.491379787814175,20.48451511429382,29.92595884157096,1.470611473745057,1.1071921791971668,1.4307055636952808,3373.2490234375,11.93875,0.2,179.018848334684,-8.571308549833844,103.7686325126592,1745.0,1435.0,1200.0,1528.0,1614.0,998.0,60.0,292.7,1649240995.4754517,1649240996.7300797,0142a393-1068-4658-9a0f-7f87dbc2e989
0.1379398305105405,0.4717017639857984,-0.1497764070234439,-0.4812247481851756,-0.3835324423514476,0.2031270185065409,-0.4560652176812662,-0.4753457623859349,-17.22438011593786,20.538972558959568,29.079495671143928,1.666641254724421,1.68344986754625,1.449282080761494,3374.5771484375,11.912125,0.19,178.84999239802295,-8.562203694226806,103.36569062521616,1849.0,1435.0,1200.0,1528.0,1686.0,998.0,60.0,292.7,1649240998.866459,1649241000.0035756,e6f224ed-5335-49fb-aad1-f130ad04d0b9
0.1733275225254403,0.4664928578557844,-0.1515843528502879,-0.4775962129184041,-0.3841393053203407,0.2057694006093103,-0.4573168726330469,-0.4813638209353344,-17.251777423549253,20.587625446367745,29.19228836340159,1.664630644497792,1.662546995832681,1.453876662856982,3370.3018934461807,11.914111111111112,0.2,178.84054700531073,-8.55218895307221,103.24775317963514,1849.0,1435.0,1200.0,1528.0,1686.0,998.0,60.0,292.7,1649241000.113067,1649241001.2350075,e6f224ed-5335-49fb-aad1-f130ad04d0b9
0.1375984701380318,0.4693122415137958,-0.1525199332482827,-0.4831970531084342,-0.3856564628956845,0.2083485678658659,-0.4572536577647877,-0.4828051207278099,-17.249537761762674,20.51815074500388,29.21592370220128,1.6825582541058963,1.6735251617878324,1.4574838334275766,3368.2416720920137,11.914,0.1977777777777777,178.81379846670112,-8.567233772811498,103.12751528839614,1849.0,1435.0,1200.0,1528.0,1686.0,998.0,60.0,292.7,1649241001.3432338,1649241002.505162,e6f224ed-5335-49fb-aad1-f130ad04d0b9
0.2575803185188495,0.609876848468037,-0.1248950261661947,-0.5812433684931195,-0.4023578389863227,0.1572203700759161,-0.4600351133685267,-0.4889116804553328,-16.98409865622292,20.91241186842691,28.78190259490572,1.7928884033233885,2.216525464035972,1.4620964424045348,3374.282009548612,11.85211111111111,0.1822222222222222,178.69556333870878,-8.564513555110805,102.93802990371192,1962.0,1435.0,1200.0,1528.0,1760.0,998.0,60.0,292.7,1649241004.1558971,1649241005.3295343,a4289bc3-de83-4080-8ece-13e835709f2a
0.2465303570737715,0.6004957603226105,-0.1209124881098613,-0.5718875623918904,-0.3959604912744107,0.1560445732746348,-0.455079065153595,-0.4805040985503594,-16.947588756094454,20.933007680254125,28.566883596379416,1.7694607633508117,2.182088900683556,1.4395587630927378,3369.271240234375,11.850777777777775,0.1888888888888888,178.70166801000693,-8.557284274193039,102.79833432134738,1962.0,1435.0,1200.0,1528.0,1760.0,998.0,60.0,292.7,1649241005.4376917,1649241006.7645595,a4289bc3-de83-4080-8ece-13e835709f2a
0.2585791136588244,0.6081068318349675,-0.1211147757758683,-0.5758321725451502,-0.3986028740541301,0.148774861568475,-0.4565330078922798,-0.4847647830161732,-16.78328780468331,20.888343805586928,28.0707968845416,1.761720295577184,2.214341053125154,1.4458235266327042,3366.62451171875,11.857222222222225,0.18,178.68133529575775,-8.576119374602994,102.67649588911289,1962.0,1435.0,1200.0,1528.0,1760.0,998.0,60.0,292.7,1649241006.87331,1649241007.9924667,a4289bc3-de83-4080-8ece-13e835709f2a
-0.2134464456699669,-0.1955819171455644,-0.228567447998846,0.0052264999392941,-0.2827931837969615,0.4052629246027841,-0.4314240495515287,-0.4569628693453874,-18.421826738424304,22.186134291234485,28.326131915321767,1.02982590245756,-0.868976922689159,1.30533653125135,3368.388997395833,11.961,0.2166666666666666,178.99318959070197,-8.647419339893805,102.56875496732528,1459.0,1435.0,1200.0,1528.0,1394.0,998.0,60.0,292.7,1649241008.7004378,1649241009.8361914,ba379949-b00c-4c70-8406-dab9826de993
-0.2455469682785771,-0.1956324890653347,-0.2299455327267114,0.0040633460595519,-0.284537914931103,0.4065145792539881,-0.4319044828693676,-0.45684908238273,-18.33985422951981,22.16835165157682,28.33737196401323,1.0351188796770143,-0.8697908553370332,1.3103395929062032,3365.302978515625,11.957000000000004,0.21,178.96561188881032,-8.634025176307857,102.6738946711961,1459.0,1435.0,1200.0,1528.0,1394.0,998.0,60.0,292.7,1649241009.944913,1649241011.0690415,ba379949-b00c-4c70-8406-dab9826de993
-0.2491249312502347,-0.1965807124377135,-0.2325626293300617,0.0069459448249821,-0.2864849337561476,0.4045169889955768,-0.435646804918223,-0.4576708760701655,-18.40484695789337,22.19812002363368,28.27420906229785,1.0241518310502609,-0.8728477704641525,1.321650948490212,3373.2490234375,11.961888888888888,0.21,178.93523771232415,-8.61886118060912,102.8140809430239,1459.0,1435.0,1200.0,1528.0,1394.0,998.0,60.0,292.7,1649241011.1764786,1649241012.2945127,ba379949-b00c-4c70-8406-dab9826de993
-0.3581326965060292,-0.3911182300558661,-0.2418931475186048,0.141555721833824,-0.2494157198437445,0.4648113420067877,-0.4180477769691235,-0.4364685988044987,-18.70066263008416,23.16488253459439,27.39178015772613,0.8616492331797866,-1.6097155377997474,1.2346155714342706,3381.82666015625,11.93988888888889,0.2,178.92182929207354,-8.684759130312617,103.0614483863744,1364.0,1435.0,1200.0,1528.0,1312.0,998.0,60.0,292.7,1649241014.2339027,1649241015.3673656,d5062282-9abc-424e-82e1-e2e6eec402ef
-0.3663885620614895,-0.3953030562975067,-0.2471779125526718,0.1489771492166961,-0.2525258925468297,0.4635596873862546,-0.4233957573540178,-0.4417660073735581,-18.7258003990743,23.14426174229609,27.56178611898808,0.8417102786888506,-1.627989132351901,1.2534592096113069,3387.91552734375,11.934555555555557,0.2,178.9117221299217,-8.688818065090636,103.11138693503602,1364.0,1435.0,1200.0,1528.0,1312.0,998.0,60.0,292.7,1649241015.4749165,1649241016.593365,d5062282-9abc-424e-82e1-e2e6eec402ef
-0.3376004980912848,-0.3933181084941159,-0.2471273406407272,0.1434142394317625,-0.2545234831978076,0.4669985768814798,-0.4234463292798553,-0.4401097768167907,-18.69963093642704,23.240397741338164,27.597604930260545,0.8626451821698595,-1.6203573038390813,1.2564038358450678,3386.725640190972,11.935333333333334,0.2011111111111111,178.9065812742064,-8.682957288464074,103.14162570031148,1364.0,1435.0,1200.0,1528.0,1312.0,998.0,60.0,292.7,1649241016.7013748,1649241017.6632173,d5062282-9abc-424e-82e1-e2e6eec402ef
-0.4367846730332685,-0.5868947808202865,-0.2581393751383735,0.2838524235348529,-0.2200207945705532,0.513524728657803,-0.4123078641136608,-0.4340664323929804,-18.99617083972931,24.35732227897279,25.62222782734967,0.6567932664365266,-2.3447510730861203,1.182918439240654,3385.239501953125,11.9,0.19,178.93306115870865,-8.733636533195657,103.2566483626642,1262.0,1435.0,1200.0,1528.0,1222.0,998.0,60.0,292.7,1649241019.6548526,1649241020.6976984,f8287778-fb43-4085-b548-dab5d74b1bc8
-0.4687461266482641,-0.5823685936065286,-0.2525006065701577,0.2758747054170806,-0.2158738975647725,0.5162682544460704,-0.4059737311928996,-0.4256335648417346,-19.017465242351108,24.31532073149273,25.64507521479838,0.6809493753677557,-2.3264879150116853,1.1610777881960883,3382.567626953125,11.897555555555556,0.19,178.95874570562754,-8.727770254472265,103.19613136879808,1262.0,1435.0,1200.0,1528.0,1222.0,998.0,60.0,292.7,1649241020.8115132,1649241022.1322353,f8287778-fb43-4085-b548-dab5d74b1bc8
-0.4628671408778601,-0.5947460721368463,-0.2654470168510187,0.2889222570849581,-0.2241676914977328,0.519011780241987,-0.4184397092820304,-0.4459887625578065,-19.14536145496904,24.35280137875853,25.921242115362173,0.6572658261038116,-2.376879957873452,1.2066719256966725,3381.8263888888887,11.904666666666667,0.19,178.97903592092192,-8.742769160162135,103.17642096067324,1262.0,1435.0,1200.0,1528.0,1222.0,998.0,60.0,292.7,1649241022.2452977,1649241023.5562336,f8287778-fb43-4085-b548-dab5d74b1bc8
-0.528471566175993,-0.6995943189709066,-0.2812380974067068,0.389990209408627,-0.2181369907274925,0.52003586129868,-0.4354445172159033,-0.4493391522419679,-19.31205114164483,25.645226151317257,24.55268649402004,0.4390618208801009,-2.7702381479440663,1.2298163898002512,3382.7223849826387,11.85811111111111,0.18,179.05221001422998,-8.770916369731758,103.07062208933964,1153.0,1435.0,1200.0,1528.0,1121.0,998.0,60.0,292.7,1649241024.8780892,1649241026.0156505,f2831fbd-25c4-4cff-9252-8909ecb78463
-0.5388135243792458,-0.7063583144082884,-0.2859539285406217,0.3917096541487104,-0.2205770855785232,0.5234368218274337,-0.4389592656397523,-0.4592512488561956,-19.414709015716586,25.62886286972391,24.28830278324472,0.4423884764959951,-2.793048366462842,1.243331003863789,3394.0276963975693,11.859666666666666,0.18,179.07183694226498,-8.77564637059573,102.95418254218907,1153.0,1435.0,1200.0,1528.0,1121.0,998.0,60.0,292.7,1649241026.1238616,1649241027.2463255,f2831fbd-25c4-4cff-9252-8909ecb78463
-0.5341735504879008,-0.6988610260271653,-0.2821736778731429,0.3858938851309195,-0.2178967741586053,0.5237655392169747,-0.4356341619307868,-0.4648520888754884,-19.491845177055747,25.55192137410916,24.64649583208785,0.4559425448331828,-2.7666032933837337,1.2311322000651796,3390.595703125,11.85988888888889,0.1844444444444444,179.07114026296964,-8.785391722449,102.88419966504324,1153.0,1435.0,1200.0,1528.0,1121.0,998.0,60.0,292.7,1649241027.354457,1649241028.4708931,f2831fbd-25c4-4cff-9252-8909ecb78463
-0.0891533276299159,0.0223956632044978,-0.2125993661760403,-0.1368173545235469,-0.3201279008962825,0.329986644213438,-0.4491115786183466,-0.4788731538806896,-18.01817454000088,21.31177004516165,29.393985315194204,1.1764584319808005,-0.04526367450905,1.3868818930437674,3397.1669108072915,11.955888888888888,0.2077777777777777,178.8710005420901,-8.720664011823297,102.73587603593715,1553.0,1435.0,1200.0,1528.0,1471.0,998.0,60.0,292.7,1649241030.1761348,1649241031.3362362,4fa61d86-2d81-43e6-abc6-973b08a4914d
-0.1064362783688033,0.0199429256091851,-0.2220563141118233,-0.1379678655143882,-0.3278148322657168,0.3352208363911161,-0.4572536577560944,-0.4845498521099778,-18.12514817154364,21.243489383885898,29.57934093096257,1.1898677969353366,-0.0558076263609276,1.421742991202951,3410.834228515625,11.95677777777778,0.2055555555555555,178.81507798880568,-8.71780415469957,102.96811461027612,1553.0,1435.0,1200.0,1528.0,1471.0,998.0,60.0,292.7,1649241031.4437854,1649241032.7764523,4fa61d86-2d81-43e6-abc6-973b08a4914d
-0.121645780815257,0.0165546076861094,-0.2214241651666973,-0.1380563663197306,-0.3263356036560009,0.3378758614107916,-0.4556985712450754,-0.483791273177925,-18.168752362048338,21.242027292057816,29.48196020646365,1.196017940917463,-0.0672932295874212,1.4160744248022814,3415.2165256076387,11.949444444444444,0.1888888888888888,178.78495989020553,-8.71462640918822,103.20111285343276,1553.0,1435.0,1200.0,1528.0,1471.0,998.0,60.0,292.7,1649241032.8852818,1649241034.0032015,4fa61d86-2d81-43e6-abc6-973b08a4914d
-0.096448325872784,0.0120410647812929,-0.2436505215658912,-0.356691396885732,-0.3690815167868516,0.5559798419998093,-0.4157720405856954,-0.4477714227201238,-18.102568580774903,20.70170465588332,31.31129895042018,2.174950104298868,-0.0754031194369325,1.4481310136043044,3410.3819173177085,11.954,0.2033333333333333,178.77588029206888,-8.650249884122344,103.4980613988783,1553.0,1537.0,1200.0,1528.0,1471.0,998.0,60.0,292.7,1649241034.708186,1649241035.7753725,dd3976f1-65a8-4dd2-9822-9cd91ebe686a
-0.0865615171793905,0.0102710479614103,-0.2469250529999435,-0.3534168652697146,-0.3707630330192483,0.5547534733286874,-0.4194890765986858,-0.4454704003715005,-18.19609831683976,20.67025548111124,31.293037820823294,2.1643862274867898,-0.0818292163815652,1.4599133967783215,3418.391411675347,11.95188888888889,0.2,178.77207511779125,-8.640909885023566,103.60645118863708,1553.0,1537.0,1200.0,1528.0,1471.0,998.0,60.0,292.7,1649241035.88851,1649241037.0720618,dd3976f1-65a8-4dd2-9822-9cd91ebe686a
-0.1211147757354972,0.0109916976707102,-0.2438022372562223,-0.3553891700201093,-0.3688413001252176,0.5559292700992925,-0.4172891980991914,-0.4427648025899599,-18.23745318947236,20.777935133911097,31.32178232213817,2.1723305179784926,-0.0786457750155461,1.4499443599844426,3418.543212890625,11.953666666666669,0.2,178.7587729449277,-8.639298244970659,103.73045175519884,1553.0,1537.0,1200.0,1528.0,1471.0,998.0,60.0,292.7,1649241037.1809552,1649241038.304464,dd3976f1-65a8-4dd2-9822-9cd91ebe686a
-0.0887866812879649,0.0034059112559144,-0.258430163621575,-0.5633914792134507,-0.4048737919790574,0.7631350027583442,-0.3730640553044436,-0.4050128647562183,-18.043534466276206,20.44252588680348,32.60877418269938,3.104502640705519,-0.0951996561493357,1.4553410043109136,3410.157592773437,11.943,0.2,178.78742615767834,-8.57261130169632,103.90376439029332,1553.0,1645.0,1200.0,1528.0,1471.0,998.0,60.0,292.7,1649241040.238103,1649241041.3817656,e70761c7-0717-4bf2-ba11-cbc572c4a295
-0.0872063090478853,0.0082102426534507,-0.2557498521378312,-0.5593962972004721,-0.4029141301246101,0.7534504831714798,-0.3730640553110502,-0.3964662105985143,-18.001103992804317,20.440505840447862,32.43444905134937,3.0738417207712936,-0.0762577748405966,1.4494193006493497,3396.8739420572915,11.940333333333331,0.2,178.7976959162779,-8.57794237106522,103.941629820687,1553.0,1645.0,1200.0,1528.0,1471.0,998.0,60.0,292.7,1649241041.489969,1649241042.603942,e70761c7-0717-4bf2-ba11-cbc572c4a295
-0.0836157033827387,0.0117502763076008,-0.250831733386737,-0.5627972591668644,-0.3990327353318178,0.7534251972234536,-0.3668689953396928,-0.3879701285350127,-17.878052639224016,20.348871906490952,32.5219234120698,3.081169958721691,-0.0638977469338914,1.4292538783926063,3379.900146484375,11.942222222222222,0.2,178.7922818529958,-8.594455871203541,103.98319683415588,1553.0,1645.0,1200.0,1528.0,1471.0,998.0,60.0,292.7,1649241042.715814,1649241043.764464,e70761c7-0717-4bf2-ba11-cbc572c4a295
-0.0707704379733637,0.0125973557915342,-0.2452561798554811,-0.6773679569200266,-0.4102976303404074,0.8631030140796064,-0.3348190427767386,-0.3649472626039856,-17.827129832285305,20.61697447364164,33.37448040657805,3.588290527181,-0.0541731817241127,1.3915906398300757,3375.463216145833,11.939666666666668,0.2,178.815832345254,-8.595457252826854,104.03067955035591,1553.0,1683.6666666666667,1200.0,1528.0,1471.0,998.0,60.0,292.7,1649241045.76797,1649241046.9120142,f475e5ca-9c75-48ec-a3fc-6f7b5fe06237
-0.0846600133338453,0.0129953567153316,-0.2462443550316107,-0.6842538304072515,-0.4120888876730455,0.8700404678874623,-0.333459669574303,-0.3583501558450577,-17.774829473210847,20.578357346673005,33.516267243670946,3.6191564819134254,-0.0535227600686226,1.3936821149059542,3374.2821451822915,11.93311111111111,0.2,178.8293728158286,-8.566397548956864,104.01992503805278,1553.0,1761.0,1200.0,1528.0,1471.0,998.0,60.0,292.7,1649241047.024749,1649241048.1346886,f475e5ca-9c75-48ec-a3fc-6f7b5fe06237
-0.0855374359976996,0.0092848957147161,-0.242765513122654,-0.6873306267998729,-0.4085023272956076,0.8774148630452655,-0.3286619118537247,-0.3482711727772932,-17.860417814091115,20.64518714097889,33.67642052399269,3.643266923571015,-0.0676524131008846,1.3768867169376986,3382.273193359375,11.932333333333332,0.19,178.8222056706595,-8.575751682752676,104.01060486547534,1553.0,1761.0,1200.0,1528.0,1471.0,998.0,60.0,292.7,1649241048.2431667,1649241049.3636425,f475e5ca-9c75-48ec-a3fc-6f7b5fe06237
-0.0668890438130347,0.0070976606457175,-0.2180484899109724,-0.6791885461246893,-0.3888677797506164,0.8702210095830789,-0.3090273652406701,-0.3297744939752131,-17.6905556143711,21.19699935629531,33.578204417620086,3.613693455793988,-0.0756138090154191,1.2880568436221085,3395.968994140625,11.923777777777778,0.1877777777777777,178.88004067691156,-8.55839949230252,103.8978156749812,1553.0,1887.0,1200.0,1528.0,1471.0,998.0,60.0,292.7,1649241051.135538,1649241052.2298825,79fa623b-d273-4909-a7b2-5ec00810b000
-0.0623122858876055,0.006832158119867,-0.2151911767597195,-0.674194568467745,-0.3849610990608208,0.8658212539270396,-0.3075481366504961,-0.3306342165360642,-17.766494558938152,21.18960609530727,33.58668359840902,3.592597817505587,-0.0765811310030725,1.2767084139825289,3399.111735026041,11.889666666666663,0.18,178.89340508038754,-8.601089882162391,103.78967404876228,1553.0,1887.0,1200.0,1528.0,1471.0,998.0,60.0,292.7,1649241052.3386548,1649241053.4603517,79fa623b-d273-4909-a7b2-5ec00810b000
-0.0938438724188828,0.0109284827848594,-0.2201725103337637,-0.6733727743580412,-0.3914975195434043,0.8601951295493893,-0.3155637854842599,-0.3421519707120821,-17.759705200138786,21.29663610033032,33.413779226903586,3.578538731958812,-0.0601481845671777,1.3040337527552024,3396.268256293403,11.893333333333333,0.18,178.91298950946768,-8.581984135506575,103.681584787327,1553.0,1887.0,1200.0,1528.0,1471.0,998.0,60.0,292.7,1649241053.5687554,1649241054.6941955,79fa623b-d273-4909-a7b2-5ec00810b000
-0.1065879941066099,0.0285275071853646,-0.1953290576371481,0.0603119518255128,-0.2870538677291635,0.1337929341014032,-0.4918448516750741,-0.5077117920768892,-18.17216031670269,22.124891897394825,28.056577155510915,0.2968690769282802,-0.0324844446755382,1.3792783075206587,3394.7740071614585,11.925999999999998,0.1911111111111111,178.93304294487086,-8.805051663064974,103.50876658203744,1553.0,1335.0,1200.0,1528.0,1471.0,998.0,60.0,292.7,1649241056.8274963,1649241057.88958,710b4aef-ceef-406c-a98c-d348797417b6
-0.08897632594633,0.0349248536696249,-0.1965933554381991,0.056632845464545,-0.2902146124204344,0.130429902222708,-0.4955113159555929,-0.5203674155819313,-18.218661327516813,22.181171277068625,27.96860914321048,0.2978837570052121,-0.0070079433456561,1.391089129372675,3397.315185546875,11.961888888888888,0.1911111111111111,178.90415124468169,-8.802119709500008,103.65017730079356,1553.0,1335.0,1200.0,1528.0,1471.0,998.0,60.0,292.7,1649241057.9984305,1649241059.1929092,710b4aef-ceef-406c-a98c-d348797417b6
-0.0992424239467874,0.0362270803268552,-0.1937866142901254,0.0602866658941252,-0.2859665715555045,0.1287736722934383,-0.4922367840912282,-0.5186732563720814,-18.237780982644203,22.05040202036965,28.417671200639976,0.2852546940224078,-0.00624265194009,1.3776782796732208,3407.07017686632,11.957444444444446,0.1955555555555555,178.88434369608865,-8.807606438405774,103.80899437719454,1553.0,1335.0,1200.0,1528.0,1471.0,998.0,60.0,292.7,1649241059.3012571,1649241060.431074,710b4aef-ceef-406c-a98c-d348797417b6
-0.1336186809665952,0.0388188906586648,-0.1779070334679701,0.2534081362735769,-0.2555602074299158,-0.0659155345432777,-0.5372331517830939,-0.5584607165623212,-18.43378464794965,23.045826953649875,26.26086112738725,-0.5809256532074739,0.0012274075708021,1.3771026509877846,3414.1552734375,11.95588888888889,0.1955555555555555,178.86648047467938,-8.857850163714033,103.97572308938408,1553.0,1236.0,1200.0,1528.0,1471.0,998.0,60.0,292.7,1649241061.3325214,1649241062.4666622,a2ec25bf-eb90-4099-a60e-7c67fcd5ac19
-0.1302177198865026,0.0422451374813057,-0.1692086644354259,0.2501841772691691,-0.2489352865829422,-0.067710837369745,-0.5266130480302164,-0.5483969038110967,-18.13914927008056,22.96012970827572,26.13476723683315,-0.5776942415703126,0.0140570416961986,1.34155135120307,3409.4817979600693,11.949888888888887,0.1911111111111111,178.8485610939369,-8.858473513339536,104.04791287654176,1553.0,1236.0,1200.0,1528.0,1471.0,998.0,60.0,292.7,1649241062.57448,1649241063.6948118,a2ec25bf-eb90-4099-a60e-7c67fcd5ac19
-0.1309636555814492,0.0414233439577544,-0.1759853007994158,0.2463659983562357,-0.2557119231956687,-0.0637030134927028,-0.5328333945531389,-0.5574745640942431,-18.188434726716256,22.973559093019443,26.04034430542592,-0.5603635168559926,0.0122012394334605,1.3685690559839827,3391.2677001953125,11.949000000000002,0.195,178.83327209493476,-8.863365304309474,104.13637331266727,1553.0,1236.0,1200.0,1528.0,1471.0,998.0,60.0,292.7,1649241063.8034527,1649241064.9284525,a2ec25bf-eb90-4099-a60e-7c67fcd5ac19
-0.0933128673267275,0.0477448325601876,-0.1433790600688058,0.3981322860579832,-0.2149256741860418,-0.2179726319989702,-0.5491301967227561,-0.5723047807298633,-18.219189926427603,23.901490394517907,24.90962128003651,-1.241796293521907,0.0295470330009669,1.2918724574949505,3362.662109375,11.948888888888888,0.1922222222222222,178.82544621596574,-8.903805099405957,104.2875735897788,1553.0,1133.0,1200.0,1528.0,1471.0,998.0,60.0,292.7,1649241066.6344264,1649241067.8007147,9b556d52-803b-4ec1-a8eb-00521c023f76
-0.1373483595057037,0.0482126227182411,-0.1506993444220624,0.3954140461730393,-0.2234723276934455,-0.2165819044172635,-0.5567033422752876,-0.5778550493836757,-18.15774004573294,23.975547334201785,24.75818260881578,-1.2324062365279684,0.0320806629550724,1.3241059645628626,3361.343505859375,11.946666666666667,0.1977777777777777,178.81237626953393,-8.901101482859495,104.32531493840256,1553.0,1133.0,1200.0,1528.0,1471.0,998.0,60.0,292.7,1649241067.9089022,1649241069.0252163,9b556d52-803b-4ec1-a8eb-00521c023f76
-0.133960041375754,0.0443059427599672,-0.1496879061640417,0.400458593618198,-0.2206150145315182,-0.2156589670717617,-0.5568929870493236,-0.5759333162962966,-18.36891503695704,24.04520478827054,25.008881596235863,-1.2412657428873146,0.0161451531176475,1.318854355552653,3360.026123046875,11.938,0.19,178.817453376817,-8.91866977290589,104.34569470506608,1553.0,1133.0,1200.0,1528.0,1471.0,998.0,60.0,292.7,1649241069.1335332,1649241070.252855,9b556d52-803b-4ec1-a8eb-00521c023f76
-0.1018848063475736,0.0492493468402076,-0.1288143494512205,0.4123303482512306,-0.2036354945322039,-0.2321706969990017,-0.5406720427323555,-0.5577653527825875,-18.03794949481067,24.281459732119792,25.04243164956022,-1.3023721005407407,0.0319116897824374,1.2450635647272923,3367.5071072048613,11.934555555555557,0.19,178.84051816673423,-8.927519895659195,104.35036579554846,1553.0,1026.0,1200.0,1528.0,1471.0,998.0,60.0,292.7,1649241071.1634965,1649241072.301263,9e622319-58ac-4825-9b86-fd96993f6a19
-0.0947415238233527,0.0490723451637158,-0.1251731717020574,0.4232159506840428,-0.1987173758427518,-0.2399334858465559,-0.5407731864511974,-0.5621018951243925,-18.190253343778053,24.373497294668137,25.352360759142137,-1.343607202608058,0.0284710426984855,1.2339124630742462,3374.282009548612,11.927333333333332,0.19,178.84799798278533,-8.937358308839906,104.3389161217698,1553.0,1026.0,1200.0,1528.0,1471.0,998.0,60.0,292.7,1649241072.4102848,1649241073.52744,9e622319-58ac-4825-9b86-fd96993f6a19
-0.0933760822271841,0.0482126227083049,-0.1232387961750206,0.4301443015841449,-0.1963657819490189,-0.2485939263416168,-0.5412030479010362,-0.5627972590856776,-18.181333320756348,24.42316002747172,24.913825951557747,-1.3783369065653852,0.0283405930402889,1.2280088342387403,3378.56787109375,11.922,0.18,178.84302560506953,-8.946365336216648,104.32778594906227,1553.0,1026.0,1200.0,1528.0,1471.0,998.0,60.0,292.7,1649241073.635888,1649241074.7649171,9e622319-58ac-4825-9b86-fd96993f6a19
-0.1241870193774893,0.0250001165223923,-0.209881125794648,-0.1490684002210635,-0.3179912374154655,0.3373069274877255,-0.4423222983005272,-0.4589478171278675,-17.958356402236426,21.10898238880164,29.232498927359167,1.2193388589002532,-0.0328102706195593,1.3707049492992562,3382.273193359375,11.939555555555556,0.1888888888888888,178.86902737632985,-8.75498390999158,104.31650323546334,1553.0,1435.0,1200.0,1528.0,1471.0,998.0,60.0,292.7,1649241075.668031,1649241077.0074663,81fe85e6-0463-4814-ab16-b5074d3e4340
-0.1217216386697946,0.0245070404075383,-0.214495812934824,-0.1492201159446809,-0.3230484290607357,0.3394183045395766,-0.4481507121150848,-0.4649911616205517,-18.03854064500733,21.23005811344366,29.402768154544027,1.2249852627434776,-0.0358729870836999,1.3922551638003973,3394.456268310547,11.957375,0.2,178.84140685023624,-8.749288445287274,104.35305167257582,1553.0,1435.0,1200.0,1528.0,1471.0,998.0,60.0,292.7,1649241077.1162522,1649241078.236253,81fe85e6-0463-4814-ab16-b5074d3e4340
-0.0847662143405068,0.0233312435154489,-0.2128775117069725,-0.1472983832529174,-0.3209370515495904,0.3395447342961595,-0.4461784072343046,-0.4707942894990218,-18.02834862073184,21.21670718050962,29.5223867690299,1.220950683116009,-0.0415494948937413,1.3844212235791242,3394.625244140625,11.959666666666667,0.1933333333333333,178.82968396889078,-8.763811739766346,104.37423351214812,1553.0,1435.0,1200.0,1528.0,1471.0,998.0,60.0,292.7,1649241078.3451493,1649241079.4772558,81fe85e6-0463-4814-ab16-b5074d3e4340
-0.0824019774925761,0.0421819225930747,-0.1038444679322524,-0.1571472632780486,-0.2233964698073856,0.3239306585658084,-0.334262751614803,-0.3630002436169117,-17.18655505865854,21.1471220595758,29.48620937889917,1.2134662304992732,0.0316381855563954,0.946360135675775,3395.968994140625,11.956,0.19,178.85023828483307,-8.747395095505004,104.38181957558626,1553.0,1435.0,1200.0,1435.0,1471.0,998.0,60.0,292.7,1649241081.1358123,1649241082.0867546,991dbbac-666c-42a0-8554-543b2a9e4eca
-0.0698980725355489,0.0423589242765094,-0.1058041294889302,-0.1605987962751857,-0.2256216340257357,0.3272557613555784,-0.3349960443955008,-0.3603452181088548,-17.15855290271512,21.115768888470694,29.52156973878601,1.2284383034503208,0.0320906528979242,0.9531796539052716,3399.6734619140625,11.96,0.19,178.84789552994778,-8.752292127696492,104.40806116237746,1553.0,1435.0,1200.0,1435.0,1471.0,998.0,60.0,292.7,1649241082.1957502,1649241083.355828,991dbbac-666c-42a0-8554-543b2a9e4eca
-0.0837168471967484,0.0390085353093322,-0.1056776997283937,-0.1571346202915878,-0.2238389740576343,0.3255616025134545,-0.3349960444185816,-0.3625324533821046,-17.23443053128643,21.08997324159943,29.26888816017843,1.2165737891609891,0.0218822741944398,0.9498053846182708,3399.8607042100693,11.961666666666666,0.2,178.84776727417332,-8.755796607639073,104.41082587117153,1553.0,1435.0,1200.0,1435.0,1471.0,998.0,60.0,292.7,1649241083.464254,1649241084.58575,991dbbac-666c-42a0-8554-543b2a9e4eca
-0.0109691540450759,0.058516649101047,0.016630465523236,-0.1627101736526467,-0.1143507825695972,0.3068752835135896,-0.2113097823423888,-0.2372658173061416,-16.34349422165658,21.14868869824036,29.54137618654992,1.1941314904330391,0.0947698302833435,0.461151006588325,3398.662353515625,11.959,0.19,178.86161737999032,-8.764866719401896,104.3874135005165,1553.0,1435.0,1200.0,1330.0,1471.0,998.0,60.0,292.7,1649241085.1382265,1649241086.228235,f23ec928-7f27-4486-a110-534a3fa58d64
-0.0149769779176902,0.0620819686515011,0.0237990336609467,-0.1613573749892919,-0.1082947961295585,0.3005790812895083,-0.2056457279825917,-0.2288076649453511,-16.284717631352812,21.15783771728546,29.36910928235161,1.1773512240904649,0.1095407829474591,0.4353042272850632,3394.1773274739585,11.959888888888887,0.1944444444444444,178.85292027244714,-8.766753938615066,104.39344228082388,1553.0,1435.0,1200.0,1330.0,1471.0,998.0,60.0,292.7,1649241086.336425,1649241087.463904,f23ec928-7f27-4486-a110-534a3fa58d64
-0.0192846931912335,0.0595285929920357,0.0228174328993937,-0.1595418433236415,-0.1086432366044549,0.3032265205412481,-0.2062854627020743,-0.2354755717330436,-16.31786079287612,21.19154709665656,29.62084297433174,1.1794030097179609,0.0976823542012737,0.4380526870739319,3393.131103515625,11.961555555555556,0.19,178.83275603619748,-8.761228600167742,104.41181928424076,1553.0,1435.0,1200.0,1330.0,1471.0,998.0,60.0,292.7,1649241087.597126,1649241088.6918182,f23ec928-7f27-4486-a110-534a3fa58d64
-0.0148884770578275,0.0712101981197051,0.1208718117109421,-0.1574127658209858,-0.0198192383102724,0.2821835506424098,-0.1089269450497774,-0.1329738891287757,-15.639847712259392,21.309983755647163,29.28277523201628,1.1332689583466076,0.1456489501013757,0.0461753646966801,3395.8202311197915,11.954777777777776,0.2,178.8552106625488,-8.758803313829958,104.36520400206535,1553.0,1435.0,1200.0,1210.0,1471.0,998.0,60.0,292.7,1649241090.8243876,1649241091.962428,a8e951ea-42a9-44d9-a660-718f9341b7d5
-0.0162033467168103,0.0711090543044346,0.1236153377170701,-0.1579437709040103,-0.017063069209482,0.282335266363488,-0.1053110533338333,-0.1214561361866049,-15.588911740203972,21.26481800715764,29.245521952855363,1.134664602757463,0.1454777989130156,0.0335180962746954,3398.662353515625,11.952111111111112,0.19,178.86148381184657,-8.762909775340951,104.35644921736922,1553.0,1435.0,1200.0,1210.0,1471.0,998.0,60.0,292.7,1649241092.0701227,1649241093.1984017,a8e951ea-42a9-44d9-a660-718f9341b7d5
-0.0122587377499973,0.0691999647639768,0.1184822890752001,-0.155149672678667,-0.0215639692039686,0.2812479704076448,-0.1098372394482611,-0.1296108570853895,-15.495263167288243,21.23173617304633,29.15356241368302,1.125476088924136,0.1377997836624298,0.0528325858848079,3400.909912109375,11.951333333333332,0.19,178.86406258771316,-8.781291047626054,104.3566822027109,1553.0,1435.0,1200.0,1210.0,1471.0,998.0,60.0,292.7,1649241093.3115158,1649241094.4206293,a8e951ea-42a9-44d9-a660-718f9341b7d5
0.0086148179269598,0.0838152462456345,0.2093094340445078,-0.1461099433450958,0.0585040060517734,0.2535977809179116,-0.0262924428508402,-0.0484050105367473,-14.99375935639467,21.682487995402408,29.10525327880369,1.050706423811013,0.1941472341474298,-0.2970349839809606,3386.1318630642363,11.947555555555557,0.19,178.8700245839487,-8.779027314234888,104.31799828798164,1553.0,1435.0,1200.0,1071.0,1471.0,998.0,60.0,292.7,1649241095.534846,1649241096.669218,aec1e1df-10af-4024-8350-6bc6dbf5b5c7
0.0101193322303643,0.088455218822353,0.2162504282191271,-0.1480316759977335,0.0639784151651837,0.2524219841109493,-0.0196043077175992,-0.0423490242572601,-14.933858737003725,21.66935757338092,29.384985171813337,1.0527325247715635,0.2093231395786746,-0.3224887422577162,3381.382080078125,11.941,0.19,178.86628315810333,-8.777624184679143,104.30199819039596,1553.0,1435.0,1200.0,1071.0,1471.0,998.0,60.0,292.7,1649241096.7781217,1649241097.9019744,aec1e1df-10af-4024-8350-6bc6dbf5b5c7
0.0363029381692039,0.0855979060134302,0.2147838429590668,-0.1481075338550189,0.0641554168706068,0.2554689414445921,-0.0186307984109544,-0.0351678130303376,-14.912613304066168,21.53714658467452,29.40977350491756,1.058815738518347,0.1981505348200688,-0.3223590968870376,3382.400848388672,11.944125,0.19,178.8549716059279,-8.779816509391173,104.2828262288507,1553.0,1435.0,1200.0,1071.0,1471.0,998.0,60.0,292.7,1649241098.0103445,1649241099.1280987,aec1e1df-10af-4024-8350-6bc6dbf5b5c7
-0.1625331719272751,0.0037852005703143,-0.3492320390805359,-0.1233905117895486,-0.445799117818108,0.3416055394300649,-0.5939495643779772,-0.610006150617551,-19.0095049740414,21.65123992866722,29.12876405723417,1.1671856769626143,-0.1160063394519827,1.9471736403189663,3391.3412814670137,11.94988888888889,0.19,178.89033604872048,-8.77461377880246,104.33126099753002,1553.0,1435.0,1200.0,1613.0,1471.0,998.0,60.0,292.7,1649241101.2700756,1649241102.4073288,b1d9c9f4-d56a-46a5-8b4f-e5d6d1fa41e8
-0.1315831615231714,0.0018128961045941,-0.3448828541802033,-0.1227457200070304,-0.4409189275212177,0.3423388320181788,-0.5884751535406173,-0.6154047039101589,-18.980309643207256,21.6117268398275,29.080862042349104,1.1673406746920874,-0.1229901060290482,1.9265399092476585,3386.1318630642363,11.951777777777776,0.1877777777777777,178.87675307919105,-8.771782475664011,104.31742834664092,1553.0,1435.0,1200.0,1613.0,1471.0,998.0,60.0,292.7,1649241102.515815,1649241103.6333125,b1d9c9f4-d56a-46a5-8b4f-e5d6d1fa41e8
-0.1343266877552364,0.0051759280870534,-0.3476516666513137,-0.1281569145238886,-0.4444716049081672,0.3453225744435714,-0.5912313234180123,-0.6131289669466593,-19.04215522001124,21.60089185785108,29.244200292867728,1.1860370821907542,-0.110896104227292,1.9396282314395887,3389.255126953125,11.956875,0.19,178.86812313517476,-8.779643726949514,104.29813951296984,1553.0,1435.0,1200.0,1613.0,1471.0,998.0,60.0,292.7,1649241103.7417386,1649241104.8610876,b1d9c9f4-d56a-46a5-8b4f-e5d6d1fa41e8
-0.1997920289625799,-0.0052545282543564,-0.4598075397822473,-0.0866247321051784,-0.5468165313076153,0.3236398701236332,-0.721352891430254,-0.7452987002355843,-19.874439555618988,22.11514482280468,29.211214601279345,1.0410269448570535,-0.1560484654094452,2.415434362313193,3396.7168782552085,11.951555555555554,0.1844444444444444,178.86752169907282,-8.781550974269468,104.28672968196136,1553.0,1435.0,1200.0,1694.0,1471.0,998.0,60.0,292.7,1649241106.79925,1649241107.937132,c535ac65-41e6-4d18-8199-6953e7e6b2cf
-0.1867318323359769,-0.0093129240057774,-0.4637900786548427,-0.0829582686001152,-0.5498761327702003,0.3241076602137955,-0.7257905784099824,-0.7451722703894125,-19.91896761672883,22.185553553647782,29.15938130467084,1.034045255588259,-0.1711980588674768,2.430756548391118,3397.614556206597,11.94377777777778,0.19,178.86152934644102,-8.790827699254685,104.27137769343688,1553.0,1435.0,1200.0,1694.0,1471.0,998.0,60.0,292.7,1649241108.04538,1649241109.1665125,c535ac65-41e6-4d18-8199-6953e7e6b2cf
-0.1657571313540783,-0.0089336346898404,-0.4612741254898096,-0.0837421332194684,-0.5473728224655267,0.3243225908347428,-0.7227056905426845,-0.7457285615215472,-19.898204397118874,22.14850567685829,29.16205223885961,1.036187000182264,-0.1696907424938187,2.419597718650215,3397.315185546875,11.946888888888893,0.19,178.87182016479048,-8.786538055864701,104.23139452494551,1553.0,1435.0,1200.0,1694.0,1471.0,998.0,60.0,292.7,1649241109.2751458,1649241110.3955245,c535ac65-41e6-4d18-8199-6953e7e6b2cf
-0.2247492684638874,-0.012574812185847,-0.5318851710412293,-0.046900496173698,-0.6122439583224979,0.2942323071648052,-0.8109284240964529,-0.8359488879657384,-20.4820031545406,22.633342097571663,28.586148615614185,0.8847768168991291,-0.1831153038822678,2.7282784896784884,3393.2802734375,11.938333333333334,0.18,178.87952158253464,-8.792252362879061,104.1956468326495,1553.0,1435.0,1200.0,1774.0,1471.0,998.0,60.0,292.7,1649241111.3053353,1649241112.44284,67e3c625-e368-4151-8c2a-475a873bfb8f
-0.2242814782658873,-0.0150907646975762,-0.5275106998745638,-0.0373171192143736,-0.607186765936085,0.2887073264628102,-0.8087159022971291,-0.8300951868121819,-20.49599914134117,22.738127515956364,28.728879997489063,0.8516718587166449,-0.194618443558167,2.7122054793340693,3394.474934895833,11.920444444444444,0.18,178.8805157545138,-8.799115944085017,104.10428698122132,1553.0,1435.0,1200.0,1774.0,1471.0,998.0,60.0,292.7,1649241112.551366,1649241113.667466,67e3c625-e368-4151-8c2a-475a873bfb8f
-0.1975289358285961,-0.0153562672232438,-0.5339333338528249,-0.0366343983682328,-0.6133944695683664,0.2889601860179939,-0.8141903137112076,-0.8389199892744293,-20.387492946350395,22.684777788063343,28.771447543333053,0.8500879556212069,-0.1972516177845588,2.737341423402573,3395.07275390625,11.916333333333334,0.18,178.88595106727334,-8.811685958615042,104.03823601630766,1553.0,1435.0,1200.0,1774.0,1471.0,998.0,60.0,292.7,1649241113.7759829,1649241115.108153,67e3c625-e368-4151-8c2a-475a873bfb8f
-0.2043687871379513,-0.0191744464137847,-0.5750735936103969,0.0031783376417052,-0.6496166116150361,0.2573653879209234,-0.8724997536081669,-0.8947387622096544,-20.931236859222444,23.199148049806084,28.57377980371928,0.6903385435485112,-0.2134728509109664,2.9247931397253035,3398.4939575195312,11.9105,0.17,178.89476428803238,-8.818197370049884,103.8862739833762,1553.0,1435.0,1200.0,1856.0,1471.0,998.0,60.0,292.7,1649241117.244528,1649241118.3787909,87e97475-e6e9-47ad-8741-801cf4923887
-0.202699913984449,-0.0182894379965626,-0.5639856993917539,0.0042782766389984,-0.6399953026937936,0.2541793578393532,-0.8618164324825657,-0.887911550964035,-20.81334139998133,23.255796007762328,28.47069303813725,0.6816684578670665,-0.2095058628940353,2.881394309298516,3392.5352376302085,11.882444444444443,0.17,178.90654939999027,-8.830166268643111,103.75681324975544,1553.0,1435.0,1200.0,1856.0,1471.0,998.0,60.0,292.7,1649241118.486951,1649241119.609861,87e97475-e6e9-47ad-8741-801cf4923887
-0.2438275231717526,-0.0138643958894596,-0.57569309971021,-0.0003490530592993,-0.6532830763150709,0.2552287248831096,-0.8741939134466374,-0.8925135973532862,-20.766138765557933,23.283509323302688,28.537137975986063,0.6940997646794259,-0.1940042464632178,2.9336843165678577,3387.4693196614585,11.886666666666663,0.17,178.91479267940858,-8.829811573124964,103.6703643043405,1553.0,1435.0,1200.0,1856.0,1471.0,998.0,60.0,292.7,1649241119.7182996,1649241120.839345,87e97475-e6e9-47ad-8741-801cf4923887
-0.1236307283543145,0.03310426493784,-0.2808840942269027,-0.1398263835322986,-0.3495607567552997,0.3413400369144695,-0.4815534658344127,-0.4997972864269946,-18.41488861424081,17.158759355502436,31.76852327183908,1.1780065396591917,-0.0273663766463146,1.5722859184103202,7172.74169921875,11.633,7.979999999999999,-179.27156988743388,-8.907708173061666,90.79963324117908,1553.0,1435.0,1350.0,1528.0,1471.0,998.0,60.0,292.7,1649241124.772376,1649241125.7530334,15635203-cf03-4ce4-be72-a90fd5d1c7f5
-0.088028102620445,0.0300573074225471,-0.2746763915954915,-0.134756549331024,-0.3431886951732097,0.3437295594301811,-0.4763445579713597,-0.5020603799870978,-18.498794244123715,17.312914657282086,32.389641028436714,1.173327602036963,-0.043933462934111,1.5481586402662204,7184.7666015625,11.633333333333333,8.01,-178.7958654255803,-8.779687091535962,85.38932200966637,1553.0,1435.0,1350.0,1528.0,1471.0,998.0,60.0,292.7,1649241125.8635094,1649241126.9796913,15635203-cf03-4ce4-be72-a90fd5d1c7f5
-0.1024158114262287,0.0317641093542315,-0.2759280465252185,-0.134200258335522,-0.3465137987370345,0.3398734516626858,-0.4778490726127608,-0.504108543050651,-18.241401110109106,17.365443037495996,32.13955897394896,1.1637831503558536,-0.0372841610814252,1.5565529279693575,7185.519958496094,11.629375,8.04375,-178.59996649326547,-8.700342989529844,81.08208575992828,1553.0,1435.0,1350.0,1528.0,1471.0,998.0,60.0,292.7,1649241127.0882733,1649241128.2149985,15635203-cf03-4ce4-be72-a90fd5d1c7f5
-0.0216903989405749,0.2102323713867061,-0.2662435246838404,-0.2520075306022216,-0.3805992712186991,0.2740035449181425,-0.499215709381989,-0.5155377970871066,-18.153035673065457,16.785715004402945,32.17443932815001,1.2781981964950346,0.6462544687890155,1.6411096983452502,7190.79345703125,11.62,8.029999999999998,-178.6661510263229,-8.510934800212809,72.05240321489487,1647.0,1435.0,1350.0,1528.0,1543.0,998.0,60.0,292.7,1649241130.1468008,1649241131.401723,2a896285-af02-4ab2-938d-195fcc198942
-0.0181503652503767,0.2137471188856428,-0.2623242012702743,-0.2495168638368496,-0.3772362387047154,0.275558630994267,-0.4955998170249229,-0.5113276847019294,-18.13356217190336,16.79732563949076,33.239241625572696,1.276526011091178,0.6498037710322832,1.6279961830110443,7196.83154296875,11.608,8.037777777777778,-178.9121789936862,-8.486549317328572,69.1153649535463,1647.0,1435.0,1350.0,1528.0,1543.0,998.0,60.0,292.7,1649241131.5106218,1649241132.4532557,2a896285-af02-4ab2-938d-195fcc198942
-0.0130046734368106,0.2131528989861421,-0.2647263672452473,-0.2583795920041324,-0.3795751899211857,0.2776067931903871,-0.496017035323782,-0.5204938456243453,-18.14223839382688,16.68229224273878,32.27861716371528,1.3000809697888809,0.6570874397916143,1.6335870240764885,7196.83154296875,11.608444444444444,8.081111111111111,-179.11118945662295,-8.477027464443141,66.77364446243624,1647.0,1435.0,1350.0,1528.0,1543.0,998.0,60.0,292.7,1649241132.5615218,1649241133.6263742,2a896285-af02-4ab2-938d-195fcc198942
0.0769753956489737,0.3696603037073669,-0.2539545493631138,-0.3707503905536009,-0.4107654208252619,0.2369469808525292,-0.5121621213405789,-0.5323403185657137,-18.15758701199036,16.514441965825128,33.56917438390713,1.461815594036267,1.2472711005308563,1.7042037418772993,7196.83154296875,11.609222222222222,8.09,-179.51546835359602,-8.374915187714066,63.68598990515019,1745.0,1435.0,1350.0,1528.0,1614.0,998.0,60.0,292.7,1649241134.6576233,1649241135.7864208,3ad43fe1-9cad-4d07-83b7-d8e0632a1d6f
0.0720198543534211,0.3739796500975654,-0.2517142135930499,-0.3669099590623746,-0.4094985942894823,0.2310138848098665,-0.5144646610271186,-0.5350160787340049,-18.32292839036597,16.67802040573391,33.8286284369186,1.440974127338988,1.2620139467469598,1.703442268838108,7196.83154296875,11.596,8.09,-179.74055344314422,-8.401413760372778,62.07852765128491,1745.0,1435.0,1350.0,1528.0,1614.0,998.0,60.0,292.7,1649241135.8942156,1649241137.2239215,3ad43fe1-9cad-4d07-83b7-d8e0632a1d6f
0.1057255253776649,0.375994434781131,-0.2577980149181357,-0.3725836224479129,-0.4166191204779665,0.2306760644765594,-0.5177503187585094,-0.5471073198662858,-18.036526694748822,16.51653056269361,33.28320399664696,1.4516971496255595,1.2726877466233826,1.7258029852178869,7196.83154296875,11.600666666666667,8.064444444444446,20.00552997413878,-8.415702895571398,60.76682624885954,1745.0,1435.0,1350.0,1528.0,1614.0,998.0,60.0,292.7,1649241137.332103,1649241138.4527214,3ad43fe1-9cad-4d07-83b7-d8e0632a1d6f
0.1774112039777454,0.541326632854889,-0.23023632149269,-0.5137045654984397,-0.4414878620204603,0.1963756689644958,-0.5181422512284254,-0.5479670425557688,-17.86888200900534,16.76450518666942,33.06370025076208,1.6960194937076771,1.912669397340805,1.7411372418231892,7196.83154296875,11.58622222222222,8.061111111111112,179.6867497663223,-8.407435046444837,59.116705669078,1849.0,1435.0,1350.0,1528.0,1686.0,998.0,60.0,292.7,1649241139.1368458,1649241140.2980738,7db033d2-29f7-4517-beb4-548a32dbb71c
0.1665761729392244,0.541035844405523,-0.2285800911875231,-0.5153987247843045,-0.4403247076742928,0.1912299774319065,-0.5179146775722427,-0.5413041916592496,-17.903195430171262,16.805851181628434,32.0774555536849,1.6884601172452327,1.9208769723255184,1.735489326407738,7196.83154296875,11.566,8.055,179.48895659487764,-8.442946243440854,58.2067713615584,1849.0,1435.0,1350.0,1528.0,1686.0,998.0,60.0,292.7,1649241140.4061716,1649241141.520388,7db033d2-29f7-4517-beb4-548a32dbb71c
0.1666646737596719,0.5477619076199551,-0.2317661219714334,-0.5146780746259638,-0.443371666023841,0.1893082450257397,-0.5218719305737156,-0.5415570513665602,-17.932686524276487,16.693089242507035,32.809046432360205,1.681711736908127,1.939535840815775,1.7514942628498025,7202.87890625,11.567,8.05,179.3178466957905,-8.447998022105725,57.50600590554614,1849.0,1435.0,1350.0,1528.0,1686.0,998.0,60.0,292.7,1649241141.6287403,1649241142.7570374,7db033d2-29f7-4517-beb4-548a32dbb71c
0.2951426014508544,0.7059761085060283,-0.1730774160806779,-0.6370874174753974,-0.4394776281948049,0.1378260436617642,-0.4937033700511151,-0.526233758789035,-17.29591240850127,17.233899291021537,31.82921842738685,1.8488215899445053,2.555913480739006,1.6429972779740494,7202.87890625,11.529444444444444,8.05,178.91470768149892,-8.457957196825513,56.39572336664987,1962.0,1435.0,1350.0,1528.0,1760.0,998.0,60.0,292.7,1649241143.6634588,1649241145.0066783,dde5e0b7-5cdd-4523-8002-6e4babc2bc12
0.2702106519859499,0.7050025993568745,-0.1651629117302182,-0.6402481629231177,-0.432018269989335,0.1352974481748171,-0.4828304069453017,-0.5065992099364786,-17.039983858409137,17.07770082500344,30.99375305694218,1.8496236464815488,2.558743782444243,1.6054874641495074,7196.83154296875,11.491444444444443,8.042222222222222,178.79549659536514,-8.453632453852293,55.791054687982665,1962.0,1435.0,1350.0,1528.0,1760.0,998.0,60.0,292.7,1649241145.1149335,1649241146.236265,dde5e0b7-5cdd-4523-8002-6e4babc2bc12
0.3148909305145947,0.7087954921392208,-0.1709154669164444,-0.6418538218024753,-0.4386937635361571,0.1363468153180349,-0.4903909093434268,-0.5145642877485251,-17.13576442901442,17.157258148884896,31.409098935009705,1.8558626389137416,2.5698005066238303,1.6341166752374745,7196.83154296875,11.492777777777777,8.027777777777779,178.64759112561822,-8.469569561915657,55.34246417985925,1962.0,1435.0,1350.0,1528.0,1760.0,998.0,60.0,292.7,1649241146.345106,1649241147.4752896,dde5e0b7-5cdd-4523-8002-6e4babc2bc12
-0.2214494510605745,-0.2004621068158166,-0.2869653670838865,0.0001693087830994,-0.3023013005482097,0.4304098041121774,-0.4478725667187957,-0.4717172270982294,-18.57177432056252,18.152653669803804,30.319162405531635,1.0683380465470869,-0.9070313612953844,1.4386559689335678,7203.552083333333,11.511222222222225,8.045555555555556,178.78227334913197,-8.591076065929245,54.62938939487028,1459.0,1435.0,1350.0,1528.0,1394.0,998.0,60.0,292.7,1649241148.6480205,1649241149.7143238,724e4c04-c993-4b21-a941-8ceae3c89ac9
-0.2473928431833752,-0.1989828783362839,-0.2885963112958667,0.0014588925709795,-0.3042230332935223,0.4261870501005786,-0.4504138056476528,-0.4782283619446335,-18.524387674285578,18.14534111566745,30.07763616366428,1.0557956359892506,-0.8999403977279268,1.4470005600105045,7208.9375,11.619555555555555,8.095555555555556,178.70694850514528,-8.636210335419642,54.3871491468567,1459.0,1435.0,1350.0,1528.0,1394.0,998.0,60.0,292.7,1649241149.8236551,1649241150.954429,724e4c04-c993-4b21-a941-8ceae3c89ac9
-0.2365072385980259,-0.1993874536513962,-0.283893123290161,0.002470330736019,-0.3000129213938222,0.4299546569822072,-0.4457738320854396,-0.4759273396327769,-18.55266605473058,18.23359674140432,30.72395124057084,1.0628884313279985,-0.9068108038232056,1.4290644264022334,7208.9375,11.619444444444444,8.072222222222223,178.62289316157947,-8.680116214360561,54.19198559824248,1459.0,1435.0,1350.0,1528.0,1394.0,998.0,60.0,292.7,1649241151.0845792,1649241152.1742115,724e4c04-c993-4b21-a941-8ceae3c89ac9
-0.3590177050686221,-0.3906251538428609,-0.2950189446310979,0.1241842715825422,-0.2658642352810658,0.4869744790322708,-0.4271380795413917,-0.4488334333797257,-18.65746158172805,18.95207771911337,28.14759618215932,0.9202082227090536,-1.616171288287095,1.3451105918765467,7202.87890625,11.604333333333331,8.11,178.47010031202643,-8.737856546601604,53.721589711193786,1364.0,1435.0,1350.0,1528.0,1312.0,998.0,60.0,292.7,1649241154.314007,1649241155.455968,f7adb6b5-7bce-4a55-9f54-e7c39ce31f91
-0.3631266733728288,-0.390878013438341,-0.2964096723770578,0.1246394187356065,-0.2664078833906284,0.4884663502056705,-0.4280230881710214,-0.446039334525046,-18.70255726146826,18.902339545517297,28.37597738657405,0.9221486919169344,-1.6189696728314458,1.3492912222415074,7202.87890625,11.592444444444446,8.1,178.4146255155876,-8.717600671980547,53.59707991608391,1364.0,1435.0,1350.0,1528.0,1312.0,998.0,60.0,292.7,1649241155.5641377,1649241156.620298,f7adb6b5-7bce-4a55-9f54-e7c39ce31f91
-0.3292561318019678,-0.3884758473204221,-0.2903789714334554,0.1276231611969684,-0.2612242621480219,0.4872905534283194,-0.4226751076480901,-0.4382512588330373,-18.644092829739023,18.941881128003253,28.976671064448176,0.9134635257154032,-1.6156821968511277,1.3275847552689215,7196.83154296875,11.597777777777775,8.105555555555554,178.38919444457798,-8.732278748506904,53.5408617673904,1364.0,1435.0,1350.0,1528.0,1312.0,998.0,60.0,292.7,1649241156.7278965,1649241157.915762,f7adb6b5-7bce-4a55-9f54-e7c39ce31f91
-0.473095311875031,-0.5890693736279949,-0.3052471147846395,0.268250990591853,-0.2311971877881553,0.5363579432918324,-0.4168214081287447,-0.4339905746199873,-19.01961285269403,20.33015518595692,26.372341293082563,0.7143611029657481,-2.360523245460134,1.2710749290831822,7196.83154296875,11.597,8.09,178.41798293301963,-8.776903220266751,53.41470551723558,1262.0,1435.0,1350.0,1528.0,1222.0,998.0,60.0,292.7,1649241159.6341703,1649241160.7730055,abdb31c4-bc12-45af-8990-2535a9cb0694
-0.4460646203468685,-0.5991079006632403,-0.3125800425158839,0.274635693620646,-0.2348383655534085,0.5394681153809985,-0.422409605051473,-0.4461531213473292,-19.101245665349325,20.28508294305448,26.203331495182013,0.7062157959489512,-2.3973498451736064,1.2925506903822503,7196.83154296875,11.561666666666664,8.076666666666666,178.4194628073398,-8.759722733183231,53.35345465748863,1262.0,1435.0,1350.0,1528.0,1222.0,998.0,60.0,292.7,1649241160.8815415,1649241162.005349,abdb31c4-bc12-45af-8990-2535a9cb0694
-0.4448761802218896,-0.5954540791018585,-0.3076239948215473,0.2739276868916582,-0.2323982707664345,0.53784981445268,-0.4184270664520311,-0.4457232599646913,-18.96357363063614,20.386345378627983,26.421865270283448,0.7051985425524916,-2.3861539858430083,1.2776001130427164,7196.83154296875,11.558,8.09,178.46631790504608,-8.766001384577764,53.34614635507672,1262.0,1435.0,1350.0,1528.0,1222.0,998.0,60.0,292.7,1649241162.1132195,1649241163.438261,abdb31c4-bc12-45af-8990-2535a9cb0694
-0.5420121985387885,-0.7465503554501169,-0.3203175457589791,0.4149980161528099,-0.2120810041964128,0.5413013468904085,-0.4308171867156757,-0.4505149494954678,-19.340188381871634,22.05875370899073,24.21975087252521,0.4046484311564783,-2.948819134429617,1.2637694613664896,7202.87890625,11.534555555555556,8.08111111111111,178.52935903326548,-8.75006370733197,53.34508312229592,1153.0,1435.0,1350.0,1528.0,1121.0,998.0,60.0,292.7,1649241164.349264,1649241165.4864042,278ca0bc-55ac-4ac7-9f62-d93336dab7c2
-0.5508369992143515,-0.7311259167951664,-0.3204819044650382,0.4064260783105276,-0.2156210381665946,0.5372176656521337,-0.4357605918309779,-0.4675450436950528,-19.554407351300902,22.123942118688312,24.64602177865665,0.4151921213396287,-2.892183875466457,1.278069363833884,7202.87890625,11.514666666666663,8.07,178.55529250263413,-8.752590213278706,53.33812809244608,1153.0,1435.0,1350.0,1528.0,1121.0,998.0,60.0,292.7,1649241165.600271,1649241166.712558,278ca0bc-55ac-4ac7-9f62-d93336dab7c2
-0.5598261585644804,-0.7402541500912796,-0.322112848852937,0.4085500983749093,-0.2133200161124846,0.5426415023445661,-0.4319297689999377,-0.458113380682828,-19.47110242756357,21.85976846624358,24.434967871145588,0.4207647788747408,-2.92550873228215,1.2704872822877442,7202.87890625,11.51088888888889,8.068888888888887,178.59604444686204,-8.749324529081793,53.3456955625915,1153.0,1435.0,1350.0,1528.0,1121.0,998.0,60.0,292.7,1649241166.8212082,1649241167.9443653,278ca0bc-55ac-4ac7-9f62-d93336dab7c2
-0.0977631955490523,0.0346846370976236,-0.2736902391718716,-0.1320130230051904,-0.3423289724946116,0.3317313749500691,-0.4767744192272893,-0.5076106483179076,-18.37341563117496,17.18072340368805,31.69117006095173,1.1393019203677772,-0.0215525435827889,1.545996228598182,7208.9375,11.528444444444444,8.072222222222223,178.37058142017978,-8.732957119100721,53.41352389450917,1553.0,1435.0,1350.0,1528.0,1471.0,998.0,60.0,292.7,1649241169.6449594,1649241170.6063254,f8c26530-e637-4e3b-9721-014059650d88
-0.1274489077124827,0.0314859638454556,-0.2753338265689247,-0.13280953058063,-0.3428979066722227,0.3355369108109168,-0.4759779116258951,-0.4993042101786492,-18.321747785404423,17.091806266991306,31.67988706437035,1.1490031210964813,-0.0338228399745585,1.5475401594399003,7215.00537109375,11.622222222222222,8.095555555555555,178.36811344515965,-8.703781396878579,53.47456377730176,1553.0,1435.0,1350.0,1528.0,1471.0,998.0,60.0,292.7,1649241170.7145932,1649241171.854674,f8c26530-e637-4e3b-9721-014059650d88
-0.0934519401127889,0.0326617607398125,-0.2751441817566478,-0.1419124748455704,-0.3438082010654915,0.3408343178673272,-0.4734746013970788,-0.4966871134576538,-18.263939115685,17.027864653975687,31.416101389844307,1.181013730918849,-0.0263524111773145,1.5447144056398936,7215.00537109375,11.624,8.1,178.37936048999296,-8.705703905402462,53.588155894478334,1553.0,1435.0,1350.0,1528.0,1471.0,998.0,60.0,292.7,1649241171.9646308,1649241172.9147358,f8c26530-e637-4e3b-9721-014059650d88
-0.0802906002421308,0.0372132325432752,-0.3079021402963044,-0.4454704006047336,-0.4064668076247942,0.6275770147721687,-0.4268725769836515,-0.4544089872621099,-18.39673849246564,16.333638809739544,33.13696335630337,2.504089398666764,0.0116923650000327,1.6088673249533527,7208.9375,11.621444444444444,8.11,178.43749147110898,-8.626638204752826,53.78075963997362,1553.0,1537.0,1350.0,1528.0,1471.0,998.0,60.0,292.7,1649241174.6347225,1649241175.7275546,d82614c7-238e-4a62-8ad0-9ddf2be41f79
-0.0731093888505601,0.0362902951928336,-0.305234471755515,-0.435672091285791,-0.4047220764551099,0.6256679254035041,-0.425987568409729,-0.4487322892511176,-18.271295567448583,16.519549894762616,34.029892943001244,2.4792675767661736,-0.001605190498453,1.6028396078428466,7202.87890625,11.612000000000002,8.083333333333334,178.4573824997919,-8.615393152058045,53.8366867467175,1553.0,1537.0,1350.0,1528.0,1471.0,998.0,60.0,292.7,1649241175.8353584,1649241176.9562638,d82614c7-238e-4a62-8ad0-9ddf2be41f79
-0.1072327859766175,0.0322318995082616,-0.3073584921274979,-0.4411465014588839,-0.403925568634646,0.6302320397168493,-0.4255703499863835,-0.4474553482542401,-18.4833349175793,16.327391160243888,33.39405487635343,2.500284982176446,-0.0091543560477183,1.6025507001594772,7208.264322916667,11.611777777777778,8.091111111111111,178.50184247782923,-8.626966338424202,53.90892206846964,1553.0,1537.0,1350.0,1528.0,1471.0,998.0,60.0,292.7,1649241177.0648406,1649241178.1916802,d82614c7-238e-4a62-8ad0-9ddf2be41f79
-0.0598974771589086,0.0428140714421585,-0.3418232534349826,-0.7426816031266623,-0.4742205373844607,0.9140162788015644,-0.3857196779714514,-0.4127503684788908,-18.41234818471311,16.089679336051955,35.75962567790256,3.815296254893146,0.0440033131693026,1.6906555754931725,7208.9375,11.605888888888888,8.105555555555554,178.534070345973,-8.528991069329907,54.11051851691715,1553.0,1645.0,1350.0,1528.0,1471.0,998.0,60.0,292.7,1649241180.3240712,1649241181.461878,486a0542-df50-4cd4-bcbe-1d0caf64dfbe
-0.0676223365499826,0.0435220781716426,-0.3454138595266459,-0.7503685364880682,-0.4770399219143492,0.919440115566823,-0.3841772344070132,-0.4098677690539045,-18.2349250974565,15.787769929008114,35.61791485459903,3.84271071725224,0.0473726718871403,1.69726034347861,7208.9375,11.600888888888887,8.09,178.58382599734682,-8.54663781168802,54.14280747730848,1553.0,1645.0,1350.0,1528.0,1471.0,998.0,60.0,292.7,1649241181.5703075,1649241182.6910896,486a0542-df50-4cd4-bcbe-1d0caf64dfbe
-0.0973839061986545,0.0425485689262747,-0.3404830975414682,-0.7516834067289531,-0.4730953120400312,0.9210837024735334,-0.3804222694612557,-0.4036727089069049,-18.323422048482488,15.937865247709167,35.575973380437794,3.850559387810637,0.0451965244255282,1.6795082325534918,7208.9375,11.598666666666666,8.104444444444445,178.626378075876,-8.546124409135407,54.20351799320109,1553.0,1645.0,1350.0,1528.0,1471.0,998.0,60.0,292.7,1649241182.7995656,1649241183.919535,486a0542-df50-4cd4-bcbe-1d0caf64dfbe
-0.0455856264847284,0.0549892584749976,-0.3702826000773563,-1.0040120786096347,-0.5361964276997018,1.1558637745995333,-0.3510652712689876,-0.3767558054085971,-18.1722261284073,15.98432132417516,37.64933161197203,4.946563981247147,0.101589143505423,1.7665799660393957,7208.9375,11.588111111111113,8.071111111111112,178.6722025739275,-8.453599536135044,54.30760514323768,1553.0,1761.0,1350.0,1528.0,1471.0,998.0,60.0,292.7,1649241184.8297253,1649241185.962785,fbde1750-ac6a-47d9-8f61-aeb93169fce9
-0.0703785056882122,0.0557604800744922,-0.3678172189801439,-0.9929873956024644,-0.5326563929973831,1.1481262728476185,-0.3517606350762898,-0.3717238995555482,-18.245026923412937,16.039247418691442,38.10625841768056,4.90483085982583,0.0997470778578221,1.760148759161808,7202.87890625,11.582,8.083333333333334,178.68982446198615,-8.454144053993877,54.36089048459259,1553.0,1761.0,1350.0,1528.0,1471.0,998.0,60.0,292.7,1649241186.0711162,1649241187.400803,fbde1750-ac6a-47d9-8f61-aeb93169fce9
-0.0734633922511602,0.0597303748961672,-0.3678045761257152,-0.9973618685368782,-0.5325931782262084,1.1437770888322945,-0.3514572036272638,-0.3793729021490684,-18.23514617814053,15.875789236821968,37.47182875880142,4.903746289271334,0.1207262182841019,1.7592345939385838,7202.87890625,11.587666666666667,8.096666666666668,178.7181515332039,-8.461771952340703,54.38174646722322,1553.0,1761.0,1350.0,1528.0,1471.0,998.0,60.0,292.7,1649241187.5097475,1649241188.63012,fbde1750-ac6a-47d9-8f61-aeb93169fce9
