raw_voltage_G-,raw_voltage_G0,raw_voltage_G1,raw_voltage_G2,raw_voltage_G3,raw_voltage_G4,raw_voltage_G5,raw_voltage_G6,load_x,load_y,load_z,load_l,load_m,load_n,rpm,voltage,current,roll,pitch,yaw,aileron1_pwm,elevator_pwm,throttle_pwm,rudder_pwm,aileron2_pwm,pbaro,pdiff,Tt,sample_start_time,sample_end_time,uid
0.0366235640507765,0.1745928315633907,-0.027699859172327,-0.2543308049125093,-0.1974495380733334,0.2817152545508072,-0.2587619157340153,-0.2776171484505527,-14.04079996080966,20.551438808850644,29.780721544567445,1.3392979176640651,0.5201668980524164,0.7177582743954665,3234.5725368923613,11.956333333333331,0.2122222222222222,179.22706892826156,-11.235975657964012,110.73266682855744,1553.0,1435.0,1200.0,1528.0,1471.0,995.0,60.0,293.1,1649248611.7977438,1649248612.981653,e4036b9c-0bff-4532-aa1f-2ceab5caa5b0
0.0492989072423011,0.1905290508700765,-0.0138674304831569,-0.2851645024418794,-0.1904675798094467,0.2913269507386607,-0.2415239732391268,-0.2700697962086794,-13.89121636644747,20.42561418108579,29.45111614758344,1.430327361206162,0.5864710344467058,0.666199614984381,3456.251763237847,11.955,0.2177777777777777,179.46333427857118,-11.272553407971674,110.40587263316864,1553.0,1435.0,1200.0,1528.0,1471.0,995.0,60.0,293.1,1649248613.0893753,1649248614.2091582,e4036b9c-0bff-4532-aa1f-2ceab5caa5b0
0.047799955892467,0.187583743018725,-0.0280417254874421,-0.274290529022503,-0.2018675007174228,0.2858439446617699,-0.2576574255356704,-0.2831790485077896,-13.96524703792894,20.41327171489984,29.56865133961709,1.3926711602281248,0.5726689958091097,0.7238764708341576,3492.366455078125,11.957666666666666,0.21,179.6328777876087,-11.345264376508522,110.14750327288505,1553.0,1435.0,1200.0,1528.0,1471.0,995.0,60.0,293.1,1649248614.3178685,1649248615.4410317,e4036b9c-0bff-4532-aa1f-2ceab5caa5b0
0.1299135630287265,0.3274858635145275,0.0147178356195245,-0.3455170272935599,-0.1938336464642646,0.2174049844114214,-0.242799396916618,-0.2670850415631836,-13.699284333265698,20.08056107130533,30.22660469705836,1.3997115299723426,1.1011477568730847,0.6510475957366618,3501.2413465711807,11.95811111111111,0.21,179.84632423481122,-11.385851447558986,109.5438321812916,1647.0,1435.0,1200.0,1528.0,1543.0,995.0,60.0,293.1,1649248617.7849123,1649248618.9201148,7996aed4-45fc-4fee-8f68-075772db4b6c
0.1328457222340702,0.3317723381899636,0.0149150658940914,-0.3428215444139681,-0.1943332971066516,0.2112776920906472,-0.2437724011491051,-0.2672691239380202,-13.59198213342071,20.041428708034303,30.302341542186813,1.3796788306911991,1.1154738987727444,0.6535848600281498,3503.3083224826387,11.955,0.2011111111111111,179.88466132771262,-11.417841397446647,109.40791369353808,1647.0,1435.0,1200.0,1528.0,1543.0,995.0,60.0,293.1,1649248619.0280468,1649248620.1475165,7996aed4-45fc-4fee-8f68-075772db4b6c
0.1188555097431925,0.3287086921566136,0.0188596751046409,-0.3372070540033071,-0.1877195019631167,0.2093974268552872,-0.2394727766468278,-0.2713057739235173,-13.700762754272157,19.937490527479994,30.37680357611596,1.3622532175732982,1.1036503713558894,0.632828080504042,3505.69580078125,11.959666666666667,0.21,179.8809639186419,-11.380394316139624,109.23042743340574,1647.0,1435.0,1200.0,1528.0,1543.0,995.0,60.0,293.1,1649248620.256132,1649248621.5810423,7996aed4-45fc-4fee-8f68-075772db4b6c
0.2046901961215314,0.4582364887403733,0.0452622572144994,-0.4083020633456489,-0.196778954778784,0.1464414734473015,-0.2411426609003233,-0.2621148339156967,-13.367136269761309,19.908819945795425,30.256221707928475,1.38242903614736,1.5985923626476082,0.6266798353263182,3504.5811631944443,11.943888888888887,0.2022222222222222,179.8086352509711,-11.333818781870614,108.96140753147635,1745.0,1435.0,1200.0,1528.0,1614.0,995.0,60.0,293.1,1649248622.6978767,1649248623.8404248,345d4f75-68b6-46dc-8e0b-79cc4bfe804a
0.1927117343377525,0.4564877122960146,0.0463535989412093,-0.3968495469466011,-0.1936758622942546,0.1361065981266498,-0.2420893670464433,-0.269556996948642,-13.366121317834317,19.87052472763212,30.04378003026664,1.3331382446258249,1.5925675552694545,0.6219192113083561,3507.13037109375,11.94611111111111,0.21,179.80841516709785,-11.343835254288436,108.8515621525145,1745.0,1435.0,1200.0,1528.0,1614.0,995.0,60.0,293.1,1649248623.9482377,1649248625.0684617,345d4f75-68b6-46dc-8e0b-79cc4bfe804a
0.2055448613211912,0.4574870131071202,0.0504296947409851,-0.3977962536395908,-0.1907700002212757,0.1387889318715349,-0.2389073819866686,-0.2589722949714299,-13.420155718729069,19.99233295699948,30.46687087587429,1.3423520324698623,1.593325167980557,0.6084962532355397,3507.13037109375,11.950333333333331,0.21,179.73647809693946,-11.277301717537174,108.72752515827716,1745.0,1435.0,1200.0,1528.0,1614.0,995.0,60.0,293.1,1649248625.1766996,1649248626.3000958,345d4f75-68b6-46dc-8e0b-79cc4bfe804a
0.2734710226903848,0.5864494140458225,0.0848661302115958,-0.461054644505368,-0.1914800297043209,0.0657084795378045,-0.2352388954752871,-0.2523190540392637,-13.089867014293825,20.01984808778609,29.90520058996447,1.3227997607515478,2.089624962217695,0.5717768517602425,3505.218098958333,11.925,0.2,179.56660218536234,-11.208300016038336,108.43809361546816,1849.0,1435.0,1200.0,1528.0,1686.0,995.0,60.0,293.1,1649248628.2262518,1649248629.372573,0cd9b348-f87b-4626-9846-4a1bcdad087e
0.2654108723428234,0.579651538733468,0.0749651618689523,-0.458319714782278,-0.1996059248973395,0.0693769657627943,-0.2443772403505353,-0.2632324729361703,-13.141796539100604,20.06124538686681,29.764404999439247,1.3246068496733243,2.064780513986503,0.6083013314121225,3504.2626953125,11.922999999999998,0.2,179.54742301417295,-11.17820221827824,108.30639846135142,1849.0,1435.0,1200.0,1528.0,1686.0,995.0,60.0,293.1,1649248629.4807336,1649248630.59336,0cd9b348-f87b-4626-9846-4a1bcdad087e
0.2786384600282154,0.5861338453681709,0.0803955735416031,-0.4652622293902559,-0.1969630365700367,0.0675098503223111,-0.2399329802210398,-0.2591695252031114,-13.094929699282297,20.09419133261244,29.53060456736875,1.336546927341156,2.0920331504661687,0.5913846793625183,3498.0667588975693,11.928111111111113,0.21,179.47959164661563,-11.134596867660804,108.13523847421033,1849.0,1435.0,1200.0,1528.0,1686.0,995.0,60.0,293.1,1649248630.7016437,1649248631.8233693,0cd9b348-f87b-4626-9846-4a1bcdad087e
0.3366899502248156,0.6862217114726671,0.112899150332084,-0.5122819774767284,-0.1944516351531247,0.0122853266318447,-0.2345025680917798,-0.2626670789416244,-12.884512570309004,20.46408148129249,29.6065557315783,1.3227036139760555,2.473117031247699,0.5477271879698721,3502.83056640625,11.87,0.1844444444444444,179.3598189671501,-11.104825401161058,107.89376624302342,1962.0,1435.0,1200.0,1528.0,1760.0,995.0,60.0,293.1,1649248632.7341092,1649248633.8704536,b91d9085-1895-417e-ad8f-bd89c476174c
0.3106555333730572,0.6828030507893926,0.1029455865643586,-0.5097837251933716,-0.2025249367408098,0.0120486497634301,-0.244561322941155,-0.2681500863071757,-12.96778912550858,20.43580931916048,29.347649720181224,1.315770093361171,2.462239992916968,0.5858090919542567,3498.541259765625,11.867,0.19,179.35531711357717,-11.064033898754186,107.66049479229996,1962.0,1435.0,1200.0,1528.0,1760.0,995.0,60.0,293.1,1649248633.9793336,1649248635.0984352,b91d9085-1895-417e-ad8f-bd89c476174c
0.3212270844931009,0.6867476592745264,0.101985732455205,-0.5169234701808219,-0.2043789020279635,0.0160852989627525,-0.2444955786290117,-0.2701355393404187,-12.987031139405874,20.37115277168755,29.53363523277153,1.3404900493736367,2.476339587638308,0.5902391327083649,3494.104899088541,11.869777777777776,0.19,179.29352059760652,-11.07863200514901,107.44229681016483,1962.0,1435.0,1200.0,1528.0,1760.0,995.0,60.0,293.1,1649248635.2061422,1649248636.3303444,b91d9085-1895-417e-ad8f-bd89c476174c
-0.0561667873660658,0.022777986744793,-0.0578892667390105,-0.2166860841474011,-0.1972523076180893,0.3865892483058047,-0.2525820277806632,-0.2763285764621639,-14.400780558791393,21.1735400735724,28.373824484788106,1.4922617985076465,-0.0407520932478995,0.729311372666211,3497.114013671875,11.960111111111113,0.21,179.62110102365978,-11.03326655272796,107.16837283241138,1459.0,1435.0,1200.0,1528.0,1394.0,995.0,60.0,293.1,1649248637.2368858,1649248638.3812802,945677db-1598-42ec-a539-dc346755938d
-0.0725763609750005,0.013310925313782,-0.0575342520303892,-0.1958848473414366,-0.1933208471020174,0.3778848110384173,-0.2527529617372226,-0.2766572941392121,-14.256550575752042,21.174175054960987,28.54056484760809,1.4259003396385872,-0.0812965302034068,0.7230886779671605,3497.114013671875,11.96,0.22,179.5548405996116,-11.01459784331528,107.1479642271714,1459.0,1435.0,1200.0,1528.0,1394.0,995.0,60.0,293.1,1649248638.4942963,1649248639.6083138,945677db-1598-42ec-a539-dc346755938d
-0.0635432063149847,0.0168084785821701,-0.0536027916230531,-0.22266874102719,-0.193202508787489,0.397292286440993,-0.2436409133292525,-0.2662566734221643,-14.26123612527295,21.14973939223231,28.331189881994728,1.5299274696143883,-0.0627432409398912,0.7044946760335081,3499.1762424045137,11.960444444444445,0.2144444444444444,179.5007272875473,-10.914839894847614,107.12434391520166,1459.0,1435.0,1200.0,1528.0,1394.0,995.0,60.0,293.1,1649248639.727245,1649248640.8438709,945677db-1598-42ec-a539-dc346755938d
-0.1712573327331948,-0.1445786259829788,-0.0987685658758542,-0.1157698330672433,-0.1984751369393169,0.4507285831137415,-0.2679134114215969,-0.2945921184965254,-14.715705307404692,21.95925212560262,27.167597801766227,1.4115713693686822,-0.6705245812698496,0.7869192126639557,3504.74072265625,11.913,0.2033333333333333,179.45121296952414,-10.86622222888051,106.93096684051038,1364.0,1435.0,1200.0,1528.0,1312.0,995.0,60.0,293.1,1649248642.769429,1649248643.9079475,a5c41215-e38b-418c-b531-19f19850c8d9
-0.1552422194188897,-0.155242219464914,-0.0956128780892053,-0.1177158390238967,-0.1927817505040205,0.4645741593395678,-0.2591169306245964,-0.2828897765222825,-14.722023052841845,21.872843960588987,27.44270796032177,1.4466989364795098,-0.7124749358448222,0.7614504556452136,3498.8587510850693,11.914666666666667,0.2,179.4456956944946,-10.817065357423928,106.70534064819788,1364.0,1435.0,1200.0,1528.0,1312.0,995.0,60.0,293.1,1649248644.016122,1649248645.3395786,a5c41215-e38b-418c-b531-19f19850c8d9
-0.1779105736766165,-0.1507716625083079,-0.09807168474434,-0.1036335841416622,-0.1959242895444791,0.4496898367260387,-0.2681237894103399,-0.2871762523212086,-14.733641522952889,22.064550475671023,27.74634935589451,1.3826767265843702,-0.7002030135402848,0.782912046154674,3498.700005425347,11.922111111111112,0.2,179.39339314147026,-10.870495555707476,106.54053577262457,1364.0,1435.0,1200.0,1528.0,1312.0,995.0,60.0,293.1,1649248645.4477923,1649248646.581437,a5c41215-e38b-418c-b531-19f19850c8d9
-0.2632587701463161,-0.3312901344807383,-0.124895026523621,-0.0365226355803334,-0.1871541081293427,0.551092573053583,-0.2605369901706008,-0.2804309699883641,-15.157961528234832,23.135959510947764,25.718815580460603,1.4643864410562626,-1.3662289050142349,0.7718774842891754,3499.1762424045137,11.866,0.19,179.41165251385144,-10.795702612702376,106.14708727894542,1262.0,1435.0,1200.0,1528.0,1222.0,995.0,60.0,293.1,1649248648.7072818,1649248649.844631,c8196c2a-fd65-44db-8de0-cb5d4da7079f
-0.2727126840398123,-0.3337489412571919,-0.126946223426293,-0.0183511387797329,-0.1852081009800107,0.5386407584637442,-0.2650469945961792,-0.2825084647703595,-15.210647279751909,23.02874667337864,25.961104370219854,1.3946143451427724,-1.3795945814046766,0.7786549429194811,3497.431342230903,11.870444444444445,0.19,179.41223080320117,-10.7585665895938,105.88529068151828,1262.0,1435.0,1200.0,1528.0,1222.0,995.0,60.0,293.1,1649248649.9523523,1649248651.0697355,c8196c2a-fd65-44db-8de0-cb5d4da7079f
-0.2660331454511686,-0.3313558780606492,-0.1284583232692341,-0.0324991375433213,-0.1877457993200161,0.5468981386446208,-0.2642843697771826,-0.290042668746933,-15.298136452670294,22.951401435024668,25.61496666259076,1.444396960303557,-1.365287352139812,0.7827345969247549,3491.416015625,11.869,0.19,179.395979506436,-10.727924558566093,105.64336689893624,1262.0,1435.0,1200.0,1528.0,1222.0,995.0,60.0,293.1,1649248651.1774075,1649248652.3048675,c8196c2a-fd65-44db-8de0-cb5d4da7079f
-0.310961741075955,-0.3864782569199301,-0.1250467424373522,-0.002384574290683,-0.174581930685807,0.5616438948109974,-0.2568750788960967,-0.2857137128382307,-15.522914420424016,23.54423255777116,24.01203309607788,1.4133327254099834,-1.5597135212775723,0.7405382560303122,3491.100151909722,11.725444444444443,0.13,179.39528586278027,-10.75410666579326,105.3076327448338,1153.0,1435.0,1200.0,1528.0,1121.0,995.0,60.0,293.1,1649248653.21125,1649248654.248173,8b64fb93-fe6c-425a-a6f1-f7ca2bb342ec
-0.3240452019242208,-0.4126674317467435,-0.1330340698914393,0.0229489170341764,-0.1749258193582399,0.568895905578357,-0.262969499467684,-0.2868738321502226,-15.672248438639212,23.71039489137853,24.655542813522256,1.373214015052232,-1.6662079416670403,0.7583596260170871,3489.99462890625,11.740666666666666,0.1322222222222222,179.43620932064738,-10.73349125760339,104.76513813981634,1153.0,1435.0,1200.0,1528.0,1121.0,995.0,60.0,293.1,1649248654.3568356,1649248655.5893357,8b64fb93-fe6c-425a-a6f1-f7ca2bb342ec
-0.3380556454046119,-0.412257292340978,-0.1338083260415122,0.0162891030404273,-0.1754037241498117,0.5757913850111034,-0.2608702595654523,-0.285195350336366,-15.67486039599152,23.583564818643943,24.82765447474952,1.402878782881667,-1.665407873069095,0.7573612838238375,3485.421630859375,11.748555555555557,0.14,179.46319463914813,-10.769282871810336,104.35533893217412,1153.0,1435.0,1200.0,1528.0,1121.0,995.0,60.0,293.1,1649248655.702309,1649248656.8091085,8b64fb93-fe6c-425a-a6f1-f7ca2bb342ec
0.0258547817564294,0.1898584673691643,-0.0235448712332509,-0.2737382843048433,-0.1966474677745601,0.284884089729441,-0.2531605709280071,-0.2797472378844297,-14.036205589573807,20.323435517552205,29.85725090472237,1.3889071732763625,0.5793605315375602,0.7049087027820369,3481.1769748263887,11.955111111111112,0.2044444444444444,179.17057567472648,-10.679024957568249,103.7098238249955,1553.0,1435.0,1200.0,1528.0,1471.0,995.0,60.0,293.1,1649248658.74483,1649248659.8844004,bd27504a-a7d0-4aa4-8b41-af9f9f5c99ad
0.0387273554015177,0.1839415542799036,-0.0226902057812174,-0.2630746903253055,-0.1935969697003573,0.2830958672201523,-0.2528187045288985,-0.2768019292896307,-14.066823527938338,20.368295685511,30.17882611210642,1.3612101318722494,0.5532771286603355,0.6988933485913268,3497.114013671875,11.957,0.21,179.02229075002572,-10.716726463421857,104.10960921640458,1553.0,1435.0,1200.0,1528.0,1471.0,995.0,60.0,293.1,1649248659.9924934,1649248661.10946,bd27504a-a7d0-4aa4-8b41-af9f9f5c99ad
0.0361633596118863,0.1856640334277132,-0.0179698239899247,-0.2711085459406484,-0.1902572007784822,0.2891705640099956,-0.2459419365662883,-0.2724234131970081,-14.015037817129956,20.33325520085613,30.27538358584629,1.39302741194815,0.5598029520926087,0.678443770891438,3504.10400390625,11.955888888888888,0.2144444444444444,178.92954892365543,-10.631994456809522,104.424358752647,1553.0,1435.0,1200.0,1528.0,1471.0,995.0,60.0,293.1,1649248661.2217176,1649248662.3109362,bd27504a-a7d0-4aa4-8b41-af9f9f5c99ad
0.0467875062219565,0.1882411777933801,-0.0323807952060603,-0.50218377767484,-0.2295849551061736,0.5082935706311171,-0.1990010847711577,-0.2284410186197935,-13.892481012004025,19.902914109126726,31.66450171622515,2.403387946838886,0.583819094390483,0.6853268640298492,3504.2626953125,11.946,0.205,178.81145647072574,-10.532863320493814,105.0108458471986,1553.0,1537.0,1200.0,1528.0,1471.0,995.0,60.0,293.1,1649248664.2713206,1649248665.410931,3413da81-7a4b-4110-804b-43d7d2d038d1
0.0243426816335776,0.174895251547117,-0.0400727832193167,-0.4803700849233332,-0.2297164426300662,0.5036915273098908,-0.2064826941743834,-0.2267053909091896,-14.068811258038068,19.767957005346823,31.95082091112454,2.342519418743397,0.5292984867605918,0.7055555097654236,3506.174858940972,11.948444444444444,0.2077777777777777,178.75588301599888,-10.601017556785006,105.1440110098067,1553.0,1537.0,1200.0,1528.0,1471.0,995.0,60.0,293.1,1649248665.5189164,1649248666.6440384,3413da81-7a4b-4110-804b-43d7d2d038d1
0.0521784717221972,0.1855193977884797,-0.0417952623226124,-0.4863921898225153,-0.2357648433133094,0.4960652841668141,-0.2112819693671037,-0.2364880219816975,-13.915441449198918,19.854019412581007,31.531493418060823,2.3394617347211506,0.5724101833616404,0.7236879535951772,3509.2043728298613,11.94511111111111,0.2,178.71752467362006,-10.552308442174017,105.31750919837364,1553.0,1537.0,1200.0,1528.0,1471.0,995.0,60.0,293.1,1649248666.7522542,1649248667.874109,3413da81-7a4b-4110-804b-43d7d2d038d1
0.0471951158593543,0.1705561819512022,-0.0587965270487786,-0.6890794061560519,-0.2711874352439052,0.7107966224289406,-0.1697189360232114,-0.1930315759898939,-14.043742311795514,19.619657527131743,33.53716272607269,3.277059393758784,0.523294282391874,0.7351800473153586,3504.8996310763887,11.934,0.2,178.68379416385895,-10.544919031265708,105.6011502585863,1553.0,1645.0,1200.0,1528.0,1471.0,995.0,60.0,293.1,1649248669.8024414,1649248670.9418726,26363e69-6bdf-4efe-b673-7a76cde8b940
0.0579770467654562,0.1885567465160708,-0.053497602246841,-0.7132598673496172,-0.27375143138721,0.71167758498138,-0.1656559883580647,-0.1959505870566638,-13.904699736544352,19.683735126621443,33.039189588119285,3.3342634703687306,0.5975509005741448,0.7269991567913743,3505.536566840278,11.939333333333334,0.2,178.673984494391,-10.526575704475997,105.6740837774536,1553.0,1645.0,1200.0,1528.0,1471.0,995.0,60.0,293.1,1649248671.0503905,1649248672.1713965,26363e69-6bdf-4efe-b673-7a76cde8b940
0.0551763744637383,0.1845463943125714,-0.0581653894403327,-0.695680053872051,-0.2758157768145653,0.7032755688939046,-0.1729535150888596,-0.2013152552072188,-13.90126253373646,19.73545880526996,33.54044518089342,3.2759193573544456,0.57558321125389,0.7469207414057334,3502.1944986979165,11.940333333333331,0.2,178.70016233274993,-10.52964426182436,105.75407288173352,1553.0,1645.0,1200.0,1528.0,1471.0,995.0,60.0,293.1,1649248672.2795994,1649248673.4019728,26363e69-6bdf-4efe-b673-7a76cde8b940
0.0412913511485747,0.1729623933090896,-0.0602297369181053,-0.8348722185875058,-0.29305372217745,0.8461492896870556,-0.1354271369300908,-0.1603570646154497,-13.774949512854668,19.72042069144944,34.152290898823686,3.910917740419628,0.542825789886298,0.7181191572413311,3505.536566840278,11.921777777777775,0.19,178.71655175111832,-10.460996686661238,105.84749089683162,1553.0,1761.0,1200.0,1528.0,1471.0,995.0,60.0,293.1,1649248674.1034515,1649248675.236127,430db958-939a-49da-a928-6cec943ba7b5
0.035913534457248,0.1750135898438948,-0.053800022238966,-0.836358020229037,-0.2878599842844806,0.8442690260293928,-0.1310749147656993,-0.1478920980584735,-13.876721498582638,19.834069218889088,34.01697810740368,3.911044889020847,0.5530310859755744,0.6960105581028568,3501.87646484375,11.925666666666665,0.19,178.7348217482382,-10.49605557335222,105.87764694092714,1553.0,1761.0,1200.0,1528.0,1471.0,995.0,60.0,293.1,1649248675.344422,1649248676.470492,430db958-939a-49da-a928-6cec943ba7b5
0.0479314428425739,0.1704115462858637,-0.0575868468257447,-0.8326106431211993,-0.2906606569686258,0.8470565498948346,-0.1349932266923261,-0.1612248770530172,-13.936117912924573,19.92153869891392,34.23224670977389,3.909251366286422,0.5335831342498929,0.7102680661486596,3501.3994140625,11.927444444444443,0.1911111111111111,178.73519816755245,-10.509723066472633,105.90808681732814,1553.0,1761.0,1200.0,1528.0,1471.0,995.0,60.0,293.1,1649248676.5793648,1649248677.6977968,430db958-939a-49da-a928-6cec943ba7b5
0.056872556278559,0.1510961120951988,-0.0604269657519841,-0.8470084684676158,-0.2949602816987484,0.8825843235120893,-0.1289053799162537,-0.1535197405060867,-13.80804660254168,20.23799658985976,34.715330822651936,4.023662876713592,0.4575484917874686,0.7095055282371228,3495.687744140625,11.875,0.18,178.7480996359847,-10.507332500263129,105.97592425616472,1553.0,1887.0,1200.0,1528.0,1471.0,995.0,60.0,293.1,1649248679.5910425,1649248680.5422602,a9a9da55-80c6-4f58-b5ea-19dec80713bf
0.0471556697210224,0.1564344826207069,-0.0580339026047338,-0.856804248960308,-0.2958806902471563,0.8879752881641276,-0.1267752904670391,-0.1510872313676532,-13.80168526911533,20.354041313055745,34.958803220679776,4.058804421011829,0.4767274590175802,0.7053246270944517,3493.3133138020835,11.870333333333331,0.18,178.77937279546444,-10.48172612106475,105.82317390556652,1553.0,1887.0,1200.0,1528.0,1471.0,995.0,60.0,293.1,1649248680.6526306,1649248681.8104146,a9a9da55-80c6-4f58-b5ea-19dec80713bf
0.0553473074663648,0.1630745740495475,-0.0545494979464908,-0.8574748331614737,-0.2933298427346007,0.8804805319584682,-0.1247503910792047,-0.1544007030398354,-13.75695728447629,20.26901739101497,34.75260000919058,4.043074887946699,0.5034448531922207,0.6947905434928796,3495.687744140625,11.877,0.18,178.8179405969778,-10.518253688154765,105.72940223845144,1553.0,1887.0,1200.0,1528.0,1471.0,995.0,60.0,293.1,1649248681.9185646,1649248683.0227745,a9a9da55-80c6-4f58-b5ea-19dec80713bf
0.0530725831143505,0.2008507769781753,0.0046196369345203,-0.0999256524520104,-0.1582269736760441,0.1058777453467795,-0.2793001821251115,-0.3077408159646485,-13.918789912455672,21.14604930068479,28.69207675702116,0.6013062822009099,0.6104836209818538,0.6523597089182102,3491.416015625,11.956333333333331,0.2044444444444444,178.82949424141384,-10.729316778791912,105.6193732032919,1553.0,1335.0,1200.0,1528.0,1471.0,995.0,60.0,293.1,1649248685.1612618,1649248686.299817,b0efd918-1ea5-4e56-b9a5-e295dd5cfc2c
0.0328367395139261,0.1773014629038676,-0.0015865479021304,-0.0612290364179423,-0.1536380784130913,0.096489577246047,-0.2865451147809096,-0.311422451596782,-14.126379979563032,21.11154056840516,29.092357296971464,0.4923412522551919,0.5149225645116523,0.6628077979878151,3493.6300998263887,11.958333333333334,0.2,178.78126855241408,-10.755570413277889,105.79582658703973,1553.0,1335.0,1200.0,1528.0,1471.0,995.0,60.0,293.1,1649248686.408393,1649248687.5205746,b0efd918-1ea5-4e56-b9a5-e295dd5cfc2c
0.0360880075387648,0.2011294281921018,-0.0016007078883871,-0.0910244909875155,-0.1620780248084456,0.0980385936189332,-0.2890767448787565,-0.3099882319422068,-14.14198665871924,21.14668463215117,28.721273849422115,0.5631986047743017,0.6113594416467177,0.6800003320918518,3500.327545166016,11.959375,0.2,178.7676886185243,-10.693547042534654,105.96908382171094,1553.0,1335.0,1200.0,1528.0,1471.0,995.0,60.0,293.1,1649248687.651939,1649248688.6006975,b0efd918-1ea5-4e56-b9a5-e295dd5cfc2c
0.0309038811320928,0.2198637909155567,0.0180444558563227,0.0553604539417776,-0.1356243632823952,-0.067172249164109,-0.3203504185201815,-0.3540505320372689,-14.082530330677436,21.868582566132897,26.95453179538028,-0.132748742993565,0.6800969868383582,0.6625218575266603,3502.194878472222,11.955555555555556,0.2,178.74222415547865,-10.768457462421884,106.262317123703,1553.0,1236.0,1200.0,1528.0,1471.0,995.0,60.0,293.1,1649248690.6917474,1649248691.8298368,3b7c642c-dd13-4f99-ac8f-44c405a85149
0.0357031552598713,0.2089240760909609,0.0127718287909618,0.0675361479997199,-0.137149611983744,-0.0640954528489028,-0.3249130159414168,-0.3534193940220492,-14.167087373217685,21.91895295141365,27.423682343766785,-0.1531965623935352,0.6336743187036366,0.6776475798131366,3498.065863715278,11.949222222222224,0.2011111111111111,178.75997961168105,-10.699547873613104,106.3539266564908,1553.0,1236.0,1200.0,1528.0,1471.0,995.0,60.0,293.1,1649248691.938226,1649248693.058671,3b7c642c-dd13-4f99-ac8f-44c405a85149
0.0284187774407197,0.1992334873873814,0.0158486232512054,0.0755962947812195,-0.1311801040662159,-0.0616760970036186,-0.3195614976985013,-0.3377329977893682,-14.13792876761602,21.88562724036375,27.50556888997809,-0.1659816486174341,0.595598693993271,0.6567511354230724,3502.83056640625,11.950333333333331,0.2,178.75825840401023,-10.79099623290928,106.4459892584936,1553.0,1236.0,1200.0,1528.0,1471.0,995.0,60.0,293.1,1649248693.1672518,1649248694.2944844,3b7c642c-dd13-4f99-ac8f-44c405a85149
0.0127849775367778,0.1958937186907744,0.0188333778552048,0.2315398311787253,-0.114639042515576,-0.2057200709540987,-0.3620843865015347,-0.3871458064019719,-14.304070492766918,22.6473912817198,26.81704424314669,-0.8364330424844035,0.5713529670863562,0.6902598785422562,3499.3349880642363,11.94788888888889,0.2,178.74698252060043,-10.850361011807925,106.58663271933295,1553.0,1133.0,1200.0,1528.0,1471.0,995.0,60.0,293.1,1649248695.1965592,1649248696.3426254,6bd4e55c-09b0-4265-a4aa-0582cf2b819c
0.0191752439549496,0.2058998761107263,0.019766935040948,0.2176022144096556,-0.119582952860717,-0.2056674752076477,-0.3632020263504604,-0.3858309364536129,-14.19563852324884,22.83077117771818,26.390540326259643,-0.8036262770209845,0.6136730912291358,0.6977999631142224,3499.969970703125,11.946000000000002,0.2,178.75150107019135,-10.851134625595169,106.64605232947244,1553.0,1133.0,1200.0,1528.0,1471.0,995.0,60.0,293.1,1649248696.4568958,1649248697.56401,6bd4e55c-09b0-4265-a4aa-0582cf2b819c
0.0221205519661601,0.2113171387707242,0.0246188040861181,0.2138153903518252,-0.1158355741930364,-0.2080999838490278,-0.3592311191041952,-0.3828724791155541,-14.230212171713571,22.7928902921027,26.338237695037115,-0.8005855685519785,0.6354725598429123,0.680968427183545,3498.0655110677085,11.939333333333334,0.1933333333333333,178.78750527403625,-10.844188323209265,106.7121913279354,1553.0,1133.0,1200.0,1528.0,1471.0,995.0,60.0,293.1,1649248697.672253,1649248698.8015523,6bd4e55c-09b0-4265-a4aa-0582cf2b819c
0.0232381911345306,0.2143413387272189,0.0298782827210533,0.2505659944027278,-0.1110625969964377,-0.2473619959581691,-0.368159085307831,-0.3930364232743736,-14.167379542936931,23.22745331930561,25.96943520300013,-0.9685974140718971,0.6454551284970914,0.6800433184090704,3496.16357421875,11.929333333333332,0.19,178.79524615509558,-10.861605021001582,106.76393001089824,1553.0,1026.0,1200.0,1528.0,1471.0,995.0,60.0,293.1,1649248700.739114,1649248701.8785143,c000edbd-6f2f-4652-88d6-aa76750595b2
0.0375965675177831,0.2294754874426514,0.0328630363329457,0.2364705919462684,-0.1140079055796005,-0.2502415622504589,-0.3687770756269561,-0.3848579332038636,-14.165806858747676,23.365975013409507,25.83048210964146,-0.9422268698960486,0.7053648067941741,0.6823221845938114,3495.687744140625,11.934,0.2,178.8365915668714,-10.790302114934878,106.71378959220118,1553.0,1026.0,1200.0,1528.0,1471.0,995.0,60.0,293.1,1649248701.9954033,1649248703.297103,c000edbd-6f2f-4652-88d6-aa76750595b2
0.0307329480508222,0.2194298839408446,0.0288000892164856,0.2303958952149545,-0.1152701804828212,-0.2337399455262856,-0.3666469863395757,-0.3937858995948072,-14.229523343127232,23.234371997865,25.97625340603161,-0.8925260626675672,0.6673348123846113,0.6854931683622826,3491.2580837673613,11.930888888888887,0.19,178.85506343402673,-10.838036504633068,106.70173886177557,1553.0,1026.0,1200.0,1528.0,1471.0,995.0,60.0,293.1,1649248703.4075177,1649248704.6748798,c000edbd-6f2f-4652-88d6-aa76750595b2
0.027800788783156,0.1913574187131188,-0.0192715447932979,-0.2942634033231432,-0.1961741145180066,0.3033711551182793,-0.2446139177621717,-0.2695964432984637,-13.993835914462828,20.40173527891473,30.055356527232103,1.4775344661633083,0.5857261386453162,0.6865486632330021,3489.99462890625,11.954333333333333,0.1944444444444444,178.8742501943152,-10.631159561047228,106.66982821797326,1553.0,1435.0,1200.0,1528.0,1471.0,995.0,60.0,293.1,1649248705.6424515,1649248706.9941933,ece17744-bee2-4b3e-9adb-b4b559fe4517
0.049851152499621,0.1905159021657579,-0.0205995632687298,-0.2737514332377265,-0.1963844938852961,0.2858965391817621,-0.2528844483443789,-0.2774199183854423,-14.053197284582858,20.61391220627048,30.09988269909148,1.393314328613726,0.5799893973390726,0.7004331495638629,3495.2157389322915,11.956666666666669,0.2,178.8810697587465,-10.628849534151689,106.6928846598815,1553.0,1435.0,1200.0,1528.0,1471.0,995.0,60.0,293.1,1649248707.108611,1649248708.224703,ece17744-bee2-4b3e-9adb-b4b559fe4517
0.0355059248209743,0.1976556439098977,-0.017272943031493,-0.2956440151430722,-0.1956350181267243,0.2976251758142576,-0.244890040204703,-0.2717133834639537,-14.006262889511136,20.412436568652325,29.941708828463643,1.4678828911095376,0.6107403892303535,0.6840598277982458,3500.605278862847,11.95522222222222,0.2,178.90321474985552,-10.657168541951684,106.70300927696118,1553.0,1435.0,1200.0,1528.0,1471.0,995.0,60.0,293.1,1649248708.3333497,1649248709.4431355,ece17744-bee2-4b3e-9adb-b4b559fe4517
0.0548345083845445,0.1944079160539851,0.0458539485575861,-0.2717659795993466,-0.1342963449354279,0.2779021325701787,-0.1832094994826872,-0.2119262544736165,-13.532232413860916,20.54438235511721,30.28749034130105,1.3740112981921573,0.5932039599346229,0.4272269195675277,3499.971028645833,11.954666666666668,0.2,178.90270324457762,-10.653007913246022,106.6756839668217,1553.0,1435.0,1200.0,1435.0,1471.0,995.0,60.0,293.1,1649248710.069403,1649248711.2859943,cc6399a9-4e5e-4440-af11-d76f37876634
0.0550054414490604,0.1746848724812232,0.0460906252206879,-0.2419841775112938,-0.1241981454334124,0.2749436763954317,-0.180514016086323,-0.2041948202995336,-13.643829682446388,20.339914714825568,31.03217723437828,1.2989016796207584,0.5097650310304364,0.4082432255991117,3502.83056640625,11.958666666666666,0.2,178.90648716937784,-10.670952812334152,106.67986631932348,1553.0,1435.0,1200.0,1435.0,1471.0,995.0,60.0,293.1,1649248711.4030888,1649248712.5170772,cc6399a9-4e5e-4440-af11-d76f37876634
0.0771346971383125,0.2130001717765515,0.0536379769298728,-0.2989180427059288,-0.1334022333336326,0.2800585178378392,-0.1758725260805145,-0.1949249884986107,-13.505738535053474,20.50399599364694,29.68834098661948,1.4401430809364533,0.6718947324393834,0.4061539817324764,3505.218098958333,11.955666666666666,0.1966666666666666,178.91491562281365,-10.64350797388418,106.69998122642914,1553.0,1435.0,1200.0,1435.0,1471.0,995.0,60.0,293.1,1649248712.6256285,1649248713.7609596,cc6399a9-4e5e-4440-af11-d76f37876634
0.0846031565519106,0.2101863509150739,0.1402089917663231,-0.2765915507067298,-0.0487640713155323,0.261387371211344,-0.0865008314932963,-0.1097345788055032,-12.806054191666654,20.421413862075667,30.239122289258606,1.3520266381689134,0.6542453099857465,0.0467769881658927,3506.6521809895835,11.955,0.2,178.91003886774627,-10.663754077540176,106.67371004215154,1553.0,1435.0,1200.0,1330.0,1471.0,995.0,60.0,293.1,1649248715.6774724,1649248716.8157415,ebab5b35-3327-4def-af91-d999e2969c01
0.0775291580182295,0.2158139926335586,0.1483348858972194,-0.288990773114068,-0.0440962838952564,0.2668703771709689,-0.0767970930904829,-0.0960730825435077,-12.699218803133428,20.43277002698304,30.247265560131503,1.3928522655518143,0.6765660004082055,0.016180513729061,3505.69580078125,11.95411111111111,0.1988888888888889,178.91150204604844,-10.727741281823365,106.68993325925015,1553.0,1435.0,1200.0,1330.0,1471.0,995.0,60.0,293.1,1649248716.9237075,1649248718.050534,ebab5b35-3327-4def-af91-d999e2969c01
0.1128814503174124,0.2155929934055191,0.1491288648678373,-0.2976866141876798,-0.0454086249806566,0.2749770536610539,-0.0753092673363654,-0.1033893209371526,-12.732556934314449,20.571822162746425,30.237879031095016,1.4316277874421492,0.6771796070313614,0.0145707326546024,3509.524169921875,11.948333333333332,0.19,178.93934037928562,-10.658738157368449,106.64500275707,1553.0,1435.0,1200.0,1330.0,1471.0,995.0,60.0,293.1,1649248718.159243,1649248719.2722125,ebab5b35-3327-4def-af91-d999e2969c01
0.1119129982343981,0.2195745196204006,0.2427162236002935,-0.285059312597171,0.0417778526563477,0.2510524963528201,0.0171503438846812,-0.0165629138640903,-12.092412057922656,20.71417710899769,29.75583617593406,1.3552311200272762,0.6962349593292345,-0.3630912121635174,3488.733452690972,11.95411111111111,0.2,178.8998011730903,-10.68770498963847,106.60423715246372,1553.0,1435.0,1200.0,1210.0,1471.0,995.0,60.0,293.1,1649248721.2099717,1649248722.3440225,be2f4450-99fc-472e-8bae-ffdfa346665d
0.1125704330476693,0.2189828283150102,0.2422034243940756,-0.2855589635562798,0.0415543246724742,0.2543922649570999,0.0163614218109703,-0.0134466724477265,-12.2074913481879,20.76084505855665,30.07763428482052,1.3641403181576957,0.6920079720453441,-0.3606862392107709,3474.902886284722,11.949222222222222,0.1911111111111111,178.9156426585053,-10.642800480122654,106.618742956441,1553.0,1435.0,1200.0,1210.0,1471.0,995.0,60.0,293.1,1649248722.451649,1649248723.5734026,be2f4450-99fc-472e-8bae-ffdfa346665d
0.121906007147515,0.2361944708278715,0.2376934218416127,-0.2987076614430159,0.0317059511821348,0.246121735242872,0.0081697838758812,-0.0150771109297003,-12.12399481456165,20.77088881528765,29.52895615527057,1.375012155395491,0.7621671949063504,-0.3282138931864797,3466.003173828125,11.952666666666666,0.19,178.92706880607682,-10.707369673441368,106.62129061700142,1553.0,1435.0,1200.0,1210.0,1471.0,995.0,60.0,293.1,1649248723.681895,1649248724.803994,be2f4450-99fc-472e-8bae-ffdfa346665d
0.1397882336779682,0.2432027255768886,0.3315751076460156,-0.2942502524532124,0.1170804355770508,0.2308692485238657,0.1032743047060383,0.0753990688219365,-11.368542947755616,20.9118512420203,29.64218994253256,1.3366904220648737,0.7875071068452779,-0.706359431856869,3460.8721516927085,11.943,0.19,178.87970372091252,-10.695791649024551,106.58035729330554,1553.0,1435.0,1200.0,1071.0,1471.0,995.0,60.0,293.1,1649248726.7369075,1649248727.8356216,6bfcda06-f917-45dc-9ffa-354b44df0084
0.1457051466828621,0.2383508569186987,0.3266443463669458,-0.2792344428945965,0.1151607253753921,0.2224672305089867,0.0952535982345817,0.0687195305363496,-11.490484927326348,20.96982189216648,29.687662625652543,1.2840226198326392,0.7676093331941622,-0.6861041203232319,3466.705108642578,11.941625,0.19,178.8968953070534,-10.727400768434116,106.552913024038,1553.0,1435.0,1200.0,1071.0,1471.0,995.0,60.0,293.1,1649248727.943782,1649248729.0990674,6bfcda06-f917-45dc-9ffa-354b44df0084
0.1403010327725798,0.2325391334704552,0.3268810230916052,-0.2718580223324313,0.1167517178305076,0.2231246657397566,0.0953719372378579,0.0671022412646778,-11.502152137794258,21.05161313012869,29.93751026025794,1.2694485101237167,0.742788217042956,-0.6890900972526265,3478.664469401041,11.943,0.1966666666666666,178.88813672780776,-10.687398484899468,106.52601175480947,1553.0,1435.0,1200.0,1071.0,1471.0,995.0,60.0,293.1,1649248729.2073958,1649248730.5387363,6bfcda06-f917-45dc-9ffa-354b44df0084
0.0109573086601711,0.1771436785450049,-0.1085511960758364,-0.2608657074566212,-0.2764863606318982,0.2918923448744199,-0.3456879595392826,-0.3702628772726428,-14.624669607938143,20.79365678723996,30.081391872912704,1.3742421964974527,0.5268849280334972,1.0595504190920402,3487.15478515625,11.953,0.19,178.92892206407163,-10.744603880519264,106.53957878723084,1553.0,1435.0,1200.0,1613.0,1471.0,995.0,60.0,293.1,1649248731.0907,1649248732.176473,4e5f0bcc-dab7-4ee8-9fcb-b0871e6eafc6
0.0061580344494228,0.1764862437225365,-0.1101027426806309,-0.2636006407958575,-0.2772226880367002,0.2927996032650337,-0.3459114880984135,-0.3719064647659567,-14.639010463763707,20.68804418886804,29.75548595414499,1.3816137213444144,0.5276457226504417,1.0624566345574085,3486.9976399739585,11.95322222222222,0.19,178.93483700789284,-10.703360636989787,106.54357824244482,1553.0,1435.0,1200.0,1613.0,1471.0,995.0,60.0,293.1,1649248732.284089,1649248733.40959,4e5f0bcc-dab7-4ee8-9fcb-b0871e6eafc6
0.004093689145369,0.1757367681383409,-0.1027657698255142,-0.2612864678852897,-0.2700040530314143,0.2926944146287142,-0.3387322986085134,-0.3625182938108163,-14.636561658716444,20.728443145730136,29.99431994325497,1.376829587338659,0.5228815077502733,1.0326534455164191,3490.9425455729165,11.955,0.1988888888888889,178.93695436653556,-10.688312497019648,106.55296519909416,1553.0,1435.0,1200.0,1613.0,1471.0,995.0,60.0,293.1,1649248733.5425174,1649248734.6340387,4e5f0bcc-dab7-4ee8-9fcb-b0871e6eafc6
-0.0088704198474575,0.1732263786383887,-0.1998931735766931,-0.2562429309200365,-0.3602693608089748,0.3018433777751917,-0.4410074303751057,-0.4713632246668623,-15.300768719956976,20.773601611354067,30.840238668665968,1.3812751094825233,0.5038921978238349,1.434061925002274,3550.2283528645835,11.948666666666664,0.19,178.9304930075807,-10.69188620377538,106.55432061218946,1553.0,1435.0,1200.0,1694.0,1471.0,995.0,60.0,293.1,1649248736.7721837,1649248737.9196675,9cda09ea-6822-42b2-a1f0-4aaef2bf09ed
-0.006819728911948,0.1584462331327611,-0.1980938244586944,-0.215108239848292,-0.3493301488754626,0.2865802718217148,-0.4415682717495627,-0.4647099820827198,-15.37934738520483,20.680908365224266,32.00207173450927,1.2538078566960185,0.4337644654568919,1.4177021584494924,3574.2447645399307,11.953,0.19,178.92412878909408,-10.716909265845892,106.54327088393218,1553.0,1435.0,1200.0,1694.0,1471.0,995.0,60.0,293.1,1649248738.028468,1649248739.1406124,9cda09ea-6822-42b2-a1f0-4aaef2bf09ed
-0.0024017669964012,0.1721340252794669,-0.2044577947114537,-0.2465467772969351,-0.3645694911960885,0.2959421419148891,-0.448142621741083,-0.4722573357937256,-15.256519160104784,20.88995317018347,31.07162844165773,1.3467452774083026,0.4959500159151144,1.4565623200249609,3594.726806640625,11.952222222222222,0.19,178.9411238175689,-10.67319045819724,106.54032176003057,1553.0,1435.0,1200.0,1694.0,1471.0,995.0,60.0,293.1,1649248739.2489069,1649248740.3629637,9cda09ea-6822-42b2-a1f0-4aaef2bf09ed
-0.0443329604350833,0.1560005756703813,-0.2800891051005453,-0.2273496780023557,-0.4317198969271959,0.2985981792184889,-0.5297697503354069,-0.5501107880586361,-15.884016525730187,21.14080832165672,31.10981518083585,1.3069970309560248,0.4323886535525474,1.765065292400816,3595.396728515625,11.942,0.19,178.89834406606735,-10.68554513204093,106.55986748470542,1553.0,1435.0,1200.0,1774.0,1471.0,995.0,60.0,293.1,1649248742.090438,1649248743.232808,dd10e4c9-acb4-4bf8-8fbb-ed8a084badad
-0.0434257003115595,0.165796354073785,-0.2765784021663665,-0.2375662155576116,-0.4323247365990575,0.2963629009327486,-0.5281919046402722,-0.5524907019331268,-15.842206827360569,21.21560149208342,30.83774491555474,1.3256683667423477,0.4727259142149201,1.7595676368230473,3598.0801595052085,11.938,0.1822222222222222,178.91288477990045,-10.67559999715444,106.53994002834696,1553.0,1435.0,1200.0,1774.0,1471.0,995.0,60.0,293.1,1649248743.341791,1649248744.464667,dd10e4c9-acb4-4bf8-8fbb-ed8a084badad
-0.0469364023487102,0.1487687928224364,-0.2777486359579443,-0.1965159831116738,-0.424382921914477,0.2791512574746544,-0.5336223177187482,-0.5526616348091911,-16.039911666117703,21.24385570373775,31.36785946517205,1.1945062532184876,0.4004352515593746,1.7569749263773893,3599.927001953125,11.943333333333335,0.1822222222222222,178.89822415830193,-10.679290196581016,106.51456587558036,1553.0,1435.0,1200.0,1774.0,1471.0,995.0,60.0,293.1,1649248744.5730443,1649248745.7015908,dd10e4c9-acb4-4bf8-8fbb-ed8a084badad
-0.0533529663081263,0.1723707019889766,-0.3149331557375638,-0.2221427931445665,-0.4699694634750683,0.27327379182394,-0.5788669975636328,-0.608109705422896,-16.157383746143804,21.498390340570605,30.1461074155476,1.238688521193744,0.5014187821679866,1.9348921661242184,3578.392333984375,11.926333333333332,0.1866666666666666,178.86935370759022,-10.70474147356699,106.47332822901144,1553.0,1435.0,1200.0,1856.0,1471.0,995.0,60.0,293.1,1649248747.6268845,1649248748.7701027,589ac4b6-e514-4716-9b93-2c74595962cc
-0.0540235498476686,0.1638634957634673,-0.3256361954007448,-0.2066667795860807,-0.4775299649252881,0.2690004640612677,-0.5925679431272849,-0.6115020698437226,-16.309040861294417,21.66147710721192,30.28434127449956,1.1946695650922972,0.4667786367447011,1.9784147884872527,3558.9107530381943,11.928333333333336,0.1822222222222222,178.86015875514758,-10.693293791926834,106.42251389831628,1553.0,1435.0,1200.0,1856.0,1471.0,995.0,60.0,293.1,1649248748.8792508,1649248749.993243,589ac4b6-e514-4716-9b93-2c74595962cc
-0.0539446576258581,0.1484926702655498,-0.3252943282410823,-0.1835513680094489,-0.4708767220594796,0.262899469583121,-0.5917790186147763,-0.615749099284218,-16.334786477632775,21.61127885286129,30.30703441461596,1.1284920208120337,0.4062846074580359,1.9661409792612656,3548.6940002441406,11.921375,0.18625,178.86384572920704,-10.698678435592038,106.36133475555562,1553.0,1435.0,1200.0,1856.0,1471.0,995.0,60.0,293.1,1649248750.1018736,1649248751.4287703,589ac4b6-e514-4716-9b93-2c74595962cc
0.0027130760268718,0.1586040174395377,-0.1128639685386921,-0.2167518270143463,-0.2378291886237085,0.2998078594412375,-0.3075830315520063,-0.3332098445576449,-14.21196283195478,16.80282404397514,34.572194785172044,1.266772454639628,0.4088545652737025,0.9649273414565884,7221.759602864583,11.62011111111111,7.966666666666667,-178.95074072392026,-10.770765971497612,93.68287237916518,1553.0,1435.0,1350.0,1528.0,1471.0,995.0,60.0,293.1,1649248755.1440763,1649248756.3408308,580a8898-df52-447f-b113-71e380515d20
0.0237115442462725,0.1610891209649303,-0.1194777633552745,-0.2333849303249471,-0.2444429837400543,0.3028846538509139,-0.3099103513795606,-0.335997368822406,-14.14632437285045,16.486409486538033,33.1482751084909,1.3085858149750087,0.431954051239579,0.9845868163867324,7231.915364583333,11.619111111111112,8.037777777777778,-178.3157107160275,-10.640405075862486,87.50520229586996,1553.0,1435.0,1350.0,1528.0,1471.0,995.0,60.0,293.1,1649248756.450677,1649248757.5800078,580a8898-df52-447f-b113-71e380515d20
0.0269329748598234,0.1610496748757396,-0.1176632430784833,-0.2217220347490848,-0.2417869467396586,0.2920632777576262,-0.3121193325380266,-0.3404284798736113,-14.206395358077453,16.581932184007936,33.12882933891658,1.258650347532134,0.4310843182882,0.9816297740570172,7239.38037109375,11.619999999999996,8.035555555555554,-178.0703946061577,-10.508879822701353,82.58083094413706,1553.0,1435.0,1350.0,1528.0,1471.0,995.0,60.0,293.1,1649248757.6926868,1649248758.81523,580a8898-df52-447f-b113-71e380515d20
0.0912958428208457,0.3011621753364931,-0.0803735383801846,-0.2597612170633755,-0.236540616282463,0.2096472541412409,-0.3134342021901225,-0.330869376267754,-14.29901624202994,16.653354089015767,36.08585138056031,1.1620125999431588,0.938087536037493,0.946222834194432,7239.38037109375,11.619222222222223,8.05,-178.2396649076284,-10.358614522596207,76.471717746271,1647.0,1435.0,1350.0,1528.0,1543.0,995.0,60.0,293.1,1649248759.7094223,1649248760.850458,c1533167-3aa5-4089-973c-ccd796a1f086
0.0885083191758318,0.3042521187565876,-0.0958627034619213,-0.2820614093011602,-0.2506097230162171,0.2008376279039928,-0.3203635664506289,-0.3449910784586428,-13.838106077145923,15.851674157711711,32.26786641238229,1.1860576750389884,0.9820033026747432,0.9918096134454752,7239.38037109375,11.618111111111112,8.04888888888889,-178.36214082418545,-10.318480900215643,73.27455704275184,1647.0,1435.0,1350.0,1528.0,1543.0,995.0,60.0,293.1,1649248760.9589424,1649248762.0802677,c1533167-3aa5-4089-973c-ccd796a1f086
0.0975940682413445,0.3102084777838562,-0.0647660352609148,-0.2460471249016428,-0.2229843089717765,0.2000355576601279,-0.3055449835567919,-0.3259386144949028,-14.484404386197994,16.962633428318806,37.86143350640052,1.1124953205815435,0.9568980418148808,0.8987139140732596,7239.38037109375,11.613333333333337,8.05,-178.50446830611014,-10.312893995202051,70.44763736793195,1647.0,1435.0,1350.0,1528.0,1543.0,995.0,60.0,293.1,1649248762.188638,1649248763.3023746,c1533167-3aa5-4089-973c-ccd796a1f086
0.1685838776009824,0.4431417867550495,-0.0765341190426388,-0.3571799225660365,-0.2672428260125452,0.1272706748017157,-0.331369027063004,-0.3537612603647516,-13.52941170297994,15.651057362831557,31.355667171984862,1.1898343709263584,1.519294561511357,1.0189455994547736,7245.5,11.607666666666669,8.04,-178.9153132916053,-10.299105455951349,67.03041479954415,1745.0,1435.0,1350.0,1528.0,1614.0,995.0,60.0,293.1,1649248764.2151644,1649248765.348818,968f0518-08c3-46a3-ae17-3e92e66631e2
0.1855851412595702,0.4525562524652763,-0.0757714945608208,-0.3721694384523466,-0.2699909037887044,0.126481753312764,-0.3291731941923025,-0.3553128066846374,-13.336969206061644,15.514602286882091,30.60511489906468,1.2209848590913994,1.5617861594228293,1.0186623588825034,7245.5,11.597777777777775,8.05,-179.23514524750013,-10.337486850218587,64.9698059219241,1745.0,1435.0,1350.0,1528.0,1614.0,995.0,60.0,293.1,1649248765.456876,1649248766.5899966,968f0518-08c3-46a3-ae17-3e92e66631e2
0.1788135629197438,0.4504787586381178,-0.0461343320301502,-0.3338804286443475,-0.2421025155491253,0.1305972949120139,-0.3159850498193861,-0.3472395058795927,-14.188335062666816,16.75795457182664,36.06418300188502,1.1540221217969648,1.5088221977087295,0.9281797468835516,7245.5,11.603222222222222,8.044444444444444,-179.4740349082709,-10.387574240085849,63.29938677883921,1745.0,1435.0,1350.0,1528.0,1614.0,995.0,60.0,293.1,1649248766.7094765,1649248767.8114576,968f0518-08c3-46a3-ae17-3e92e66631e2
0.2744966209686419,0.6215432809369003,-0.0444907448644629,-0.4886011694100556,-0.2857956386736461,0.0627500232990755,-0.3282264878021253,-0.3550103866046407,-12.97829061382161,15.294480995228382,29.967069817052685,1.340589814708829,2.215021135805167,1.0150697975335607,7245.5,11.585111111111113,8.038888888888888,179.87025721766292,-10.46485043117294,60.363898970432224,1849.0,1435.0,1350.0,1528.0,1686.0,995.0,60.0,293.1,1649248769.5887723,1649248770.884634,484e21b1-ae65-49b7-a0be-a044dc585d76
0.2828986373490142,0.6253958485590327,-0.0376928688896746,-0.4639079115946323,-0.27895831606594,0.0517971593479288,-0.3296333990210962,-0.3579819926284402,-13.132236641337505,15.643222105967697,32.19515940779188,1.263203340863941,2.2082092919779392,1.0020684153320871,7245.5,11.580666666666666,8.047777777777776,179.5640446589731,-10.487184390848974,59.30601650448342,1849.0,1435.0,1350.0,1528.0,1686.0,995.0,60.0,293.1,1649248770.993409,1649248772.3243425,484e21b1-ae65-49b7-a0be-a044dc585d76
0.2684613697182196,0.6156789629750549,-0.0361018763305574,-0.482145158362569,-0.2792607357432621,0.0624344543875917,-0.3234798076210354,-0.3523674984340777,-13.043797049579858,15.72880113099034,29.9961697857017,1.32858604477092,2.1929764063072663,0.987139814579718,7245.5,11.583666666666668,8.036666666666667,179.36069930264316,-10.499873933689477,58.51884782737817,1849.0,1435.0,1350.0,1528.0,1686.0,995.0,60.0,293.1,1649248772.4402363,1649248773.545745,484e21b1-ae65-49b7-a0be-a044dc585d76
0.3717838179664327,0.7552129140234706,0.0093663163083598,-0.5537792747284079,-0.2745272044062489,-0.00211249586972,-0.3139601501479765,-0.3404547773007009,-13.014295019505573,16.207853334292945,31.083870588419,1.3507573888967517,2.718174744133142,0.9227741118536588,7245.5,11.518888888888888,8.022222222222222,178.88988980969472,-10.549749303101246,57.07391485772775,1962.0,1435.0,1350.0,1528.0,1760.0,995.0,60.0,293.1,1649248775.0878856,1649248776.2114077,fcdb4fef-c543-4250-9d1f-37ab7c5857d1
0.3607126165544319,0.7404206321695831,0.0093268702685049,-0.5534242592129283,-0.2728704684522707,0.0042383247276456,-0.306504838118909,-0.3330783574071391,-12.579471020199712,16.067685225648944,30.00131697623305,1.3633428612746832,2.66916317369011,0.9070045803085846,7242.780164930556,11.52422222222222,8.044444444444444,178.73370311503413,-10.56229066878225,56.57567039215816,1962.0,1435.0,1350.0,1528.0,1760.0,995.0,60.0,293.1,1649248776.3196442,1649248777.2703695,fcdb4fef-c543-4250-9d1f-37ab7c5857d1
0.3396615553997282,0.7195799506155585,-0.0006003956984945,-0.5528851624603683,-0.2769991597942303,0.009497803331293,-0.3095027416260916,-0.3369309262241693,-12.509063554145811,15.83035213495224,27.87066861741141,1.371573724114709,2.608683767656664,0.925052893388046,7229.205078125,11.526666666666666,8.036666666666667,178.62686833167643,-10.54637699206229,56.14911483320711,1962.0,1435.0,1350.0,1528.0,1760.0,995.0,60.0,293.1,1649248777.3808413,1649248778.4582255,fcdb4fef-c543-4250-9d1f-37ab7c5857d1
-0.1267226951940357,-0.0638193290478484,-0.1478920982996606,-0.1128508206215395,-0.2213144247766474,0.412360691021757,-0.2931194638603451,-0.3136051355397364,-14.227009215612236,17.271159057077995,33.10842081432326,1.286438055346474,-0.4272934217080407,0.9413183001720236,7215.00537109375,11.626777777777775,8.108888888888888,178.59902240934017,-10.608854534811428,55.26178788265783,1459.0,1435.0,1350.0,1528.0,1394.0,995.0,60.0,293.1,1649248780.1893532,1649248781.3303328,571482a7-f960-4ec3-863d-68ed0bb617fd
-0.1173739714696598,-0.0625570540331938,-0.1647618768276776,-0.1589895990217465,-0.2376977020576404,0.4171994109577456,-0.3051373740347653,-0.3238085252020857,-14.668229536107908,16.805033635892382,27.832247208802222,1.396395929392757,-0.3680703684454006,0.995928583762538,7215.00537109375,11.628666666666666,8.100000000000001,178.60423004912732,-10.635116327578912,54.95204753126168,1459.0,1435.0,1350.0,1528.0,1394.0,995.0,60.0,293.1,1649248781.4441383,1649248782.7623465,571482a7-f960-4ec3-863d-68ed0bb617fd
-0.1190964509809162,-0.0649369683247992,-0.1627764233831065,-0.1465246338216545,-0.2347786909555978,0.4204865845144688,-0.3023367011006356,-0.3230853467949067,-14.520259932718943,16.850182066802162,29.615787820054503,1.3764216872737207,-0.3952593330979617,0.9876806318383392,7215.00537109375,11.629,8.10222222222222,178.5012748132182,-10.710379889590577,54.711129304307455,1459.0,1435.0,1350.0,1528.0,1394.0,995.0,60.0,293.1,1649248782.8712175,1649248783.9905398,571482a7-f960-4ec3-863d-68ed0bb617fd
-0.2383682851209853,-0.2734621597826853,-0.1807112467422028,-0.013906877077654,-0.2005920772221213,0.5196803406613213,-0.281088405152135,-0.3009166417511786,-14.8871841606248,17.554695234095526,32.03657489838678,1.3041485898079133,-1.2136670671193095,0.9141111182236568,7239.38037109375,11.6,8.06,178.42340610322063,-10.71290326503394,54.35510303763586,1364.0,1435.0,1350.0,1528.0,1312.0,995.0,60.0,293.1,1649248785.5870724,1649248786.6669388,2d01e16b-5343-42f8-b56d-ed7f3140c1c0
-0.2377765937103489,-0.2577231684332838,-0.163013099907276,-0.0335904761190417,-0.1938204978872161,0.5255446586461786,-0.272397115508274,-0.3036384220906563,-15.2231298168263,18.32705358489065,32.579613602389685,1.3676466356661932,-1.1535129387187852,0.8703347305860492,7239.38037109375,11.597,8.05,178.36067764588324,-10.696172147479563,54.20371189468253,1364.0,1435.0,1350.0,1528.0,1312.0,995.0,60.0,293.1,1649248786.798105,1649248787.8897836,2d01e16b-5343-42f8-b56d-ed7f3140c1c0
-0.2576705734892772,-0.2762759811312241,-0.1717964294620334,-0.0001927863361872,-0.1907962971793322,0.5175765494693126,-0.2733175242013443,-0.299667515176381,-14.83469845417719,17.65995027217536,33.20279848124268,1.269839430853212,-1.2360498602552994,0.8789710908901242,7240.060329861111,11.592888888888888,8.056666666666667,178.32548851127933,-10.671006030891435,54.09967483269985,1364.0,1435.0,1350.0,1528.0,1312.0,995.0,60.0,293.1,1649248787.9982865,1649248789.115813,2d01e16b-5343-42f8-b56d-ed7f3140c1c0
-0.3361683014798426,-0.4474457397195806,-0.192716007299865,0.0290499142535561,-0.1885084240567362,0.6399120078041621,-0.2589722951251342,-0.2789977621626442,-15.073938502609742,19.26839722681748,30.5377479603397,1.487854854271162,-1.8576262813546207,0.8589046454180604,7240.060329861111,11.570222222222222,8.05888888888889,178.30992782253023,-10.637287284233851,53.97850196445447,1273.3333333333333,1435.0,1350.0,1528.0,1232.0,995.0,60.0,293.1,1649248790.0871935,1649248791.159404,e0ebd06c-b954-43a0-ba10-3844e32f5f2e
-0.3308562273374312,-0.4501280743663585,-0.1689563114480234,0.0698766157724115,-0.1631051409440145,0.6256588223768508,-0.2462049105174579,-0.261799265664358,-15.368527234421611,19.839374641198912,33.61581052786763,1.369041532472441,-1.896393150762813,0.7776737320443087,7239.38037109375,11.561,8.05,178.2954766600663,-10.638227099290898,53.91793791817405,1262.0,1435.0,1350.0,1528.0,1222.0,995.0,60.0,293.1,1649248791.267876,1649248792.3471315,e0ebd06c-b954-43a0-ba10-3844e32f5f2e
-0.3614401000239954,-0.4907707040281402,-0.202590678889228,0.095030072471342,-0.1719542137319545,0.6052651965480692,-0.2661383350924232,-0.292830192230709,-15.481215613421291,18.369979294313715,28.163626209152007,1.2541328961505849,-2.004961658234144,0.8520920052253895,7239.38037109375,11.553,8.05,178.3063230004683,-10.635655533068393,53.86239254311379,1262.0,1435.0,1350.0,1528.0,1222.0,995.0,60.0,293.1,1649248792.4563186,1649248793.6204414,e0ebd06c-b954-43a0-ba10-3844e32f5f2e
-0.4649279466720184,-0.6333450944562978,-0.1987932340410038,0.1943527923616639,-0.141646972372589,0.657591439629945,-0.2483031378375874,-0.2667998157345936,-15.673312841883789,19.896869756239333,28.81040063893202,1.1579866606836913,-2.5560371552381613,0.7640131616749049,7248.905490451389,11.486777777777778,8.01,178.38583854496576,-10.613638418278851,53.79548021545481,1153.0,1435.0,1350.0,1528.0,1121.0,995.0,60.0,293.1,1649248794.7312975,1649248795.8725011,5bd5baba-e5ee-4b03-9cc1-6352d690839e
-0.4241330959516226,-0.6267677096544244,-0.1952800030832002,0.2015082116382875,-0.1390298757560376,0.6468939648287888,-0.2470201282882387,-0.2704905540261813,-15.505166824458026,19.849896718652086,29.16043450978381,1.117811117005672,-2.536319462547044,0.7553220914237602,7245.5,11.487000000000002,8.02,178.40176806393004,-10.614754300434504,53.75571295683224,1153.0,1435.0,1350.0,1528.0,1121.0,995.0,60.0,293.1,1649248795.9816873,1649248797.0971146,5bd5baba-e5ee-4b03-9cc1-6352d690839e
-0.4612124276946121,-0.6297393160556608,-0.1982516087757252,0.2168264418740037,-0.1388194966759207,0.6392677217337157,-0.2513591986581553,-0.2714898550631808,-15.508133804356346,19.782327143488345,29.64001106686502,1.0655988168467774,-2.553769800548438,0.7657408892122697,7245.5,11.478222222222222,8.002222222222223,178.4277637639111,-10.672004471738855,53.73655086111575,1153.0,1435.0,1350.0,1528.0,1121.0,995.0,60.0,293.1,1649248797.206559,1649248798.333648,5bd5baba-e5ee-4b03-9cc1-6352d690839e
-0.0131705493601989,0.1399197206369633,-0.1271697513974941,-0.2047996611507291,-0.2425627202585709,0.2929705376249586,-0.3164058088277086,-0.3347087967138277,-14.20373191463935,16.302988821888384,32.48046212017798,1.220091830090149,0.3548708550639446,0.9985413834792272,7248.905490451389,11.624222222222222,8.068888888888889,178.18704664808243,-10.681465706695402,53.79779071666904,1553.0,1435.0,1350.0,1528.0,1471.0,995.0,60.0,293.1,1649248800.2608166,1649248801.4009695,81b2d7f7-8154-4d03-bad2-ab3028fb1e43
-0.0153926790911487,0.1388941222890803,-0.106855014068436,-0.1815133172665287,-0.221906115695958,0.2936016751962443,-0.302441890535183,-0.3316845954784294,-14.507070973667716,16.761088257831354,35.60182150076755,1.1733749982469504,0.3239352352876816,0.9269158105554812,7251.6298828125,11.625999999999998,8.096666666666668,178.2050130812392,-10.661142289092552,53.93131522311848,1553.0,1435.0,1350.0,1528.0,1471.0,995.0,60.0,293.1,1649248801.5097094,1649248802.6272397,81b2d7f7-8154-4d03-bad2-ab3028fb1e43
0.0013982063234103,0.142444270222359,-0.0998730559902352,-0.1893630897361113,-0.2193552683841064,0.3023981524292776,-0.2954204859573413,-0.3200742951059462,-14.409798630363726,17.006107453184526,36.369220862193885,1.2129922296647526,0.3311737868810553,0.9053378571714632,7251.6298828125,11.626333333333331,8.076666666666666,178.23390478142835,-10.639039891802131,54.02778215877106,1553.0,1435.0,1350.0,1528.0,1471.0,995.0,60.0,293.1,1649248802.735768,1649248804.0637968,81b2d7f7-8154-4d03-bad2-ab3028fb1e43
-0.0203365889237961,0.1218928585274955,-0.1483654507517415,-0.4545065915154854,-0.2833368320279648,0.5688170140384291,-0.2619439003927485,-0.2869395755093893,-14.535369921457798,15.780359870252358,36.629066853848784,2.399207749247368,0.2822291451961518,1.006890225378961,7251.6298828125,11.613444444444449,8.07,178.22906141839692,-10.534088153653098,54.19225311398497,1553.0,1537.0,1350.0,1528.0,1471.0,995.0,60.0,293.1,1649248805.1767175,1649248806.320266,5cdbbdab-5c0c-4d3b-a6af-352f20bd04d6
-0.0030066069412986,0.1292429795572552,-0.1494304953949927,-0.4549930935249769,-0.2855063672962832,0.5611381761249367,-0.2635743390286186,-0.2906475083172118,-14.362888625076543,15.641013946904176,36.48803508268772,2.382137372837727,0.3098157661524026,1.0144823784453871,7251.6298828125,11.59,8.046666666666665,178.2673013708301,-10.501142736191545,54.24933490215354,1553.0,1537.0,1350.0,1528.0,1471.0,995.0,60.0,293.1,1649248806.4519596,1649248807.498687,5cdbbdab-5c0c-4d3b-a6af-352f20bd04d6
0.0030549421320616,0.1375398067027159,-0.1669971550798562,-0.497305608160503,-0.3077408160611097,0.5608226075021445,-0.2765126579818823,-0.2987734038026754,-14.17474248633549,15.295262001590244,31.948376635307167,2.473079240774572,0.3839272184708121,1.0816368086890342,7239.38037109375,11.612000000000002,8.064444444444444,178.2934093894775,-10.517045503581578,54.3429069759629,1553.0,1537.0,1350.0,1528.0,1471.0,995.0,60.0,293.1,1649248807.6071043,1649248808.770772,5cdbbdab-5c0c-4d3b-a6af-352f20bd04d6
0.0212921840133653,0.1493604841533923,-0.2001318725966661,-0.8189754332229022,-0.3827278434452498,0.8661484547323433,-0.2352783417367029,-0.2559875406650888,-14.257605503040793,15.524980034035254,34.9183166935153,3.885100158424263,0.4400336980147197,1.1728757198388715,7236.664876302083,11.603444444444444,8.07,178.32441693048952,-10.446331701330791,54.44341472741944,1553.0,1645.0,1350.0,1528.0,1471.0,995.0,60.0,293.1,1649248809.5866258,1649248810.8268845,906816bd-e31a-4719-8f00-4d9c8fc0e412
0.0185835526190636,0.1378948214580477,-0.1750310092226336,-0.7634616106974101,-0.3481862122366616,0.8551955913433977,-0.2135566927220773,-0.2317413415290622,-14.39875179033718,15.530500145038818,39.20962367586748,3.7371614878858783,0.3547521597907807,1.0657374713151213,7239.38037109375,11.602333333333332,8.07,178.3758907538946,-10.418407706137792,54.5055732434161,1553.0,1645.0,1350.0,1528.0,1471.0,995.0,60.0,293.1,1649248810.9348283,1649248812.051649,906816bd-e31a-4719-8f00-4d9c8fc0e412
0.0326364747291132,0.1416821515086512,-0.1929648208164029,-0.78858827637632,-0.3668942814311495,0.853152992373047,-0.2272652214088343,-0.2607691148303109,-14.272672300998137,15.133760182406876,36.04177472171994,3.785286567499913,0.3980911497624504,1.13120330369988,7233.2705078125,11.602666666666666,8.064444444444446,178.41199816948688,-10.522395154385253,54.59522061463738,1553.0,1645.0,1350.0,1528.0,1471.0,995.0,60.0,293.1,1649248812.1603098,1649248813.4785888,906816bd-e31a-4719-8f00-4d9c8fc0e412
0.0237641389599697,0.1485452650160806,-0.23587003282746,-1.076992450956315,-0.4448028513078734,1.1137120913616547,-0.2042605635263186,-0.2219587107776716,-14.360668772535655,15.153340312280967,36.20830504792587,5.019342468425754,0.4557679587588078,1.261515372979254,7233.2705078125,11.589000000000002,8.071111111111112,178.49295716062898,-10.397091824103043,54.726164827400375,1553.0,1761.0,1350.0,1528.0,1471.0,995.0,60.0,293.1,1649248815.6198657,1649248816.569783,e8a800a3-65ff-46b9-b4b5-2450fca36bd1
0.0237358187542249,0.1394949166168246,-0.2248756986210739,-1.0529151470429687,-0.4310826894412133,1.1158234677437462,-0.1921303844334312,-0.2077318196797977,-14.16487280792698,15.249100359723524,38.48512569736764,4.971418260862132,0.3979926247479187,1.2129956352238045,7233.2705078125,11.590222222222222,8.06111111111111,178.52945010245443,-10.418705957731552,54.7610822722573,1553.0,1761.0,1350.0,1528.0,1471.0,995.0,60.0,293.1,1649248816.6810238,1649248817.78324,e8a800a3-65ff-46b9-b4b5-2450fca36bd1
0.037832738395331,0.1513034569339968,-0.2231562535411244,-1.058212558181027,-0.4324734172636088,1.114205166690791,-0.1943049766475635,-0.2288455937418199,-14.311806837770828,15.364460068301948,39.20363643761144,4.980622306221564,0.4377168356204661,1.2178879020300566,7233.2705078125,11.584,8.06,178.54700520644118,-10.416411583352858,54.80026061679144,1553.0,1761.0,1350.0,1528.0,1471.0,995.0,60.0,293.1,1649248817.892294,1649248819.220288,e8a800a3-65ff-46b9-b4b5-2450fca36bd1
