raw_voltage_G-,raw_voltage_G0,raw_voltage_G1,raw_voltage_G2,raw_voltage_G3,raw_voltage_G4,raw_voltage_G5,raw_voltage_G6,load_x,load_y,load_z,load_l,load_m,load_n,rpm,voltage,current,roll,pitch,yaw,aileron1_pwm,elevator_pwm,throttle_pwm,rudder_pwm,aileron2_pwm,pbaro,pdiff,Tt,sample_start_time,sample_end_time,uid
0.1517459611867516,0.2976964826639586,0.2218639097968104,-0.3553133130090714,-0.0006019126695906,0.2454683465881411,0.0117123471631122,-0.0148631912193169,-9.79270755044092,19.22299619863293,30.55099163749461,1.4915194431247427,0.9732181887452896,-0.2570233764160214,3128.2869466145835,11.96,0.2255555555555556,179.95972814233068,-11.115136615214317,110.94454764462022,1553.0,1435.0,1200.0,1528.0,1471.0,995.0,60.0,293.1,1649250825.190881,1649250826.3847597,911a516b-3479-4e71-a74d-40a5610d497d
0.1411951441917601,0.2960341841429265,0.224255455163861,-0.3640172460045794,-0.0008896669008269,0.2542870755811089,0.0167690321587337,-0.0078979221824931,-9.610776104616011,19.324147607739302,30.460258242419805,1.5318369891631265,0.9677250275000436,-0.267410738355368,3404.3681911892363,11.956333333333331,0.2111111111111111,179.9053476939788,-11.05492242640139,110.05471742974012,1553.0,1435.0,1200.0,1528.0,1471.0,995.0,60.0,293.1,1649250826.4976883,1649250827.6125796,911a516b-3479-4e71-a74d-40a5610d497d
0.1644814845362269,0.2912480590081013,0.2287917551585509,-0.3660552936189963,0.0034362542086641,0.2592704314938826,0.0232644883350058,-0.0053733723817372,-9.552406028423375,19.371427457090043,30.27693579791583,1.5481720520211593,0.9515251078043876,-0.2895685576174058,3432.079047309028,11.957777777777778,0.22,179.87184182155042,-11.029638014731388,109.4021915128334,1553.0,1435.0,1200.0,1528.0,1471.0,995.0,60.0,293.1,1649250827.720759,1649250828.8333375,911a516b-3479-4e71-a74d-40a5610d497d
0.2428608595007615,0.4375930374062751,0.2541424399645519,-0.4209248145047033,-0.0069906625501369,0.1653361493259944,0.0090375981274497,-0.0107511897550145,-9.428248242704978,19.36881427009228,30.16740033971629,1.4621513826951635,1.508862471882234,-0.2725063683496809,3444.953803168403,11.953333333333337,0.22,179.56729279337844,-10.990537743054002,108.19795099443968,1647.0,1435.0,1200.0,1528.0,1543.0,995.0,60.0,293.1,1649250830.5627668,1649250831.9068515,7d12968e-daa2-4be9-b138-1e1d27481769
0.2361550248059766,0.4428130693673517,0.2553258227395515,-0.4152051333155673,-0.0058598744329726,0.1568289417189202,0.0072625244330797,-0.0164182778100742,-9.456537648334706,19.35823656321074,30.43170592281841,1.4301490472050802,1.5256690828217017,-0.2720931842573824,3449.1119520399307,11.950444444444445,0.22,179.4585318966748,-10.918954894095071,107.8017893978402,1647.0,1435.0,1200.0,1528.0,1543.0,995.0,60.0,293.1,1649250832.015504,1649250833.1364324,7d12968e-daa2-4be9-b138-1e1d27481769
0.2528407194654471,0.44807254741771,0.257377019239037,-0.4193338218916127,-0.006280632655726,0.1549223820895296,0.0076043905513955,-0.0146826497109091,-9.43383364618416,19.44656863704567,30.36087277873045,1.4358659003277483,1.5465022851779395,-0.2743229303874945,3462.8918185763887,11.952777777777778,0.2122222222222222,179.3755724190158,-10.89937776952278,107.43315953487516,1647.0,1435.0,1200.0,1528.0,1543.0,995.0,60.0,293.1,1649250833.2438867,1649250834.5784702,7d12968e-daa2-4be9-b138-1e1d27481769
0.3145343984967875,0.557851002431294,0.2661471989271932,-0.4647099837706349,-0.0254777300092824,0.0798696247183383,-0.0164314269647685,-0.0419793442105255,-9.458132175786218,19.597229626661555,28.98298293559279,1.370773408713867,1.9767677326508308,-0.2150455041346514,3459.4756673177085,11.931666666666665,0.2066666666666666,178.99357663475496,-10.872385051650369,106.75034476463912,1745.0,1435.0,1200.0,1528.0,1614.0,995.0,60.0,293.1,1649250836.70663,1649250837.844457,bf2b64d4-b8ee-463b-9128-4e68236fce37
0.3080257943363542,0.5567859581425615,0.2739969704634846,-0.4657750282202357,-0.0187981915810051,0.0796855433224722,-0.0081871936204512,-0.0294880819538273,-9.366593757714954,19.65591390700401,28.72996627056768,1.373547869768072,1.974997521597402,-0.2470365479636035,3438.197509765625,11.925000000000002,0.21,178.94105248003757,-10.784008949388358,106.52901248458484,1745.0,1435.0,1200.0,1528.0,1614.0,995.0,60.0,293.1,1649250837.9528525,1649250839.0734005,bf2b64d4-b8ee-463b-9128-4e68236fce37
0.3065005456452973,0.5545638286774486,0.262491861611387,-0.4623169190453194,-0.0280811718583731,0.077608049870021,-0.0203497382708521,-0.0445433397767438,-9.477544273042822,19.59816804024231,28.488107006398995,1.3600287321656404,1.9684359489480008,-0.2020267597783682,3424.767279730903,11.930444444444444,0.21,178.8946178184202,-10.784078579372396,106.34947185533215,1745.0,1435.0,1200.0,1528.0,1614.0,995.0,60.0,293.1,1649250839.181947,1649250840.298381,bf2b64d4-b8ee-463b-9128-4e68236fce37
0.3522054106742104,0.6448296197204185,0.2729450743163715,-0.4883644956499461,-0.0426630769327424,-0.0001533422765148,-0.0439910948058108,-0.0685791577165807,-9.486576476901153,20.077941245171104,26.541748421295186,1.247431619621072,2.3281798300385863,-0.1550089121101405,3410.834228515625,11.909,0.21,178.72708997409774,-10.73528152607584,105.95328900925529,1849.0,1435.0,1200.0,1528.0,1686.0,995.0,60.0,293.1,1649250842.0510914,1649250843.1685705,104f9ea8-93e8-42db-866c-dee23a70527c
0.3699298519241962,0.6548620739825383,0.285686160547163,-0.4949782929656379,-0.0344977355721862,-0.0025201072812143,-0.0326437699077853,-0.0498685620455211,-9.333671168025347,20.16234424852109,26.827674862863628,1.258348774699198,2.363814696535062,-0.198022576661778,3404.6625705295137,11.90522222222222,0.2,178.70454579637726,-10.74411466821996,105.71201030009486,1849.0,1435.0,1200.0,1528.0,1686.0,995.0,60.0,293.1,1649250843.2770245,1649250844.6034644,104f9ea8-93e8-42db-866c-dee23a70527c
0.3458414421596226,0.6492738786217371,0.2782571477356515,-0.4874835326734745,-0.0397572141141935,-0.0043740729167922,-0.041505991133418,-0.0697625401121181,-9.45756470031186,20.23405804617916,26.7039893969194,1.2372997265399928,2.343436166478065,-0.1690154791030013,3398.662353515625,11.916444444444444,0.2055555555555555,178.64360533078258,-10.674358989727745,105.57171973236262,1849.0,1435.0,1200.0,1528.0,1686.0,995.0,60.0,293.1,1649250844.712454,1649250845.8337214,104f9ea8-93e8-42db-866c-dee23a70527c
0.4009607726567112,0.7486385665337089,0.2919580878485335,-0.5108224742901674,-0.0551806364506603,-0.0888150038439075,-0.0647660360491162,-0.0826351145698403,-9.198574786466514,20.85624549233583,25.440454793321297,1.1049323395281427,2.72923240943787,-0.1236046060474161,3410.834228515625,11.859555555555556,0.19,178.4987081799101,-10.69030406634514,105.3012154026536,1962.0,1435.0,1200.0,1528.0,1760.0,995.0,60.0,293.1,1649250847.7460992,1649250848.697044,2a00da5b-b5af-42b4-879d-1ade24a61b3f
0.403130307360122,0.7375542166611426,0.2851339152409988,-0.5087844237495657,-0.0589674603752738,-0.0792953456152981,-0.0675404108287514,-0.0932724103668395,-9.19702634555702,20.799422961624902,25.48029749728343,1.1210175889047156,2.686610766352118,-0.1064373371322725,3410.834228515625,11.854777777777777,0.19,178.45739008889095,-10.663036717949849,105.08883446496162,1962.0,1435.0,1200.0,1528.0,1760.0,995.0,60.0,293.1,1649250848.8315766,1649250850.1313126,2a00da5b-b5af-42b4-879d-1ade24a61b3f
0.4037482960206195,0.7447859989077916,0.2917871552501831,-0.5121767883449655,-0.0535238998024578,-0.0838316465774118,-0.0614657125941618,-0.0872503070275097,-9.163375919487676,20.69483285752572,25.44876646446189,1.1181261173748247,2.714613314819992,-0.1307025494964697,3414.0051540798613,11.860333333333331,0.19,178.4373563851454,-10.668851201072036,104.91978272954437,1962.0,1435.0,1200.0,1528.0,1760.0,995.0,60.0,293.1,1649250850.2396317,1649250851.358205,2a00da5b-b5af-42b4-879d-1ade24a61b3f
0.0583320615962098,0.1233260663941309,0.1872681743007535,-0.3023629986849294,0.0010431915580015,0.3719284534754327,0.0216734962985106,-0.0091470484520663,-10.007964515144984,19.829496603794336,31.070388224772657,1.6585216200651116,0.3074410320950081,-0.2465902814536505,3421.73681640625,11.956,0.2166666666666666,178.91288933335989,-10.63464324211515,104.60494136520308,1459.0,1435.0,1200.0,1528.0,1394.0,995.0,60.0,293.1,1649250853.0907876,1649250854.2271073,4ef8ac70-ad96-441c-bd0a-18b5a4269f83
0.0580822363578291,0.1201835280734041,0.1908051734575687,-0.3076882210285463,0.0042646222176666,0.3798045220489296,0.0284319262043746,0.0028708603402607,-9.93067519941976,19.8031615638645,31.094740733956243,1.688276922886338,0.2957711614061057,-0.2657496035847965,3445.727294921875,11.953,0.22,178.79470732906103,-10.62108749847866,104.68228794518411,1459.0,1435.0,1200.0,1528.0,1394.0,995.0,60.0,293.1,1649250854.33753,1649250855.459071,4ef8ac70-ad96-441c-bd0a-18b5a4269f83
0.06017287904667,0.1223925089993409,0.192159489085562,-0.3031124741826574,0.0063552649261885,0.3741900291208484,0.0281163574323231,0.0021476820171508,-9.985076675305928,19.76561638391377,31.207945485508795,1.6651478493146583,0.3029597396151271,-0.2695494753250422,3460.0981174045137,11.958555555555556,0.22,178.7220219737336,-10.625117025497753,104.77056965802632,1459.0,1435.0,1200.0,1528.0,1394.0,995.0,60.0,293.1,1649250855.567342,1649250856.7385414,4ef8ac70-ad96-441c-bd0a-18b5a4269f83
-0.0375350841421373,-0.0409405965629889,0.1576310139854621,-0.2490055819114679,0.008314420707507,0.4850335292917023,0.035427032656732,0.0123379217575978,-10.200431029675755,20.118880809251976,31.189533065549096,1.7926873076378282,-0.3167959445574004,-0.2551711139808001,3467.4052734375,11.938666666666668,0.21,178.7598930959516,-10.615485699858125,104.87656432811616,1364.0,1435.0,1200.0,1528.0,1312.0,995.0,60.0,293.1,1649250857.5959148,1649250858.7348435,258efb06-3963-41d9-a170-5fe44e77c7f9
-0.039441645144058,-0.0424001018598341,0.1634953323210104,-0.2568816518144406,0.0124299626953784,0.4937905602201007,0.0442629565333468,0.0252499416736978,-10.08356084146697,20.152722804865743,31.25563106257372,1.8307177219030493,-0.3223409269002832,-0.2814354075314975,3475.5288899739585,11.940444444444443,0.21,178.74692939690692,-10.62202389844112,104.85909877549852,1364.0,1435.0,1200.0,1528.0,1312.0,995.0,60.0,293.1,1649250858.8427112,1649250860.1795824,258efb06-3963-41d9-a170-5fe44e77c7f9
-0.0366146753736391,-0.0498685616052526,0.1564739287518314,-0.2517273622825369,0.009155937290398,0.496459745312736,0.0377017571407729,0.0097476286326167,-10.307192185909257,20.11436564568028,31.218899907478782,1.824366604080537,-0.3495242101710297,-0.2591143161406764,3474.902587890625,11.940666666666663,0.21,178.73139754673429,-10.6076602952078,104.8619773207787,1364.0,1435.0,1200.0,1528.0,1312.0,995.0,60.0,293.1,1649250860.3098752,1649250861.399079,258efb06-3963-41d9-a170-5fe44e77c7f9
-0.1450914250416847,-0.2354755715028364,0.1248118689202077,-0.1986329209770882,0.0149150662433977,0.627775762344025,0.0507321150320936,0.0208319795314271,-10.704627126469958,20.91772051222227,30.904543265582102,2.003181984959048,-1.0485949071538356,-0.2653959885937669,3474.7460123697915,11.905555555555557,0.2,178.77851219162903,-10.604628734717435,104.91020225086856,1262.0,1435.0,1200.0,1528.0,1222.0,995.0,60.0,293.1,1649250863.049719,1649250864.267349,781e460a-3ee8-4c75-8624-7d07e7fbd935
-0.1469585400880659,-0.236067262936916,0.1299135627768172,-0.1985934749824161,0.0199510167741101,0.6277363162510226,0.0567410691191709,0.0344934749844364,-10.6414047654946,20.88523992605396,30.864537404629527,2.003068523746004,-1.050588998479022,-0.2878349058960274,3475.5288899739585,11.908,0.2,178.78532113132164,-10.604546962174872,104.80653667528571,1262.0,1435.0,1200.0,1528.0,1222.0,995.0,60.0,293.1,1649250864.37558,1649250865.4924011,781e460a-3ee8-4c75-8624-7d07e7fbd935
-0.1385565225810709,-0.2310181630510964,0.1308997152391422,-0.2019595413620774,0.0193987718212762,0.6259612424338924,0.0569120023902814,0.0388982883590965,-10.610114238395724,20.883077044007067,30.879156393956347,2.006725563937039,-1.0315259235273906,-0.2880455188984335,3470.681640625,11.904999999999998,0.1966666666666666,178.79840625595156,-10.608854155356475,104.74017455730989,1262.0,1435.0,1200.0,1528.0,1222.0,995.0,60.0,293.1,1649250865.600459,1649250866.720542,781e460a-3ee8-4c75-8624-7d07e7fbd935
-0.2445481730723528,-0.3807686879816938,0.0636967295792273,-0.16427537502205,-0.0276604130942822,0.7327154969487275,0.0144417131522343,-0.0041373949211708,-10.86901756471974,22.662478737178954,29.687842438213785,2.169739762417571,-1.5896602608635828,-0.0922565090272764,3475.5288899739585,11.863444444444443,0.1822222222222222,178.89094773010615,-10.60044476953211,104.59141000154736,1153.0,1435.0,1200.0,1528.0,1121.0,995.0,60.0,293.1,1649250868.6579945,1649250869.7976675,30c5052c-0fa6-437a-9853-6a2087a93146
-0.2142667221826533,-0.2981422662748128,0.0537826125643505,-0.2014861882389332,-0.0562062336090458,0.6783719405864639,-0.018377433321536,-0.0412824627097033,-10.961773220126643,22.553810804500657,28.43846249506744,2.130101134203204,-1.2640801159020418,0.014754565475685,3461.6520724826387,11.863111111111111,0.1888888888888889,178.86578075974435,-10.631543948915516,104.4075481392798,1153.0,1435.0,1200.0,1528.0,1121.0,995.0,60.0,293.1,1649250869.9064815,1649250871.022569,30c5052c-0fa6-437a-9853-6a2087a93146
-0.1928474939381494,-0.2997201100277069,0.0628552129944974,-0.2027353144512694,-0.0493294651495746,0.6820404264806302,-0.0085159108546756,-0.0382714112090381,-10.80980661204737,22.70220391916221,28.646847810948376,2.142707619289697,-1.2721890200756036,-0.0208820935890094,3431.4747450086807,11.864444444444445,0.19,178.88325693710073,-10.621469609617227,104.24158289045748,1153.0,1435.0,1200.0,1528.0,1121.0,995.0,60.0,293.1,1649250871.130933,1649250872.4534423,30c5052c-0fa6-437a-9853-6a2087a93146
0.15978740010229,0.3161911341541926,0.1868605646331907,-0.384095308005605,-0.0481460825104627,0.2499085602651689,-0.0318416986830335,-0.0498291158416024,-9.791743696120308,19.93459042564451,29.680122816411348,1.5692583000692246,1.051632765324626,-0.0820755743117406,3412.9471028645835,11.961888888888888,0.21,178.59216945287295,-10.652423362889555,104.02114536518448,1553.0,1435.0,1200.0,1528.0,1471.0,995.0,60.0,293.1,1649250874.0494168,1649250875.118825,abb32b77-60cc-47f4-aa7c-02bc50e1d2f7
0.1619306374828531,0.323212537485507,0.188464705492483,-0.3816890966068758,-0.0481723799418853,0.2438338627784736,-0.0324728361471438,-0.0570083040477193,-9.708239879904738,19.95216969612345,30.112379954830185,1.5504871689142024,1.0733509291829602,-0.0817962411956161,3411.2867838541665,11.963333333333331,0.22,178.55823403743665,-10.630992506003778,104.26483664894177,1553.0,1435.0,1200.0,1528.0,1471.0,995.0,60.0,293.1,1649250875.2269294,1649250876.3468628,abb32b77-60cc-47f4-aa7c-02bc50e1d2f7
0.1762101211619274,0.3448947361166361,0.1802993654137255,-0.3936544126313032,-0.0605978983510137,0.2326969175215835,-0.0457793173603624,-0.0691182539632693,-9.77744928615756,19.867650442140203,29.901815413811747,1.551416516098896,1.1579825461903896,-0.032588443577309,3413.55078125,11.962,0.21,178.49934414641282,-10.663341704869037,104.57066064575878,1553.0,1435.0,1200.0,1528.0,1471.0,995.0,60.0,293.1,1649250876.4565327,1649250877.5918944,abb32b77-60cc-47f4-aa7c-02bc50e1d2f7
0.1779720463929826,0.3300104129284832,0.1743561548148313,-0.577644165701616,-0.0836212666312624,0.4268899993504826,0.0040016476459364,-0.0232950460372217,-9.66414102961519,19.556509525706453,31.520467430113857,2.400786641279766,1.1092802767793852,-0.0649303614313093,3439.1172688802085,11.949666666666666,0.2066666666666666,178.4631077161362,-10.57791567514604,105.05534225291149,1553.0,1537.0,1200.0,1528.0,1471.0,995.0,60.0,293.1,1649250879.719108,1649250880.851725,8071340f-f3f9-4266-9deb-5d4a96fe56d3
0.1897006829456249,0.3486158168226065,0.176144377352682,-0.5947243275136713,-0.0877236600783896,0.4224588891503025,0.003436253712062,-0.0270161270919917,-9.579470868537705,19.52909446434891,31.250969648117582,2.429264970480724,1.1830669631640958,-0.0591834409137733,3434.3709309895835,11.944333333333333,0.2022222222222222,178.46788125945614,-10.595086865583191,105.14974002070052,1553.0,1537.0,1200.0,1528.0,1471.0,995.0,60.0,293.1,1649250880.9603736,1649250882.012393,8071340f-f3f9-4266-9deb-5d4a96fe56d3
0.1876626351907578,0.3658669050829693,0.1737776123611815,-0.5869665942732358,-0.0923257037893894,0.3985677098744808,-0.0074640153811936,-0.0336956648373714,-9.60177922914735,19.53850896667303,31.22202086849412,2.3580074718251813,1.2470784744857637,-0.0320743595367978,3435.90380859375,11.950444444444445,0.21,178.46148972021282,-10.565489853498494,105.2649713832779,1553.0,1537.0,1200.0,1528.0,1471.0,995.0,60.0,293.1,1649250882.1210606,1649250883.170595,8071340f-f3f9-4266-9deb-5d4a96fe56d3
0.1917387308576289,0.3472220551607318,0.1648102017707637,-0.7810151298946454,-0.1174923099725546,0.6106298640197698,0.0440394283902034,0.0230409604958547,-9.607682064623605,19.15919721661077,33.53638210070909,3.269670332020892,1.1799952141602192,-0.0594446077186559,3440.957763671875,11.943777777777775,0.2055555555555555,178.51438270514538,-10.486961081608612,105.48790875778712,1553.0,1645.0,1200.0,1528.0,1471.0,995.0,60.0,293.1,1649250885.2601826,1649250886.387704,9e376144-e2d2-4515-952b-e11526a75e92
0.2172209030856003,0.3773457160586671,0.1637057114023333,-0.8002516794731577,-0.1290763120040002,0.5954825674340838,0.0354270325199303,0.018070753151457,-9.404678662151126,19.307333254602803,33.020874292476805,3.2799723042247355,1.2984103065614898,-0.0270686322936389,3438.197509765625,11.94822222222222,0.2011111111111111,178.50205041914398,-10.483838262201838,105.55202602025577,1553.0,1645.0,1200.0,1528.0,1471.0,995.0,60.0,293.1,1649250886.495747,1649250887.6154702,9e376144-e2d2-4515-952b-e11526a75e92
0.221117974218581,0.3636422469990927,0.1637694319098721,-0.8021162663892721,-0.1261972531518882,0.6136697412063125,0.0413348426922367,0.0099044013705853,-9.470588318191655,19.302116565226648,33.47661682790032,3.325055424883405,1.2436747453260588,-0.0405639720475697,3438.714874267578,11.93925,0.2025,178.53896095114618,-10.484173783386847,105.57998502016824,1553.0,1645.0,1200.0,1528.0,1471.0,995.0,60.0,293.1,1649250887.7238846,1649250888.8404095,9e376144-e2d2-4515-952b-e11526a75e92
0.1923435708578628,0.3527182097908772,0.1554220329514518,-0.9118578691735312,-0.1482997073525341,0.7273902754606393,0.0611064362353581,0.0334810255222652,-9.457963935820906,19.598261085816898,33.79574211937329,3.829755576880905,1.212772594396073,-0.0291783940167969,3445.10693359375,11.932444444444444,0.2044444444444444,178.58496132656882,-10.460516296689612,105.59595400244773,1553.0,1761.0,1200.0,1528.0,1471.0,995.0,60.0,293.1,1649250889.7573004,1649250890.8877203,209a4678-95df-496c-b8a2-e10920bf4655
0.1955518526056947,0.3240146078592925,0.1571576607827491,-0.8893998847399803,-0.1361108651637826,0.737212350629826,0.0697582784636849,0.0472477106121032,-9.56849912872373,19.40883215940798,34.17639511578191,3.800003093732507,1.0998670169134133,-0.0632031717351383,3446.646457248264,11.931666666666668,0.2,178.61309715248984,-10.479974841588811,105.57981047088946,1553.0,1761.0,1200.0,1528.0,1471.0,995.0,60.0,293.1,1649250890.9963253,1649250892.1255996,209a4678-95df-496c-b8a2-e10920bf4655
0.2077801396118913,0.3477611516536029,0.1508594353646965,-0.8966974147859221,-0.148733614494573,0.719461612410818,0.0553736043037072,0.0340069731809643,-9.521050381228754,19.50053435398677,33.92452416785824,3.776854284871436,1.1913282526528677,-0.0144949924421991,3445.1082356770835,11.926,0.2,178.63585686062413,-10.503013543977955,105.56968281817014,1553.0,1761.0,1200.0,1528.0,1471.0,995.0,60.0,293.1,1649250892.2352574,1649250893.3468435,209a4678-95df-496c-b8a2-e10920bf4655
0.2006141004384856,0.3540725253868333,0.1359619630957103,-0.9217982892594172,-0.1720988493851277,0.7383825844924963,0.0372941473893345,0.0130348026526216,-9.69722765140904,20.12218089770374,34.07398064390804,3.879307975033474,1.2170786291885471,0.0637535360923775,3437.4318033854165,11.900222222222222,0.19,178.69371463417343,-10.419816717245324,105.48697529860054,1553.0,1887.0,1200.0,1528.0,1471.0,995.0,60.0,293.1,1649250895.0747426,1649250896.126252,62b7e004-5f6d-495f-b35b-c67ccce807d6
0.1829685507714001,0.3289716660017287,0.1428387310141858,-0.9188661308955264,-0.1602913192973226,0.7611166782587887,0.0530594340704153,0.0282609929489092,-9.702514361550564,20.128641612519107,34.2803483154283,3.9241957693411806,1.121218580400118,0.0131242700829616,3436.81884765625,11.897125,0.19,178.72541999284567,-10.475845434911076,105.3615384950383,1553.0,1887.0,1200.0,1528.0,1471.0,995.0,60.0,293.1,1649250896.2345965,1649250897.4375813,62b7e004-5f6d-495f-b35b-c67ccce807d6
0.1875837429959656,0.3347833893852511,0.1396961927438273,-0.9253089947580968,-0.1658795155906749,0.7613665034272711,0.0488781488519183,0.028852684375986,-9.672896799489331,20.18266029108497,34.25298664913806,3.939502848255232,1.1436439069176247,0.0315791585531259,3434.06494140625,11.89711111111111,0.19,178.76772808183946,-10.43778675522415,105.25222625028668,1553.0,1887.0,1200.0,1528.0,1471.0,995.0,60.0,293.1,1649250897.545102,1649250898.673312,62b7e004-5f6d-495f-b35b-c67ccce807d6
0.1507936921379548,0.3275384582245738,0.2027573377927537,-0.1862994428901767,-0.0179040802066898,0.0507058172750332,-0.0774808250341553,-0.1056847800721518,-9.880189453092532,20.779348360343675,28.711247341873936,0.6816367170367925,1.080074438497989,-0.0786226849555433,3433.3010525173613,11.95977777777778,0.21,178.77339865667042,-10.693027319685465,105.0979937486386,1553.0,1335.0,1200.0,1528.0,1471.0,995.0,60.0,293.1,1649250900.610839,1649250901.8466218,45e24a7d-c54c-47b9-86ed-d42117d800e0
0.1551196130221205,0.3366110580127506,0.1999698141429607,-0.1839458258794646,-0.0220985146127192,0.0396083179585301,-0.0835686720566729,-0.1073152186031221,-9.809833720953687,20.74258225877525,28.671391402988515,0.6510365059932159,1.113490367107302,-0.0593157151787522,3434.06494140625,11.959,0.21,178.81078711218709,-10.70764231182574,105.2424165808187,1553.0,1335.0,1200.0,1528.0,1471.0,995.0,60.0,293.1,1649250901.9546957,1649250903.078755,45e24a7d-c54c-47b9-86ed-d42117d800e0
0.166046179323907,0.3294187216229352,0.1997068403291547,-0.1869568777801445,-0.0207836448674582,0.0480760781488211,-0.0808468915441441,-0.1009249516348496,-9.8788409487264,20.71682761897525,28.489424129790937,0.6766093210749731,1.0889695373051282,-0.0658144002180106,3435.44140625,11.955444444444444,0.2188888888888889,178.7759713612578,-10.697777147070775,105.38391533312412,1553.0,1335.0,1200.0,1528.0,1471.0,995.0,60.0,293.1,1649250903.1867454,1649250904.507534,45e24a7d-c54c-47b9-86ed-d42117d800e0
0.1432594893736863,0.3097351246741144,0.2220201768763766,0.0167558830743833,0.0221731465532113,-0.1280901609060818,-0.1105760952208602,-0.1360451216493954,-9.990122116648534,21.588518799012743,27.33349437644485,-0.1721364954131911,1.0025246069563944,-0.1150720469917597,3439.5771484375,11.95611111111111,0.21,178.73287742105447,-10.748192386018196,105.61330420075936,1553.0,1236.0,1200.0,1528.0,1471.0,995.0,60.0,293.1,1649250906.755874,1649250907.8947442,dd3b6944-5161-4c9c-8d9f-78326fdecb61
0.1569078357007031,0.3402006518438778,0.2171814569528762,-0.0016522924631599,0.0085642458585233,-0.1447232633050355,-0.1217393392053549,-0.1434346894676372,-9.78501490616025,21.55820694976505,26.740808882087805,-0.1684220720152487,1.1225492922031783,-0.0712015698904298,3435.900933159722,11.947,0.21,178.74824990014645,-10.774010311353369,105.67898405872812,1553.0,1236.0,1200.0,1528.0,1471.0,995.0,60.0,293.1,1649250908.0028632,1649250909.1195996,dd3b6944-5161-4c9c-8d9f-78326fdecb61
0.1402615867463438,0.3290768556187143,0.2215731212803521,0.01947766378811,0.0187281881797118,-0.1496408746808192,-0.1178473246884563,-0.1483128559456422,-9.92836854719024,21.514755276990208,27.29116014933615,-0.2271904080435052,1.0746412868909403,-0.0970398544541749,3434.829644097222,11.950444444444448,0.21,178.72309659016298,-10.78347410763085,105.74918018955807,1553.0,1236.0,1200.0,1528.0,1471.0,995.0,60.0,293.1,1649250909.2280166,1649250910.3581457,dd3b6944-5161-4c9c-8d9f-78326fdecb61
0.1108611025786838,0.3028189109405686,0.2389688456469954,0.1836259850003112,0.0542296683533682,-0.282232342268506,-0.1394506340981495,-0.1599494530482529,-10.035330868650432,22.28387236342881,26.248309605210043,-0.8896748531934533,0.9670635088516372,-0.1419471877198838,3433.7593858506943,11.953666666666669,0.2077777777777777,178.73449389915802,-10.812056741760063,105.85542529991744,1553.0,1133.0,1200.0,1528.0,1471.0,995.0,60.0,293.1,1649250912.0735655,1649250913.1793127,31b10eaa-d6b8-4969-8e13-ab49df8a66e5
0.1237336759605564,0.3022535170370751,0.2333543525267903,0.1878861623684665,0.0478656992174856,-0.2866897511729449,-0.1488913989816745,-0.1688774186380659,-10.125612299880938,22.505248536564665,26.03356041940645,-0.908192875068196,0.9666085507998936,-0.1126723586668288,3430.7051866319443,11.939888888888886,0.2055555555555555,178.7524436362968,-10.8008280056283,105.90314327818886,1553.0,1133.0,1200.0,1528.0,1471.0,995.0,60.0,293.1,1649250913.28819,1649250914.23784,31b10eaa-d6b8-4969-8e13-ab49df8a66e5
0.1580912183400531,0.3351252554573811,0.2309481411380694,0.1737776121552995,0.0363474410992464,-0.3047297642821359,-0.1598048176854541,-0.1837617441182995,-9.999537608944392,22.56882629442807,26.148066671404685,-0.9165223934769264,1.0895759658095514,-0.0740884076444085,3435.135525173612,11.94111111111111,0.2022222222222222,178.75696066806793,-10.845737542922258,105.9266755566093,1553.0,1133.0,1200.0,1528.0,1471.0,995.0,60.0,293.1,1649250914.3458574,1649250915.461795,31b10eaa-d6b8-4969-8e13-ab49df8a66e5
0.1360145579104751,0.3141530863442567,0.227582075102379,0.2111725022919282,0.0383723404595522,-0.3192196310621031,-0.1703763706805048,-0.1964765346677119,-10.20028094998919,23.04775233128257,26.00390820382989,-1.0305535470307432,1.0088066858034166,-0.0599564566127433,3429.1802571614585,11.920444444444444,0.1855555555555555,178.7808283846676,-10.84111644563005,105.94383830417372,1553.0,1026.0,1200.0,1528.0,1471.0,995.0,60.0,293.1,1649250917.809332,1649250918.9466493,ccdb7295-5274-4fc0-9abb-7400d397ca10
0.1239309064119464,0.3080389429241351,0.2202714003143789,0.2089898177864578,0.0322581965124099,-0.3148016708301123,-0.176109202328401,-0.1946488656014525,-10.239695326164592,23.052012705938377,25.44487107058213,-1.0161469332132151,0.9909139775182152,-0.0350779208077243,3427.504150390625,11.937555555555557,0.2,178.779170925429,-10.81362294208224,105.90828944627351,1553.0,1026.0,1200.0,1528.0,1471.0,995.0,60.0,293.1,1649250919.0559988,1649250920.180974,ccdb7295-5274-4fc0-9abb-7400d397ca10
0.140327330217852,0.3340865085226309,0.222204258590774,0.1932639787006379,0.0261046067136588,-0.324413367066197,-0.1795541613422986,-0.1985671776527588,-10.115415861035633,23.112818588216168,25.64073387551896,-1.0016789441457148,1.0880523902213295,-0.0210742445567879,3441.885091145833,11.928666666666668,0.1933333333333333,178.80790932581678,-10.851729136644174,105.90187134518344,1553.0,1026.0,1200.0,1528.0,1471.0,995.0,60.0,293.1,1649250920.2887144,1649250921.3368273,ccdb7295-5274-4fc0-9abb-7400d397ca10
0.1787609681339416,0.340634558771813,0.1897401289753048,-0.3737867287639414,-0.0507363757374531,0.2226250167564167,-0.0381004784224678,-0.0617549838655004,-9.4902949544203,19.99282309922254,30.539877455727414,1.48551311168231,1.132471235216339,-0.069113933510283,3459.4772135416665,11.959666666666667,0.2033333333333333,178.81462567850062,-10.70062116195018,105.85435599585738,1553.0,1435.0,1200.0,1528.0,1471.0,995.0,60.0,293.1,1649250922.212016,1649250923.3609912,b6690f9f-b9eb-4fc7-991d-e2301256a210
0.18690001083128,0.3556503688194141,0.1902660768773834,-0.3878952823609707,-0.0542076316759546,0.2180361220043488,-0.0393233069810885,-0.0696047555649848,-9.465261331393313,19.90738259800465,30.13066268259349,1.506433856130731,1.1940082890152006,-0.0621932139282089,3481.331976996528,11.96377777777778,0.21,178.82467516349945,-10.636515472857642,105.87351619429909,1553.0,1435.0,1200.0,1528.0,1471.0,995.0,60.0,293.1,1649250923.4940708,1649250924.5762198,b6690f9f-b9eb-4fc7-991d-e2301256a210
0.1845069481553114,0.3616067277828695,0.1935926968615322,-0.3883160412414885,-0.0533266689764226,0.2119877218105672,-0.0396651734127393,-0.0631881919668348,-9.492866995952244,20.054348043374304,30.05533213673847,1.4949054132941912,1.2174764822289708,-0.0669097601864623,3479.4478624131943,11.96277777777778,0.2044444444444444,178.8052774262566,-10.672685498517351,105.9019753158408,1553.0,1435.0,1200.0,1528.0,1471.0,995.0,60.0,293.1,1649250924.6862123,1649250925.8125658,b6690f9f-b9eb-4fc7-991d-e2301256a210
0.2207316048203592,0.3760439952122784,0.2985061388038803,-0.3962184091952483,0.0402657528543249,0.1983656731168129,0.0664185094859522,0.0458670974299375,-8.792950681706294,20.18036082168268,29.90256015188677,1.4885079672664288,1.2756512320245386,-0.4865352519103975,3466.0079752604165,11.963333333333331,0.2,178.80697586663018,-10.644698418938267,105.9009925275102,1553.0,1435.0,1200.0,1435.0,1471.0,995.0,60.0,293.1,1649250927.7446716,1649250928.885885,3749f371-f858-48ea-8e1c-d0e601eccb6d
0.2218360952546206,0.3895608538705896,0.2940355823043902,-0.3954031915179694,0.0341384601880885,0.1838363634113358,0.0576483291792917,0.0263938779282518,-8.755920616214443,20.07970615787078,29.77669362177044,1.4531284573672196,1.3268156451292288,-0.4580765569985214,3455.17578125,11.963125,0.2,178.8018310266379,-10.66828409378548,105.92039311066522,1553.0,1435.0,1200.0,1435.0,1471.0,995.0,60.0,293.1,1649250928.9942443,1649250930.1036294,3749f371-f858-48ea-8e1c-d0e601eccb6d
0.2087399943478595,0.3581354722412615,0.2874743830141098,-0.3847658920648858,0.0354533295238917,0.209555213318688,0.0593445104188894,0.0347301508365712,-8.931901759569273,20.1420668222338,30.42912953492524,1.4870291158227236,1.202689819085662,-0.45627648444654,3449.8831922743057,11.966,0.21,178.81443898666328,-10.628852000608887,105.94909223746528,1553.0,1435.0,1200.0,1435.0,1471.0,995.0,60.0,293.1,1649250930.2126648,1649250931.3409984,3749f371-f858-48ea-8e1c-d0e601eccb6d
0.2417260259819852,0.3889787712783444,0.4353405647673852,-0.385340389042425,0.1661463116580852,0.1677266835164376,0.2021914380780942,0.1854394940471878,-7.87092207313979,20.328283268505377,29.81557299484584,1.4033642144201484,1.32574734420999,-1.035699341693629,3446.492431640625,11.951666666666668,0.2,178.77265796060044,-10.663919425036331,105.96770222622384,1553.0,1435.0,1200.0,1330.0,1471.0,995.0,60.0,293.1,1649250933.065689,1649250934.20569,b08365a1-f984-4006-9d63-0918fac5592d
0.2636752445789145,0.3693118632371254,0.4410379954191885,-0.3683826136985774,0.1783270609818677,0.1747769129902651,0.2125925619636619,0.1819955471397747,-7.885371753864059,20.24992941555948,30.360942318568195,1.3807983731861386,1.2455251511911087,-1.0763049342991713,3443.722900390625,11.947111111111113,0.1944444444444444,178.7907609975406,-10.656294182874184,105.95295584780575,1553.0,1435.0,1200.0,1330.0,1471.0,995.0,60.0,293.1,1649250934.3144398,1649250935.432122,b08365a1-f984-4006-9d63-0918fac5592d
0.2484490551334101,0.3562683575133482,0.4461528378811181,-0.3656739825676098,0.1873339176203319,0.1836391336424193,0.2225855708067488,0.2014556168970484,-7.929909686559515,20.137467016563924,30.21836481788037,1.3940669693183034,1.1981718196537818,-1.1115132060945656,3440.498046875,11.953,0.2033333333333333,178.784149374424,-10.6781398788883,105.93050577491384,1553.0,1435.0,1200.0,1330.0,1471.0,995.0,60.0,293.1,1649250935.541563,1649250936.8665524,b08365a1-f984-4006-9d63-0918fac5592d
0.2775339695877938,0.382368517626214,0.5561153746826666,-0.3492249596298656,0.2811893069198078,0.1350021079733329,0.3194388618235042,0.2924577389121724,-7.068452622960187,20.77143056876701,29.877213336722665,1.257725388007699,1.2979462877703818,-1.523973699081556,3442.33984375,11.930333333333332,0.1866666666666666,178.74047562705115,-10.654973679634647,105.92704135118484,1553.0,1435.0,1200.0,1236.6666666666667,1471.0,995.0,60.0,293.1,1649250937.5654328,1649250938.5148125,ef908fce-27ba-445b-a8d8-b41118cebdea
0.2794273817645284,0.3889954600032317,0.5467666525115573,-0.3460561232116447,0.2733263869418258,0.1275993922793425,0.308170429876092,0.2851470642337517,-7.16138514765882,20.592652293600768,30.08588464685006,1.232278215638232,1.3206238131526178,-1.4833445925050908,3440.8043619791665,11.946666666666664,0.2,178.7486248016409,-10.68447772525564,105.88526791422105,1553.0,1435.0,1200.0,1210.0,1471.0,995.0,60.0,293.1,1649250938.623656,1649250939.7374666,ef908fce-27ba-445b-a8d8-b41118cebdea
0.2650953036882449,0.359936843506208,0.5489887819728216,-0.3499349890264392,0.2803477903702345,0.1588143963954601,0.3201225939768142,0.2975199866481698,-7.31497226383941,20.70289722463852,30.02211338005874,1.3119262655611603,1.213908901023909,-1.5167470431922283,3435.747504340278,11.951555555555554,0.1977777777777777,178.72257294232662,-10.68978354901214,105.88918996062444,1553.0,1435.0,1200.0,1210.0,1471.0,995.0,60.0,293.1,1649250939.845504,1649250940.9586544,ef908fce-27ba-445b-a8d8-b41118cebdea
0.2617160889685688,0.3556766662159384,0.6112347040575328,-0.2846517030762421,0.3427514986444434,0.0993822902362405,0.3659063510931623,0.3433037438861944,-6.957250519415685,21.26934597356375,29.933116260827138,1.0381316588134204,1.1921054549948913,-1.7518284204996124,3431.3154296875,11.93888888888889,0.2,178.6937738291462,-10.6981744364075,105.88122292441255,1553.0,1435.0,1200.0,1071.0,1471.0,995.0,60.0,293.1,1649250941.5495465,1649250942.5966742,cde61a6c-7778-4758-b2df-90b3ae7e7ed3
0.2796377609013049,0.3783713142410434,0.6064485790966195,-0.3106466794480271,0.3296422494282138,0.0988300448864339,0.3582143643521687,0.3350595119448495,-6.885761637751025,21.33190007004556,29.563926174013226,1.0956824839062955,1.282888509076038,-1.7144756449890457,3434.523763020833,11.940333333333337,0.1933333333333333,178.69731945623542,-10.718846952567928,105.86465819785548,1553.0,1435.0,1200.0,1071.0,1471.0,995.0,60.0,293.1,1649250942.705546,1649250943.93143,cde61a6c-7778-4758-b2df-90b3ae7e7ed3
0.2983746519144286,0.3841698888869186,0.6084471807173825,-0.3057948092508662,0.3307598884568544,0.0882847909343742,0.3575700782483576,0.3346781997567117,-6.791884181978587,21.31164289803833,29.51263881149376,1.0610455695957666,1.303955794614533,-1.7170590994669128,3428.570556640625,11.936111111111112,0.1922222222222222,178.72316185641506,-10.684124737284783,105.8446222173802,1553.0,1435.0,1200.0,1071.0,1471.0,995.0,60.0,293.1,1649250944.0403168,1649250945.167243,cde61a6c-7778-4758-b2df-90b3ae7e7ed3
0.1331349935352213,0.3222921288006131,0.0791070013888252,-0.3600857847316394,-0.1511135286291851,0.2272665062983583,-0.1565570892515614,-0.1853921825331977,-10.396725490214408,20.27291762987224,29.558344200122264,1.460772438662099,1.0700950881065725,0.3828329668877659,3428.722981770833,11.952000000000002,0.2011111111111111,178.75074671374304,-10.66448092350435,105.83265648486424,1553.0,1435.0,1200.0,1613.0,1471.0,995.0,60.0,293.1,1649250947.095281,1649250948.2325852,273d95bc-72e9-47b8-8124-e2a98970e75e
0.1399986128258178,0.3430276213051148,0.0802903840035057,-0.3659369553476119,-0.1544532977805252,0.2120666142517561,-0.1609356055591634,-0.1818025883744389,-10.347653278776994,20.225839789455573,29.507892336936024,1.4395785583197522,1.1487602506929866,0.3944430209337411,3436.2068684895835,11.95977777777778,0.2077777777777777,178.7750181704136,-10.64495360239476,105.84481118594724,1553.0,1435.0,1200.0,1613.0,1471.0,995.0,60.0,293.1,1649250948.340703,1649250949.462202,273d95bc-72e9-47b8-8124-e2a98970e75e
0.141011062394991,0.3366505041108283,0.0810793058054496,-0.3542346143652551,-0.1511924207724989,0.2102389452646411,-0.1601466838003526,-0.1901257137556997,-10.337858076053376,20.240962865234657,29.89730430286028,1.4092804688148377,1.1199309687550556,0.3876837946738283,3437.7379557291665,11.957333333333333,0.2,178.7331233078646,-10.662386047567663,105.88659448873985,1553.0,1435.0,1200.0,1613.0,1471.0,995.0,60.0,293.1,1649250949.571534,1649250950.8989637,273d95bc-72e9-47b8-8124-e2a98970e75e
0.1158707557708105,0.2992950605683475,0.005145584574738,-0.3337883875185146,-0.2146217373773084,0.2302118140433946,-0.2358963303125067,-0.2652047775970059,-11.033996311704222,20.54682514955521,29.626077625752096,1.4058934456836556,0.9798303400963476,0.6800985567613367,3439.5771484375,11.959111111111111,0.2,178.71457554971846,-10.668503715198012,105.91059425566344,1553.0,1435.0,1200.0,1694.0,1471.0,995.0,60.0,293.1,1649250951.8095558,1649250952.939212,a4e080c6-a425-4599-bf9e-5c1e57d5cc43
0.0877092831141533,0.3067235677161266,-0.0011961329351826,-0.3467034436665473,-0.2245090524506296,0.2359481854487678,-0.2426896558583238,-0.2608196871108635,-11.040616166880769,20.6338888483178,29.73397310136721,1.4481922881090254,1.0079719025390268,0.7127795692595404,3445.10693359375,11.961111111111112,0.2,178.7368814297279,-10.65432262979751,105.92204848290154,1553.0,1435.0,1200.0,1694.0,1471.0,995.0,60.0,293.1,1649250953.048851,1649250954.3837855,a4e080c6-a425-4599-bf9e-5c1e57d5cc43
0.124285921212823,0.3063822074088754,-0.0038086774972324,-0.3277268374549362,-0.2224715095948143,0.2222042586005733,-0.2472305076102515,-0.2707403793079194,-11.0715375111081,20.411063114392164,30.19177476531706,1.3729514602697162,1.0003471361453793,0.720871354094025,3443.569227430556,11.960555555555556,0.2011111111111111,178.69304223999512,-10.665643383755594,105.93816317588336,1553.0,1435.0,1200.0,1694.0,1471.0,995.0,60.0,293.1,1649250954.4965022,1649250955.6136773,a4e080c6-a425-4599-bf9e-5c1e57d5cc43
0.0852474426361713,0.303883955235351,-0.0875395785356304,-0.3215995442415895,-0.3030730282948655,0.220258251615776,-0.3401129121167511,-0.3633335131108864,-11.603000399880258,20.75393115021372,29.68827865731405,1.352512739144628,0.9931445297809076,1.0755616394845102,3438.197509765625,11.951,0.1933333333333333,178.68670534226518,-10.669425695872226,105.94201464366532,1553.0,1435.0,1200.0,1774.0,1471.0,995.0,60.0,293.1,1649250957.7434976,1649250958.9002285,4c1c65d9-550c-4bef-b211-ed7663df7273
0.0778447267228936,0.2947719093425875,-0.0803077950192561,-0.3128556595362756,-0.2922779470509202,0.2227039090340851,-0.331395324279403,-0.362741821328075,-11.72143897901354,20.719620286209697,29.973628152019224,1.3384029073520116,0.9566593666424308,1.037896467871625,3434.527235243056,11.951666666666666,0.1977777777777777,178.7231648920547,-10.66803736505968,105.91528659562326,1553.0,1435.0,1200.0,1774.0,1471.0,995.0,60.0,293.1,1649250959.0129051,1649250960.1136942,4c1c65d9-550c-4bef-b211-ed7663df7273
0.0909539767410212,0.2958501023849352,-0.0827666012546071,-0.3303434293885468,-0.2974716826489777,0.2345377347307092,-0.3300147109844825,-0.3506450187130561,-11.61636867229114,20.70402711689724,29.51260252870249,1.4041968164572085,0.9660426218756456,1.0457632169050195,3444.4918077256943,11.950555555555557,0.1944444444444444,178.737415702303,-10.662649294441923,105.88777762928606,1553.0,1435.0,1200.0,1774.0,1471.0,995.0,60.0,293.1,1649250960.221693,1649250961.34221,4c1c65d9-550c-4bef-b211-ed7663df7273
0.0510345351289981,0.2833193955245553,-0.1473792989336987,-0.3042564121912871,-0.3546290746025715,0.2268851939610661,-0.4024771899726591,-0.4209116654727065,-12.077124972997971,20.956303540565155,29.56588367806437,1.326386266378029,0.9145300506549568,1.3132209086826236,3443.722900390625,11.952,0.2,178.7130744259209,-10.683032286472535,105.86263190840172,1553.0,1435.0,1200.0,1856.0,1471.0,995.0,60.0,293.1,1649250963.0724428,1649250964.0021665,b252afc7-4c7f-46db-9b8e-23b29689a7f6
0.062197778274236,0.271998368800821,-0.1409364368060777,-0.2984841340663336,-0.3461350149845683,0.2334595413720801,-0.3944038881505827,-0.4136930292027311,-12.15315051169333,21.07364011505594,29.733973919748045,1.329226032683274,0.8708173698846806,1.280191219875067,3440.957763671875,11.952333333333334,0.1966666666666666,178.73715767293433,-10.67738713512352,105.86274574488786,1553.0,1435.0,1200.0,1856.0,1471.0,995.0,60.0,293.1,1649250964.1110408,1649250965.2303982,b252afc7-4c7f-46db-9b8e-23b29689a7f6
0.0623687113116433,0.3000313875324046,-0.1397925001139529,-0.3083062105362028,-0.3522754571186322,0.2147620967448883,-0.4003208023285816,-0.4286693972582795,-11.99594523618727,21.062817343339457,29.67589482082047,1.3094216661125266,0.9766419711390146,1.2987581785897049,3441.264892578125,11.953,0.2,178.73779363943706,-10.65981789643974,105.87024984605598,1553.0,1435.0,1200.0,1856.0,1471.0,995.0,60.0,293.1,1649250965.3382251,1649250966.4601402,b252afc7-4c7f-46db-9b8e-23b29689a7f6
0.1740668837767188,0.3803962133426823,0.1043656466424626,-0.3871458061991261,-0.1074861514163634,0.202205092643993,-0.0855278274143382,-0.1106812847958319,-8.305137800900129,15.321341311275376,30.96499041078177,1.4352070683609994,1.2655988745244298,0.2001222558851806,7187.445203993056,11.62677777777778,8.062222222222223,-179.08800020548085,-10.802966329157206,92.74255416485026,1553.0,1435.0,1350.0,1528.0,1471.0,995.0,60.0,293.1,1649250970.6453674,1649250971.784774,a4cdc25d-d3d2-4a1d-973a-0fc1907dcd38
0.181758870791145,0.374913207396974,0.1018936916515167,-0.3933256946064405,-0.1098660656860253,0.2101074587106318,-0.0850939206376033,-0.1134819572437628,-8.27626990322075,15.327925158010755,30.507865371154647,1.466767275469594,1.249485715827808,0.2047706623122469,7197.587463378906,11.629375,8.07375,-178.52165837443124,-10.715494468050316,87.36075849880365,1553.0,1435.0,1350.0,1528.0,1471.0,995.0,60.0,293.1,1649250971.8928945,1649250973.0164402,a4cdc25d-d3d2-4a1d-973a-0fc1907dcd38
0.2173392413835287,0.3958196328172739,0.113254165184754,-0.3860544641720137,-0.1020557395114759,0.1897401290620298,-0.0819645305595066,-0.1131400912783349,-8.291721268536541,15.368304630296198,31.53114904499116,1.4055857475085751,1.3187631798892978,0.1782008629422984,7206.921061197917,11.63,8.043333333333333,-178.23805753644373,-10.60484398054003,82.5007894750735,1553.0,1435.0,1350.0,1528.0,1471.0,995.0,60.0,293.1,1649250973.125123,1649250974.2421434,a4cdc25d-d3d2-4a1d-973a-0fc1907dcd38
0.2779021330992188,0.5170243043982959,0.1705561818613618,-0.4082626164438017,-0.0795846165653927,0.1198153644884297,-0.0701175547961922,-0.0916682691901761,-8.741672210781969,16.537137771720182,35.818211618638045,1.3096100982032934,1.744929668705312,0.0723410616301305,7212.308539496527,11.619,8.08,-178.23999579234817,-10.458943455905745,75.60661964637552,1647.0,1435.0,1350.0,1528.0,1543.0,995.0,60.0,293.1,1649250975.1552703,1649250976.297579,c4c32c2c-2633-4d0f-96d8-5421fbb11c5d
0.2522884742559378,0.5041780293279653,0.1258637645752168,-0.4403454424122276,-0.1137449312950811,0.1161074322397069,-0.0946398744546428,-0.1253946771955974,-8.194064760760453,14.919746403096372,29.056083887127976,1.359899336978342,1.7538944550234152,0.2043775594423126,7215.00537109375,11.620888888888889,8.08888888888889,-178.4151218426673,-10.385568536063326,72.38478146938512,1647.0,1435.0,1350.0,1528.0,1543.0,995.0,60.0,293.1,1649250976.405511,1649250977.5200384,c4c32c2c-2633-4d0f-96d8-5421fbb11c5d
0.2623866723939812,0.519785530347085,0.129821522077679,-0.4527709631400245,-0.1174660124886957,0.1112161172925987,-0.0971381268332586,-0.1277745911499482,-8.223612446520596,15.282189088863529,28.90965623668519,1.3794983609735667,1.8157258840229176,0.2090115476989503,7208.9375,11.622333333333335,8.1,-178.64444923860003,-10.385167167585848,69.63600522994943,1647.0,1435.0,1350.0,1528.0,1543.0,995.0,60.0,293.1,1649250977.6291878,1649250978.7182655,c4c32c2c-2633-4d0f-96d8-5421fbb11c5d
0.3309571190463717,0.6120893692482351,0.1987206882099066,-0.4211088955312011,-0.0711825991703558,0.0304699740040544,-0.0744829221691824,-0.0979007514814345,-8.78377059645716,16.482375734866878,34.77017270259283,1.1386682599644,2.114434368172042,0.0386263545202168,7196.83154296875,11.618666666666668,8.100000000000001,-179.21099066295534,-10.371818985809137,64.965774592494,1679.6666666666667,1435.0,1350.0,1528.0,1566.6666666666667,995.0,60.0,293.1,1649250980.6809263,1649250981.828069,053a5549-7edb-44ee-a704-c7cfedb91916
0.3126804324973213,0.5971524517569898,0.1727125677788257,-0.4728753255352813,-0.0956917704952109,0.0649458552527831,-0.0810967170377852,-0.1103131214074314,-8.537017950758527,15.807196151049263,30.69782348665253,1.3266167268535898,2.0974718485847514,0.1093220129310623,7196.83154296875,11.59988888888889,8.07888888888889,-179.58695311344934,-10.44274186773952,62.52337559519812,1745.0,1435.0,1350.0,1528.0,1614.0,995.0,60.0,293.1,1649250981.9361942,1649250983.057268,053a5549-7edb-44ee-a704-c7cfedb91916
0.3167039333084433,0.6153239482129069,0.171713267066984,-0.4541252796725231,-0.0961782720368879,0.0309433265387107,-0.0906032247003389,-0.1133504703006506,-8.459505231899769,15.578202226432111,30.81149747698726,1.2064023463849185,2.161694136899911,0.1275537159243138,7196.83154296875,11.598,8.116666666666667,-179.81810189316073,-10.458026692737144,60.94355815254352,1745.0,1435.0,1350.0,1528.0,1614.0,995.0,60.0,293.1,1649250983.1710749,1649250984.279918,053a5549-7edb-44ee-a704-c7cfedb91916
0.3938604772559321,0.717292077685765,0.2116195586238884,-0.4663798670744291,-0.0836475639028915,-0.0674352207226022,-0.0922862577806818,-0.111207232765304,-8.496454534874422,16.19690754186689,29.5658276716066,1.018847334633587,2.559487617600241,0.0686800805087686,7196.83154296875,11.579,8.103333333333332,179.75400891580915,-10.490130953429665,59.03328856874464,1849.0,1435.0,1350.0,1528.0,1686.0,995.0,60.0,293.1,1649250985.1880398,1649250986.3255684,e6580e87-e115-4650-bf7b-bd5615264b33
0.3973317327998387,0.7242082912470693,0.2106071090669504,-0.4463018031465268,-0.0812019062484977,-0.0867901024216876,-0.0962308668417071,-0.1198853727574656,-8.40651900758921,15.896914620980573,30.389599651216887,0.9282006208066158,2.574948700646619,0.0747061527551596,7196.83154296875,11.581666666666669,8.07888888888889,179.52986791018623,-10.543212906929282,57.95435394195403,1849.0,1435.0,1350.0,1528.0,1686.0,995.0,60.0,293.1,1649250986.434004,1649250987.5512998,e6580e87-e115-4650-bf7b-bd5615264b33
0.3855636505708561,0.706247173911112,0.2262672056948422,-0.4358354384562336,-0.0644636150726162,-0.0742988404002065,-0.0805444713369091,-0.1046197354283013,-8.589433600883929,16.37121770317799,31.149123033005285,0.9366135785318188,2.501858755299895,0.0068946091145834,7200.191189236111,11.576777777777778,8.105555555555556,179.3146562385382,-10.57280859092164,57.02526949154901,1849.0,1435.0,1350.0,1528.0,1686.0,995.0,60.0,293.1,1649250987.659591,1649250988.7817686,e6580e87-e115-4650-bf7b-bd5615264b33
0.4486642387159955,0.8305943826174969,0.2527355298739893,-0.4466568182071461,-0.0662518378509702,-0.1915326243053148,-0.097124978125486,-0.115427964311344,-8.285617195498615,16.478259682277468,30.42275715382495,0.6996486808183972,2.975535924493788,0.0109533038780723,7198.847330729167,11.528333333333332,8.059999999999999,178.70970486593035,-10.579903260194516,55.4337378950129,1962.0,1435.0,1350.0,1528.0,1760.0,995.0,60.0,293.1,1649250990.7172768,1649250991.8560994,40b2d07b-1c9f-4a8b-8e49-20dda94aae66
0.4349107036008813,0.820653969162819,0.2478047689583996,-0.5014605972513979,-0.0715770601472847,-0.1616587837502414,-0.0820828689932809,-0.1094321588034919,-7.901623653140051,15.721393915980872,26.15944424154884,0.8846539101418399,2.9797432515219566,-0.0036063142935136,7208.9375,11.538666666666666,8.07,178.50338610058168,-10.60669647962492,54.782974546367,1962.0,1435.0,1350.0,1528.0,1760.0,995.0,60.0,293.1,1649250991.9649065,1649250993.0855138,40b2d07b-1c9f-4a8b-8e49-20dda94aae66
0.4314591711452474,0.8238086445220214,0.2516634053203195,-0.4584294560097962,-0.0646006651699958,-0.1947348380651159,-0.0915934229125861,-0.1087120147803397,-8.095663941564187,16.01198304017396,27.504784638288665,0.7154951526001792,2.975976344259954,-0.0024256193113797,7208.9375,11.536111111111111,8.064444444444446,178.38648210056758,-10.58568681773796,54.33178211562476,1962.0,1435.0,1350.0,1528.0,1760.0,995.0,60.0,293.1,1649250993.1935892,1649250994.319286,40b2d07b-1c9f-4a8b-8e49-20dda94aae66
0.0438027522267491,0.1211302341874702,0.1201177843784922,-0.2732649294224923,-0.0270292757052303,0.359647572245541,-0.0041636922898742,-0.0280680226821087,-8.933359548914565,15.482000285461496,32.51548247515042,1.533894290669819,0.2708784001205645,-0.0754711347417191,7215.00537109375,11.618555555555554,8.1,178.52777898283748,-10.639653755053786,53.40307787908354,1459.0,1435.0,1350.0,1528.0,1394.0,995.0,60.0,293.1,1649250996.2490647,1649250997.3871868,7be7f60e-8ab6-4fe3-a787-42fd79178fe6
0.0562693598585082,0.1229715994839336,0.1290117815842867,-0.261942804819069,-0.0175276987296318,0.3536627244421155,0.0008393867679416,-0.0234720053318016,-9.087681826486389,15.60538241490538,33.45557021399713,1.4962385496195711,0.2697168493556043,-0.1061700117348106,7221.0830078125,11.620333333333331,8.096666666666668,178.37884594907547,-10.666763345051995,53.0479687550355,1459.0,1435.0,1350.0,1528.0,1394.0,995.0,60.0,293.1,1649250997.4951117,1649250998.820673,7be7f60e-8ab6-4fe3-a787-42fd79178fe6
0.0500615316580223,0.1242859212150271,0.1045891745417199,-0.3021263216018083,-0.0426762245470668,0.3552690567162841,-0.009449468233411,-0.0326569178282993,-8.365685859498296,14.69622413184536,28.48322385851484,1.5828201723018211,0.3169897944957333,-0.0303052827402372,7221.0830078125,11.621555555555554,8.101111111111111,178.28252358576032,-10.650536048812649,52.80202768285664,1459.0,1435.0,1350.0,1528.0,1394.0,995.0,60.0,293.1,1649250998.928139,1649251000.0511386,7be7f60e-8ab6-4fe3-a787-42fd79178fe6
-0.055496203808663,-0.0606899390105803,0.0996321161539741,-0.2295192115851956,-0.0110010144154009,0.4925282855392099,0.025000116487447,-0.0011131947653253,-9.056106739984973,15.979178574537109,31.83482066924553,1.7359208904824173,-0.4108326167634585,-0.1337676328483412,7221.0830078125,11.610666666666669,8.096666666666668,178.18978175939006,-10.65699418240037,52.46654890193817,1364.0,1435.0,1350.0,1528.0,1312.0,995.0,60.0,293.1,1649251001.165426,1649251002.300958,963a4375-4f0e-4569-936f-6b84bf51c4aa
-0.0598878685261592,-0.0700781085154828,0.0896917019020752,-0.2421025153109664,-0.0165497643603975,0.5027974163792571,0.0236063546610841,-0.0077138402864471,-9.042521041924491,15.517806981217277,30.30253329198659,1.783590977840991,-0.4316482120285893,-0.1138843371654005,7221.0830078125,11.589,8.083333333333334,178.24271572545769,-10.651874955617446,52.31291859530193,1364.0,1435.0,1350.0,1528.0,1312.0,995.0,60.0,293.1,1649251002.4086044,1649251003.5258949,963a4375-4f0e-4569-936f-6b84bf51c4aa
-0.0371669208493405,-0.0279628334212187,0.0496670705875674,-0.2685313986939187,-0.0705514619911965,0.4919102968448455,-0.0283046992723143,-0.0552989735443307,-8.907401358611454,15.873243285289009,30.802147219415,1.819254180309432,-0.2783520930937281,0.0936536833443715,7227.17236328125,11.59722222222222,8.095555555555555,178.19032362106424,-10.638253376546457,52.16422044415636,1364.0,1435.0,1350.0,1528.0,1312.0,995.0,60.0,293.1,1649251003.6349232,1649251004.767376,963a4375-4f0e-4569-936f-6b84bf51c4aa
-0.1239220227839477,-0.1614484047788649,0.0070652944544988,-0.272015803058572,-0.0919838376929005,0.6063696869339356,-0.0375745303084937,-0.0683161835216344,-9.522019482271382,16.74417896388473,27.819018579366457,2.087187018012655,-0.7504715845550894,0.1729375036229783,7211.634331597223,11.576777777777778,8.11,178.17160434927894,-10.5820129348744,51.97775627981501,1262.0,1435.0,1350.0,1528.0,1222.0,995.0,60.0,293.1,1649251005.668439,1649251006.8076875,7326477a-43ca-4b80-b1b5-6dd6f32104ef
-0.1154411131510569,-0.1539536471901615,0.0132714791937898,-0.2716739369588857,-0.0900772765798778,0.5902362381926339,-0.0367593110798649,-0.0544443083639366,-9.35968084186761,16.942321735611635,26.638711339712923,2.051677946631419,-0.7126949381695966,0.1599976375309175,7196.83154296875,11.565111111111111,8.11,178.16341115791454,-10.579529212473716,51.880939486694935,1262.0,1435.0,1350.0,1528.0,1222.0,995.0,60.0,293.1,1649251006.9159744,1649251008.2415974,7326477a-43ca-4b80-b1b5-6dd6f32104ef
-0.1015560889506627,-0.1398450949911864,0.0434608861106616,-0.2562768115905748,-0.0676587483488349,0.5847137863055762,-0.0208625368108678,-0.0495135468501115,-9.71261950468475,17.88238764700396,30.00036776012811,2.0126293659140866,-0.6870414778151863,0.0716285081643874,7196.83154296875,11.567333333333332,8.123333333333335,178.16249743038557,-10.558387595126542,51.82231066067936,1262.0,1435.0,1350.0,1528.0,1222.0,995.0,60.0,293.1,1649251008.3498583,1649251009.469581,7326477a-43ca-4b80-b1b5-6dd6f32104ef
-0.1848004910074283,-0.3078197081859994,0.0114175129736886,-0.1960031814606448,-0.065791633485648,0.6889171939495798,-0.0148141364641476,-0.0423343585818362,-9.801056358772032,18.615217404727165,29.19868841764318,2.1139159556740883,-1.3187571315473188,0.0828626700086012,7188.114854600694,11.517333333333331,8.108888888888888,178.18667781786723,-10.519271765796049,51.74938776655077,1153.0,1435.0,1350.0,1528.0,1121.0,995.0,60.0,293.1,1649251010.5862403,1649251011.9344127,a4310deb-9b00-45de-833c-ba1b61b2b524
-0.2332402931401894,-0.346937085913331,0.0006881765770802,-0.1736240984771572,-0.066988164944383,0.709468604193637,-0.0186404072261063,-0.0415454367791292,-9.92545305875884,18.79402144638092,29.543368557725124,2.110259380408439,-1.4710780177462897,0.1003542279571287,7190.79345703125,11.478555555555555,8.085555555555555,178.20250564290393,-10.52698447232507,51.70799416399581,1153.0,1435.0,1350.0,1528.0,1121.0,995.0,60.0,293.1,1649251012.0427227,1649251013.369292,a4310deb-9b00-45de-833c-ba1b61b2b524
-0.2340292148860689,-0.3391136101889742,0.0019373027665038,-0.1860101713944179,-0.0686186034133753,0.7118222205890593,-0.0164051288261241,-0.040243715762392,-9.84074482882436,18.7252736390252,29.360190171436475,2.1431081175004376,-1.4391082530491672,0.0983568234739206,7184.7666015625,11.481555555555556,8.09,178.215572553696,-10.512976228656065,51.67307937532357,1153.0,1435.0,1350.0,1528.0,1121.0,995.0,60.0,293.1,1649251013.477918,1649251014.5904968,a4310deb-9b00-45de-833c-ba1b61b2b524
0.1856245873041881,0.379449507252988,0.133240183028077,-0.3545633308247721,-0.0797424008763942,0.1905421994839297,-0.0731417550307757,-0.0958890006874755,-9.054306284690613,16.3005503665062,33.589842920139304,1.3434712670904876,1.241922078159543,0.1082874258237959,7198.175401475694,11.511000000000005,8.085555555555556,177.9331563740745,-10.600732680978377,51.6880169990384,1553.0,1435.0,1350.0,1528.0,1471.0,995.0,60.0,293.1,1649251016.5230815,1649251017.657562,d13eee52-0ea1-41cf-97cc-c504f92a9433
0.1892799247516999,0.3780557456004439,0.1003158483044568,-0.3832011964295059,-0.1071837313168557,0.190068846464966,-0.090721562718948,-0.1105760951166879,-8.52718101887303,15.061030513121937,29.399765872392823,1.3967486681386874,1.27151799419078,0.2101207770131064,7206.91796875,11.621333333333332,8.126666666666665,177.93404581648645,-10.592954897924765,51.81945677997116,1553.0,1435.0,1350.0,1528.0,1471.0,995.0,60.0,293.1,1649251017.7670658,1649251018.8914788,d13eee52-0ea1-41cf-97cc-c504f92a9433
0.1723049585221511,0.3621852703726783,0.1325695995247904,-0.3428215430128991,-0.0748379369533211,0.2012846839081843,-0.0686449007319294,-0.0976640747312185,-9.065332695526097,16.220233607631666,34.264643321861584,1.3406606639941794,1.1697784576418084,0.0951098629985339,7208.9375,11.618,8.14777777777778,177.94411047968345,-10.589754100524964,51.906060922462245,1553.0,1435.0,1350.0,1528.0,1471.0,995.0,60.0,293.1,1649251018.9996593,1649251020.124684,d13eee52-0ea1-41cf-97cc-c504f92a9433
0.1980764021852153,0.3667215702277285,0.1001186178111535,-0.6514478215710077,-0.132902582874036,0.4680980100616709,-0.0094757657139584,-0.0331697170145566,-8.257402305427627,14.379364418226054,32.54722041937523,2.6227248418499665,1.232205544889693,0.1309271162474724,7215.00537109375,11.619,8.11,178.00166924272904,-10.482968361720047,52.19329580054319,1553.0,1537.0,1350.0,1528.0,1471.0,995.0,60.0,293.1,1649251022.0528405,1649251023.1988564,f4c08810-d416-4736-98ca-d4f78205f99c
0.1926591395215879,0.366537488494412,0.0854183755808681,-0.6718940515155316,-0.1492727108846092,0.4708855333963631,-0.0207967933797295,-0.0409931914155522,-8.129994970309616,14.230253282643504,30.14371844848637,2.673071016220316,1.253498468738306,0.18593942291402,7215.00537109375,11.613555555555555,8.112222222222222,178.05379572865473,-10.471865035450543,52.30880226796214,1553.0,1537.0,1350.0,1528.0,1471.0,995.0,60.0,293.1,1649251023.331343,1649251024.422984,f4c08810-d416-4736-98ca-d4f78205f99c
0.1911075934315912,0.3514690837200676,0.1100195858868975,-0.6350645402028902,-0.1208583763500768,0.4808390956010647,-0.0019021165244857,-0.0277393053184107,-8.625467564774446,14.897869643209296,34.4404603139416,2.618445848035501,1.15944411454275,0.0907412440858481,7215.00537109375,11.608,8.117777777777778,178.0781628079737,-10.480750921833256,52.40210758493891,1553.0,1537.0,1350.0,1528.0,1471.0,995.0,60.0,293.1,1649251024.5313962,1649251025.6440945,f4c08810-d416-4736-98ca-d4f78205f99c
0.1998909221981165,0.3547168114702868,0.0745838499961941,-0.9549067247920564,-0.1854316285572293,0.7465610727247929,0.0529673934793198,0.0296416062840327,-7.764483103858916,13.280906104352162,30.890274688608752,3.924428184866141,1.2341019969449194,0.1427197500288918,7208.9375,11.607333333333337,8.086666666666666,178.15502064997415,-10.448731184731711,52.59342535759546,1553.0,1645.0,1350.0,1528.0,1471.0,995.0,60.0,293.1,1649251027.5884595,1649251028.720565,0e939d48-4963-4038-a683-52fee70df40e
0.2165897657105185,0.3672606667613488,0.1148977520655985,-0.9176432988333874,-0.1534539967533127,0.7399209817860322,0.0704551592797525,0.052678121936005,-8.471492759318814,14.825637821899427,36.77570328118705,3.8382797116202623,1.2319846750374002,0.0283309206989844,7215.00537109375,11.598666666666666,8.106666666666667,178.18267836265326,-10.451469805997672,52.66015516742162,1553.0,1645.0,1350.0,1528.0,1471.0,995.0,60.0,293.1,1649251028.8324032,1649251029.956466,0e939d48-4963-4038-a683-52fee70df40e
0.2088320352826977,0.377661284740053,0.1022355578158888,-0.9464258108569652,-0.1708628719351383,0.7352663437353314,0.0613694103045157,0.034033270592804,-8.080148909436284,14.51264676141728,33.714734806738804,3.889750121951195,1.2980884863463882,0.0793295886826285,7210.960123697917,11.596666666666668,8.100000000000001,178.26045600346188,-10.458843279797916,52.70595841599574,1553.0,1645.0,1350.0,1528.0,1471.0,995.0,60.0,293.1,1649251030.0649586,1649251031.1879883,0e939d48-4963-4038-a683-52fee70df40e
0.2292651082647726,0.3634212477776291,0.1190790374879857,-1.1316121725818384,-0.1800801087384763,0.9411091653706344,0.126994552508393,0.1042736057253497,-8.07154068693564,15.192305945719752,37.05891718579982,4.775923138738939,1.2388590771516967,-0.023414965674608,7213.656955295139,11.588888888888889,8.108888888888888,178.29758946524956,-10.39673077271442,52.88424684390058,1553.0,1761.0,1350.0,1528.0,1471.0,995.0,60.0,293.1,1649251032.2923944,1649251033.6328924,545dc23d-6165-4a9b-998e-d8e7195686dc
0.2352872108989175,0.3528233993645752,0.1062853562633277,-1.1374633473254423,-0.1887976952201842,0.9467105095558748,0.1209461523707125,0.0973705404226453,-7.971931684368393,14.84193567132803,35.54512598206874,4.798558070474041,1.211725799007158,0.0112542751170437,7208.9375,11.585555555555556,8.067777777777778,178.3233013329251,-10.413355927472924,52.92047947962768,1553.0,1761.0,1350.0,1528.0,1471.0,995.0,60.0,293.1,1649251033.7431934,1649251034.877774,545dc23d-6165-4a9b-998e-d8e7195686dc
0.2246104700547093,0.3593583008884265,0.1105455338035951,-1.1271810583867257,-0.1833804317606243,0.934666304685196,0.1231288359046457,0.1010127292108204,-7.912541723747804,14.67316902207834,36.11536958149843,4.747512958702476,1.229762491249815,-0.0032430448308006,7208.9375,11.588,8.106666666666666,178.35330711285891,-10.39801750446306,52.967547831018045,1553.0,1761.0,1350.0,1528.0,1471.0,995.0,60.0,293.1,1649251035.0098448,1649251036.096486,545dc23d-6165-4a9b-998e-d8e7195686dc
