raw_voltage_G-,raw_voltage_G0,raw_voltage_G1,raw_voltage_G2,raw_voltage_G3,raw_voltage_G4,raw_voltage_G5,raw_voltage_G6,load_x,load_y,load_z,load_l,load_m,load_n,rpm,voltage,current,roll,pitch,yaw,aileron1_pwm,elevator_pwm,throttle_pwm,rudder_pwm,aileron2_pwm,pbaro,pdiff,Tt,sample_start_time,sample_end_time,uid
0.0548213597096308,0.1944868083100544,0.1350678518943834,-0.1724275666647706,-0.0824378835493248,0.1369086693305943,-0.1603833599075361,-0.1821444541323942,-12.226394922962193,24.96439698176809,23.63422817256805,0.8664368636343124,0.6367251132924195,0.1930817529838149,3332.245361328125,11.967333333333334,0.1533333333333333,179.20384173162407,-3.874548319277224,100.28632886621988,1553.0,1435.0,1200.0,1528.0,1471.0,999.0,60.0,292.0,1649231762.0842,1649231763.277632,b4e4ae4f-71d1-471f-8907-68c0cb63697f
0.077607544522979,0.1957435201877067,0.1362962435269567,-0.1749485765358138,-0.0815548979830499,0.1377248999123828,-0.1583989180532473,-0.1795000487340107,-12.19257915186384,24.9180503343934,23.60805970063137,0.8737246021239977,0.6418186154448886,0.1875149585397946,3514.8068033854165,11.964666666666666,0.1433333333333333,179.23851632531048,-3.890793781922492,99.39545818585626,1553.0,1435.0,1200.0,1528.0,1471.0,999.0,60.0,292.0,1649231763.3895178,1649231764.5077865,b4e4ae4f-71d1-471f-8907-68c0cb63697f
0.0785304818308472,0.1959963797236616,0.1350951607271246,-0.1748095037719683,-0.0829582685179333,0.1359928120874599,-0.1608010839068345,-0.1827492941684479,-12.243950664297628,24.968515251597,23.40117465984258,0.8697345497728601,0.644871795048335,0.1941671655996661,3527.3359375,11.9685,0.15,179.24277608662288,-3.890184827869304,98.73075840539136,1553.0,1435.0,1200.0,1528.0,1471.0,999.0,60.0,292.0,1649231764.6161337,1649231765.7325337,b4e4ae4f-71d1-471f-8907-68c0cb63697f
0.1538826242821674,0.3892822027611574,0.1541986986986345,-0.2436378785052946,-0.1083959399289129,0.0113709869784443,-0.1907902283497278,-0.2123591495162471,-11.90010186647236,24.651662237666905,23.557979177933905,0.744001471340986,1.3756676514353503,0.2688478943067429,3527.6587727864585,11.951444444444444,0.1411111111111111,179.12194928129546,-3.9099615694632703,97.9988848528043,1647.0,1435.0,1200.0,1528.0,1543.0,999.0,60.0,292.0,1649231766.3499088,1649231767.384065,313d0b4b-070e-498d-89ab-611741ecdfea
0.1822787500146515,0.3958944792951669,0.1581433074510614,-0.2470514827237958,-0.1056271277721405,0.0079826690616078,-0.187654769724756,-0.211587928003839,-11.89497535307473,24.58168200517262,23.578531126872686,0.7438260877656929,1.400918441147745,0.2560669594481345,3532.342963324653,11.953666666666669,0.1455555555555555,179.1192642580417,-3.9034645891746425,97.6068873948688,1647.0,1435.0,1200.0,1528.0,1543.0,999.0,60.0,292.0,1649231767.5187194,1649231768.6016834,313d0b4b-070e-498d-89ab-611741ecdfea
0.1743824524640321,0.3918355782279533,0.1577099062031265,-0.2451530130684365,-0.1051588318722609,0.010076346099294,-0.1872987434589842,-0.2086390797587252,-11.903547499092689,24.598978159167427,23.55887004210753,0.744334005922197,1.3856690973489956,0.2549976864829994,3530.241455078125,11.956444444444443,0.1488888888888888,179.1126101359703,-3.894606877322259,97.26523829694516,1647.0,1435.0,1200.0,1528.0,1543.0,999.0,60.0,292.0,1649231768.710224,1649231769.8340976,313d0b4b-070e-498d-89ab-611741ecdfea
0.2712094471344379,0.5992825403526189,0.1814564508287354,-0.3253206252256921,-0.1302070997823076,-0.1210293092071515,-0.2171725842894011,-0.2383814337391615,-11.700448732089193,24.36667661798992,23.3003955221063,0.6302640816022342,2.175946515600978,0.3235501665673002,3533.151611328125,11.934777777777777,0.14,178.91327789523268,-3.9109484843664686,96.760456201975,1745.0,1435.0,1200.0,1528.0,1614.0,999.0,60.0,292.0,1649231770.9474497,1649231772.0874834,531f78e3-b060-4ef0-b0d1-f639f2470dee
0.3025559370644459,0.6062119026046213,0.1819823986566074,-0.3269905099304295,-0.1319427278084641,-0.1253289331617811,-0.2178431678765529,-0.2442194555266399,-11.56018821498573,24.36734594438757,23.4343699163182,0.6244916888520105,2.199994648115729,0.3272625818052975,3534.4467502170137,11.93422222222222,0.1411111111111111,178.89701597372877,-3.901290596880071,96.53036534267508,1745.0,1435.0,1200.0,1528.0,1614.0,999.0,60.0,292.0,1649231772.1967652,1649231773.3148372,531f78e3-b060-4ef0-b0d1-f639f2470dee
0.3013857031741362,0.6099855780617024,0.1827450230116231,-0.3279766622885778,-0.1307987911534321,-0.128510917850413,-0.2181981827053184,-0.2360278167993763,-11.671739337232856,24.29376732195416,23.381651020124508,0.6190515188352691,2.215573518057954,0.3254962239947208,3550.390679253472,11.934888888888889,0.14,178.88337380922653,-3.888030828107615,96.32770755872151,1745.0,1435.0,1200.0,1528.0,1614.0,999.0,60.0,292.0,1649231773.4238312,1649231774.5524318,531f78e3-b060-4ef0-b0d1-f639f2470dee
0.3690357406454091,0.7293099848926827,0.2101732022640849,-0.3960606236930333,-0.1405156783681522,-0.1973443483559148,-0.2222611302930075,-0.2496498677562613,-11.322956355380278,24.67638940291309,21.38930358447992,0.6217145109437276,2.688429999400231,0.3182462655250379,3565.4853515625,11.90922222222222,0.14,178.66209085831622,-3.8689503626380986,95.88294992508732,1849.0,1435.0,1200.0,1528.0,1686.0,999.0,60.0,292.0,1649231776.4766674,1649231777.619585,eabe4f71-2734-40bc-9147-db6e2f95740d
0.3704557997526198,0.7317030473789271,0.2099102283472074,-0.3969021403859943,-0.1406340166436923,-0.2005657792283821,-0.2228922677871519,-0.245231905429851,-11.332948453180125,24.601579783193355,21.152177055454995,0.615821935666924,2.6996634755999,0.3196359660345708,3565.1558702256943,11.907222222222224,0.14,178.65742659802308,-3.8522668666804334,95.7476947245932,1849.0,1435.0,1200.0,1528.0,1686.0,999.0,60.0,292.0,1649231777.7457778,1649231779.0516949,eabe4f71-2734-40bc-9147-db6e2f95740d
0.3673132615641041,0.7343590837658647,0.2115275179081836,-0.3990716757318641,-0.1396478643643179,-0.2005263331846511,-0.2215116545372483,-0.2489266893466033,-11.345969355658982,24.590323771087583,21.25542625631168,0.6208203332827368,2.7091717434694385,0.3145660439142645,3560.876925998264,11.904666666666667,0.1388888888888889,178.64109789244728,-3.862875858008757,95.61156146533575,1849.0,1435.0,1200.0,1528.0,1686.0,999.0,60.0,292.0,1649231779.1603763,1649231780.4819329,eabe4f71-2734-40bc-9147-db6e2f95740d
0.4165551251729323,0.80227209346948,0.2293045544177606,-0.4262500364973502,-0.1430007821340132,-0.2430492214198731,-0.2274811632834287,-0.2498865443850098,-11.420637127333295,25.13202347856821,21.15168648177622,0.5909954967894168,2.969817137887211,0.3109584124306643,3559.3981119791665,11.862000000000002,0.14,178.58848115072112,-3.861702773018808,95.4374242746265,1962.0,1435.0,1200.0,1528.0,1760.0,999.0,60.0,292.0,1649231781.3925924,1649231782.5321438,8c70665b-9b69-422d-abde-6eea0fb85ce1
0.4114928775415458,0.783009255256367,0.2259516370302613,-0.4128120661808619,-0.1410810723533328,-0.2363039395069522,-0.227915070318241,-0.2518719976836782,-11.49057063018792,25.185805272364647,21.171690642863023,0.57599783632254,2.896021311895786,0.3112761397980539,3556.9365234375,11.862888888888888,0.1322222222222222,178.60043853522808,-3.850939011501167,95.2872177900392,1962.0,1435.0,1200.0,1528.0,1760.0,999.0,60.0,292.0,1649231782.6406686,1649231783.7590358,8c70665b-9b69-422d-abde-6eea0fb85ce1
0.3780557456210697,0.7868881202857285,0.2269509378950552,-0.4200175531964938,-0.1428824438853228,-0.2330693598643095,-0.2266790927212857,-0.2451267158085492,-11.395204872882037,25.260297752488444,21.23572767062874,0.6001219727489051,2.9102786435055954,0.3111403488607568,3553.6591796875,11.86411111111111,0.14,178.58675387177104,-3.8528517016281167,95.17943209256704,1962.0,1435.0,1200.0,1528.0,1760.0,999.0,60.0,292.0,1649231783.8687563,1649231784.9882452,8c70665b-9b69-422d-abde-6eea0fb85ce1
-0.0766130109053836,-0.0562062333967263,0.1143060609738768,-0.0742593941078634,-0.0475675396533611,0.2919843859717833,-0.1221600971506099,-0.1456042242532821,-12.639279019560394,25.70776094639759,23.671592094290887,0.9971615306679956,-0.3143252596586703,0.0894516407619706,3551.369900173612,11.963111111111113,0.15,179.11551220745764,-3.8350713436943664,95.0073986001221,1459.0,1435.0,1200.0,1528.0,1394.0,999.0,60.0,292.0,1649231785.897849,1649231787.0357125,61de9093-a108-4401-9f07-8df6d90f503e
-0.0560666549370265,-0.0554597919941376,0.118368502318203,-0.0765482787863647,-0.0451936941794605,0.2921841449991378,-0.1166644474860666,-0.1430629856800402,-12.414186083224925,25.70341154573828,23.54006474130788,1.0030393685145884,-0.3114138053731928,0.0729001291030618,3564.167426215278,11.961333333333334,0.1488888888888888,179.12006870254396,-3.831232729948949,95.03135586809088,1459.0,1435.0,1200.0,1528.0,1394.0,999.0,60.0,292.0,1649231787.1441543,1649231788.4705915,61de9093-a108-4401-9f07-8df6d90f503e
-0.0931611515919661,-0.0530576262465776,0.1193672974860699,-0.0770287119439482,-0.0434742492372914,0.2910336341469984,-0.1158047250005916,-0.1381575101146279,-12.494377886986804,25.61080099607073,23.656844947816147,1.0009518122446972,-0.3027507661874163,0.0684057405755364,3575.4024251302085,11.965,0.1466666666666666,179.1335636385241,-3.816479758501069,95.06397533374704,1459.0,1435.0,1200.0,1528.0,1394.0,999.0,60.0,292.0,1649231788.5792534,1649231789.6984608,61de9093-a108-4401-9f07-8df6d90f503e
-0.1873250408395692,-0.2855458131338395,0.094845990830989,0.009708182606983,-0.0186141096673266,0.441590240753087,-0.085462083839771,-0.1132189832792861,-12.812975492715603,26.4712402804614,24.04418665543564,1.1479997556873167,-1.1881199587293718,-0.002631093153894,3584.3716905381943,11.945666666666666,0.1488888888888888,179.19045304303103,-3.8046500605860825,95.08030403932284,1374.5555555555557,1435.0,1200.0,1528.0,1321.111111111111,999.0,60.0,292.0,1649231790.3297503,1649231791.3364189,306eb867-1d84-449a-b754-85616bb2242f
-0.1919139362915453,-0.2909367793502974,0.0950432212657055,0.0088666660298703,-0.0171414556619925,0.4458898640597151,-0.0824904783555634,-0.1118515187090625,-12.766602029947082,26.400654982548804,23.80729131271623,1.1590873216010478,-1.206453067265055,-0.0100690873456874,3584.870849609375,11.940222222222223,0.1422222222222222,179.21437540114408,-3.805882198253232,95.05761415090004,1364.0,1435.0,1200.0,1528.0,1312.0,999.0,60.0,292.0,1649231791.4449644,1649231792.5668657,306eb867-1d84-449a-b754-85616bb2242f
-0.1913718053724316,-0.2938431473547892,0.0914768903230166,0.0132674335818089,-0.0188836579422987,0.4466813143614142,-0.0865362312289684,-0.1104567453291111,-12.896318240909444,26.40841647638092,24.06219392871264,1.1507879722254548,-1.2194625937546453,0.0028779808904525,3589.207573784722,11.94377777777778,0.14,179.219091267311,-3.7927767253514,95.01959580015992,1364.0,1435.0,1200.0,1528.0,1312.0,999.0,60.0,292.0,1649231792.675279,1649231793.796963,306eb867-1d84-449a-b754-85616bb2242f
-0.3367660615073019,-0.5202662717228377,0.0617026793239568,0.0971535869854127,-0.0014742780300098,0.5836806023188841,-0.0656753179652323,-0.0853983633874277,-13.188289459847988,27.328446530632764,22.937205229302364,1.2737071877341417,-2.0688498313531105,-0.0387803695202926,3589.37451171875,11.908666666666669,0.1366666666666666,179.2739650071029,-3.783710218410639,94.94953096074404,1262.0,1435.0,1200.0,1528.0,1222.0,999.0,60.0,292.0,1649231795.9339073,1649231797.0718358,3ab93d05-b29f-4595-905f-98313262af47
-0.3343537810651824,-0.5171601442454432,0.0650641940913459,0.0957269534775684,0.0003068646383243,0.580821772599748,-0.063451165320722,-0.0866586154611155,-13.138675521652136,27.378961441084275,22.797416102257507,1.2710060929399072,-2.0559225646233257,-0.0487750477223465,3586.8712565104165,11.91,0.14,179.29925947432918,-3.771560450242048,94.86842018762042,1262.0,1435.0,1200.0,1528.0,1222.0,999.0,60.0,292.0,1649231797.1799195,1649231798.3000247,3ab93d05-b29f-4595-905f-98313262af47
-0.3569169476143938,-0.5156480437727793,0.0616981278625755,0.090428028950104,-0.0039007182410974,0.5856210462683549,-0.0666594473367877,-0.0883416485130185,-13.204751188412876,27.41985594064409,22.971080593327542,1.2938416864422408,-2.0508830712569424,-0.0335694898069191,3587.8720703125,11.91,0.14,179.30601225468854,-3.780113507198328,94.77783062974862,1262.0,1435.0,1200.0,1528.0,1222.0,999.0,60.0,292.0,1649231798.408511,1649231799.7333114,3ab93d05-b29f-4595-905f-98313262af47
-0.3790988022675492,-0.5732787959866293,0.0560441884722175,0.1337792795854994,-0.001139492008995,0.5969815187179098,-0.0718137365194493,-0.0916682687970304,-13.266308184763057,28.33736903513428,22.181711974582296,1.2272243451702238,-2.2652819278518344,-0.0304109951185172,3580.37841796875,11.853,0.14,179.3342801309335,-3.7908612841760334,94.6223535158518,1153.0,1435.0,1200.0,1528.0,1121.0,999.0,60.0,292.0,1649231801.3307123,1649231802.3495235,7476c776-64ef-4311-b768-f1e7222e40e8
-0.3692241295405981,-0.5625100104678671,0.0600019460131841,0.1294139126164833,0.0006092846143415,0.5900127103889846,-0.0704331233657879,-0.0948371048193969,-13.284072835935522,28.294450474707727,22.14076647073237,1.221308789082877,-2.223616159024921,-0.0389412607281289,3571.1009385850693,11.856111111111112,0.1344444444444444,179.35841194818107,-3.794005827378919,94.46541701820232,1153.0,1435.0,1200.0,1528.0,1121.0,999.0,60.0,292.0,1649231802.457444,1649231803.6247673,7476c776-64ef-4311-b768-f1e7222e40e8
-0.3581792226787267,-0.563890623997518,0.0551500771340708,0.1307945256901515,-0.0036245956190812,0.5905123607980464,-0.0752455463683407,-0.0966910710235608,-13.295398685754426,28.29484763815249,22.163052589850967,1.2190761389828957,-2.229389217797174,-0.0198406663437265,3548.921332465278,11.850222222222222,0.13,179.34880718438825,-3.804754932448964,94.33010641728492,1153.0,1435.0,1200.0,1528.0,1121.0,999.0,60.0,292.0,1649231803.7329092,1649231804.85281,7476c776-64ef-4311-b768-f1e7222e40e8
0.0706523899511211,0.1788004142888115,0.1318990161790793,-0.1673653181799221,-0.0814254338905407,0.1444560207808257,-0.1593840589138957,-0.1859444278787555,-12.249738951118266,24.916168096051752,23.17748694449644,0.8714155178025581,0.5812799313806252,0.192105046882165,3542.2394205729165,11.965666666666667,0.1444444444444445,179.0509851336388,-3.82745886070504,94.16312954155552,1553.0,1435.0,1200.0,1528.0,1471.0,999.0,60.0,292.0,1649231806.994976,1649231808.137288,97fc0018-0a55-4dd8-89e1-186645de7e9a
0.0352788570360414,0.1793455794425525,0.1320355603291619,-0.1684500857118719,-0.0810871078056013,0.1447038231270118,-0.1596505728928083,-0.1815482112059146,-12.331258258566445,24.91441281018367,23.14662344462384,0.8743685409655954,0.5843173327077555,0.1917942043775367,3550.8801540798613,11.961777777777778,0.15,179.0482135946556,-3.822851518654913,94.37800273938468,1553.0,1435.0,1200.0,1528.0,1471.0,999.0,60.0,292.0,1649231808.2462597,1649231809.3546398,97fc0018-0a55-4dd8-89e1-186645de7e9a
0.0530725831093514,0.1826792795371974,0.1354623127783235,-0.1694559610824027,-0.0785458692727043,0.1437459911877697,-0.1566622785687125,-0.1748600756930931,-12.310575615910125,24.909330422314444,23.367653151190893,0.8746677552611343,0.5950563639887608,0.1801300615752614,3556.6083984375,11.966,0.1466666666666666,179.0115309253532,-3.816284386631684,94.65372229797995,1553.0,1435.0,1200.0,1528.0,1471.0,999.0,60.0,292.0,1649231809.4630702,1649231810.792136,97fc0018-0a55-4dd8-89e1-186645de7e9a
0.0441542270396628,0.1777525643782766,0.121225815093614,-0.3602187881038425,-0.1109751074236742,0.334259970223392,-0.1164874458019644,-0.1398010972539191,-12.238592388003864,24.466676416714748,24.89660141415086,1.7297289728948626,0.5850946391784091,0.1866250684606108,3570.9326985677085,11.955666666666666,0.1344444444444444,179.01092683306658,-3.745559912210317,94.91761121002284,1553.0,1537.0,1200.0,1528.0,1471.0,999.0,60.0,292.0,1649231811.331605,1649231812.437545,72c1871f-7341-45c4-88d9-1b1d00bc5579
0.0484781252355888,0.1809006655775349,0.1257393578450922,-0.3621784499214342,-0.1074603595637325,0.3331347453344164,-0.1123152630796215,-0.132038308729838,-12.21835519879866,24.460177681961515,24.951989360512265,1.7318216387096472,0.5967950975262852,0.1702037774309757,3578.0537380642363,11.965666666666666,0.14,179.01107557940855,-3.747884595553453,95.02974318453684,1553.0,1537.0,1200.0,1528.0,1471.0,999.0,60.0,292.0,1649231812.550706,1649231813.661194,72c1871f-7341-45c4-88d9-1b1d00bc5579
0.045249108863879,0.1795630386418581,0.1200257437286587,-0.3626629288891345,-0.1115490986192462,0.3339287242450072,-0.1174923096877541,-0.1360056753420169,-12.316334380467245,24.372592585422343,24.77487499786759,1.7337560158860614,0.5937373676131913,0.1904836063000232,3580.37841796875,11.965555555555556,0.15,179.02668787403138,-3.739414212345253,95.12180502762972,1553.0,1537.0,1200.0,1528.0,1471.0,999.0,60.0,292.0,1649231813.7697594,1649231814.8878963,72c1871f-7341-45c4-88d9-1b1d00bc5579
0.0887055497555583,0.1795104438589911,0.1145690348878162,-0.5744621789749426,-0.1399239869930595,0.5407839963281663,-0.0634248679394188,-0.0881575667635539,-12.038295888205646,23.924981670816,26.638064127373003,2.6735526352216046,0.6007823224511948,0.1607313793507686,3588.7067599826387,11.954555555555554,0.1455555555555555,179.03687092717394,-3.695825747473263,95.41282117432618,1553.0,1645.0,1200.0,1528.0,1471.0,999.0,60.0,292.0,1649231817.028754,1649231818.1662133,3b2bbb3f-7748-47f4-b001-b14040c14a12
0.0785153102532947,0.1813907073538863,0.1165150419000742,-0.5756324132970294,-0.1400423252659674,0.539219301621853,-0.0643584254095726,-0.088249607679904,-12.107837092537304,24.134016251728937,26.526164093785688,2.674106090082747,0.6095894089211902,0.1594941282250575,3587.8720703125,11.954666666666666,0.14,179.05116120073745,-3.687070678185906,95.47823920837676,1553.0,1645.0,1200.0,1528.0,1471.0,999.0,60.0,292.0,1649231818.2748964,1649231819.3958795,3b2bbb3f-7748-47f4-b001-b14040c14a12
0.0848135357053506,0.1794578490757746,0.1175800862784417,-0.5728843349286605,-0.1387800503340863,0.5392455990131715,-0.0636220983838208,-0.0912738078835896,-12.11018810681194,24.189969744346044,26.626625334240853,2.66840497754062,0.6011963894739146,0.1551820212239262,3587.8720703125,11.954333333333333,0.14,179.04708433671283,-3.695869289929222,95.52435740456258,1553.0,1645.0,1200.0,1528.0,1471.0,999.0,60.0,292.0,1649231819.5053265,1649231820.6226633,3b2bbb3f-7748-47f4-b001-b14040c14a12
0.1009211941360462,0.1847820594191877,0.1084943373350848,-0.7079513302482158,-0.1677673649032072,0.6662898070625148,-0.0440178972648337,-0.0659155345307909,-12.157016457037845,24.53106092030884,27.783602941736337,3.260537907786876,0.6273020263010021,0.1800554887962335,3584.870849609375,11.943888888888887,0.1344444444444444,179.05456718840352,-3.6615810288177184,95.56672506798418,1553.0,1761.0,1200.0,1528.0,1471.0,999.0,60.0,292.0,1649231821.5334923,1649231822.670345,ee615f79-3096-40d9-ae10-586409555906
0.0769111693134337,0.1783928047169844,0.1072057651257203,-0.7112218169943694,-0.1683514704881333,0.6742958451399852,-0.042018789657031,-0.062912068810009,-12.106570962362593,24.51525340125881,27.606406658742344,3.2857341557743047,0.6048725921363194,0.1787512935055099,3580.37841796875,11.948,0.1433333333333333,179.06864496719285,-3.661752779616223,95.57261269104872,1553.0,1761.0,1200.0,1528.0,1471.0,999.0,60.0,292.0,1649231822.77832,1649231824.1038768,ee615f79-3096-40d9-ae10-586409555906
0.073283646349421,0.1822661070592395,0.1098597788449301,-0.7107327863179005,-0.1664777811212752,0.6714987131449094,-0.0401617891124841,-0.0607445567919803,-12.066712121313447,24.49835992726798,27.8295245714108,3.278421286804384,0.6172479850306066,0.1707600285430159,3583.3720703125,11.944222222222225,0.14,179.06247047618317,-3.6549529468425215,95.55957613665288,1553.0,1761.0,1200.0,1528.0,1471.0,999.0,60.0,292.0,1649231824.213298,1649231825.3403256,ee615f79-3096-40d9-ae10-586409555906
0.0728745196147516,0.1917255822021945,0.1013545953911932,-0.7120370363941434,-0.1810005173739249,0.6619097744823279,-0.0579813074721392,-0.0836738611794102,-12.157994504247725,25.02857070909059,27.506206593535964,3.2628095719201218,0.6558687913263596,0.227900924760449,3584.537787543403,11.901444444444444,0.13,179.04852171207818,-3.674606531588017,95.53248381185507,1553.0,1887.0,1200.0,1528.0,1471.0,999.0,60.0,292.0,1649231826.448609,1649231827.5880444,dd66b839-b0d9-49b3-ac45-ce484caaa269
0.0632198365899201,0.1908127592903811,0.0990247475774005,-0.7156129775590773,-0.1839883060249065,0.6667449541966912,-0.0594423299878224,-0.081339967380301,-12.148850190044524,25.075359646797647,27.58305719979248,3.28195232560012,0.6519926727016709,0.2371802016471106,3579.0496419270835,11.901,0.14,179.0715288248424,-3.6614042028092064,95.41758257508758,1553.0,1887.0,1200.0,1528.0,1471.0,999.0,60.0,292.0,1649231827.696615,1649231828.8145585,dd66b839-b0d9-49b3-ac45-ce484caaa269
0.0759766004691566,0.1895611046014966,0.0993281790247738,-0.7167887749777919,-0.1824711486333777,0.6692988353332606,-0.0580768884081932,-0.0785585123076918,-12.234495135032772,25.000062577000463,27.62561441256242,3.2898231762874426,0.6476899217578962,0.2326253431926402,3581.874755859375,11.899875,0.14,179.0828437921124,-3.660920136867716,95.3553958845606,1553.0,1887.0,1200.0,1528.0,1471.0,999.0,60.0,292.0,1649231828.9227717,1649231830.0423634,dd66b839-b0d9-49b3-ac45-ce484caaa269
0.0296906610801603,0.1837074064005104,0.1527953282691028,0.0474793300349758,-0.0436006790074056,-0.0681533415876101,-0.205418154361237,-0.2290478812464451,-12.55758924517422,25.948698825104582,21.65442225531229,-0.0834954781712785,0.5902521589260895,0.1773354522008462,3583.3720703125,11.964666666666666,0.1466666666666666,179.09348408847444,-3.888748424857289,95.21372495456984,1553.0,1335.0,1200.0,1528.0,1471.0,999.0,60.0,292.0,1649231831.9782782,1649231833.123225,034732ae-be4a-4a6f-bbbe-9ef58c93dea0
0.0518366056936691,0.1775381394910083,0.1481639530117288,0.0528490553046707,-0.0455031942703113,-0.0653445776538457,-0.2089283508843086,-0.2318859770468619,-12.635917021897551,25.910087077377025,21.86672491750617,-0.0897887546422921,0.5648310213030525,0.1907986979572292,3588.3736979166665,11.962888888888893,0.1422222222222222,179.08360611711478,-3.895332252898488,95.38026014473292,1553.0,1335.0,1200.0,1528.0,1471.0,999.0,60.0,292.0,1649231833.250884,1649231834.3462684,034732ae-be4a-4a6f-bbbe-9ef58c93dea0
0.0590683886182264,0.1835865395447302,0.1517798443805315,0.0502324647478263,-0.0437412689125851,-0.0684608187979869,-0.205917299133522,-0.2322409918760256,-12.534231841403743,25.88377794664977,21.948922314834835,-0.090819048038795,0.58661892308084,0.1800896931925259,3594.559326171875,11.96622222222222,0.14,179.05655705018177,-3.8964101895587504,95.53756547259756,1553.0,1335.0,1200.0,1528.0,1471.0,999.0,60.0,292.0,1649231834.455638,1649231835.5736978,034732ae-be4a-4a6f-bbbe-9ef58c93dea0
0.0225150128925216,0.1848225169451343,0.1654939341398043,0.2710122167059787,-0.0115795570045348,-0.2842046459325686,-0.2591826736758911,-0.2842966868322082,-12.788260879948584,26.8920072305313,20.19052001906644,-1.0666908906628818,0.5823410061149569,0.1924428637447897,3598.415771484375,11.959666666666667,0.1466666666666666,179.04991203502925,-3.956511158499808,95.78444645469722,1553.0,1236.0,1200.0,1528.0,1471.0,999.0,60.0,292.0,1649231837.509469,1649231838.6046476,fd1d82dd-4789-4f21-a867-a713004af3a0
0.0453542984197191,0.1799969456012645,0.1675319819903261,0.2708675810542097,-0.0084896133201491,-0.278498110983851,-0.2544754398262691,-0.2775645534991062,-12.751630439059438,26.84894301011119,20.336866481300262,-1.053683511530123,0.5628321321640426,0.1784186040378214,3597.0733235677085,11.952555555555556,0.14,179.05860762475257,-3.965448461028769,95.84112943570923,1553.0,1236.0,1200.0,1528.0,1471.0,999.0,60.0,292.0,1649231838.7132518,1649231839.8742764,fd1d82dd-4789-4f21-a867-a713004af3a0
0.0433688452603709,0.1854273569505176,0.1690046359207629,0.2704599714977724,-0.0078847732799283,-0.2826925456567498,-0.2554221460747979,-0.2745272041862664,-12.83886703168325,26.87349989690541,20.44576768706903,-1.0619799332892168,0.5829956872403338,0.1776713252809229,3599.927001953125,11.953555555555557,0.14,179.0618193314823,-3.971889898598522,95.90702178845218,1553.0,1236.0,1200.0,1528.0,1471.0,999.0,60.0,292.0,1649231839.983107,1649231841.1035194,fd1d82dd-4789-4f21-a867-a713004af3a0
0.0190306083384141,0.1821138856178614,0.1731990698590978,0.37879207253364,0.002791968252312,-0.3859229769499282,-0.2849541217783584,-0.3108044626100184,-12.818772099495902,27.65912799056914,19.38392710701196,-1.5330654442716196,0.5667782225604118,0.1982019027196067,3595.396728515625,11.949333333333334,0.14,179.0709945522673,-4.006516870688241,95.9653812014505,1553.0,1133.0,1200.0,1528.0,1471.0,999.0,60.0,292.0,1649231841.828737,1649231842.9485404,70c0d3be-3fb0-444a-858c-8d57b0422d80
0.0246845477816143,0.1804834473424064,0.1699250446045743,0.3747159770193405,0.0005566898391614,-0.3811631479644495,-0.2859665715499382,-0.3104625964972058,-12.849100498588438,27.548220612755912,19.284943440745657,-1.5141040882865278,0.5620474523622316,0.2068024808386591,3594.726806640625,11.945333333333332,0.14,179.0806190477178,-3.997121660893672,95.99676592068673,1553.0,1133.0,1200.0,1528.0,1471.0,999.0,60.0,292.0,1649231843.056893,1649231844.1758492,70c0d3be-3fb0-444a-858c-8d57b0422d80
0.0264464730809947,0.1880307987060948,0.1666510193630623,0.3733879587692284,-0.0045975991631409,-0.3867644937484992,-0.2918308908439911,-0.3135656890635257,-12.824113222622069,27.575866591045664,19.33041687093914,-1.5236553057436868,0.5897311456531489,0.2276070568877947,3592.0489908854165,11.945666666666666,0.14,179.07235300100223,-4.005946407596937,96.00566869281484,1553.0,1133.0,1200.0,1528.0,1471.0,999.0,60.0,292.0,1649231844.2838323,1649231845.404297,70c0d3be-3fb0-444a-858c-8d57b0422d80
0.0277876401110658,0.1852169778166729,0.1663617480585711,0.3998168362039438,-0.00583357662687,-0.4087885642173114,-0.3030335816845076,-0.3279372164425609,-12.862091768245618,28.12426105303369,19.2166763416624,-1.6291796841350576,0.5771914904379853,0.2451142629580629,3585.370849609375,11.933,0.14,179.0682624765993,-4.014206051010121,96.03987276235848,1553.0,1026.0,1200.0,1528.0,1471.0,999.0,60.0,292.0,1649231847.542947,1649231848.6801128,710defba-4214-4478-92af-18d8c6eaf824
0.0076964320462038,0.1824426030131765,0.166151368919798,0.40977039839003,-0.0040322052236187,-0.4174141110175,-0.305663321323437,-0.3277005396669631,-12.943526645377052,28.13842692019508,18.89653564628174,-1.6710238299049798,0.5689610798439421,0.2459289694279017,3581.874755859375,11.939222222222222,0.14,179.08392789491572,-4.0028079831051855,96.05044665410357,1553.0,1026.0,1200.0,1528.0,1471.0,999.0,60.0,292.0,1649231848.789092,1649231849.911765,710defba-4214-4478-92af-18d8c6eaf824
0.0370574710560249,0.1878072708792151,0.1630482766942082,0.3965691084952503,-0.009160196873359,-0.4103664080637185,-0.3058605518400863,-0.3271351456661481,-12.834800276352675,28.016307079968897,18.90573179966337,-1.6263156891209931,0.5896573730182046,0.2580966507485688,3580.7109375,11.934111111111111,0.14,179.07413036800628,-4.0213803583914425,96.0508003061206,1553.0,1026.0,1200.0,1528.0,1471.0,999.0,60.0,292.0,1649231850.0202937,1649231851.3447058,710defba-4214-4478-92af-18d8c6eaf824
0.0626711313553764,0.1830079969308361,0.1352256362492289,-0.1521654241034084,-0.0770732152284528,0.1272180804277986,-0.1617113783328642,-0.1886399106155013,-12.316214840200557,24.95018808754477,23.30650522171109,0.7987705972344575,0.5947279733742008,0.1857201356577972,3580.7109375,11.96622222222222,0.1477777777777777,179.0950292290467,-3.8690924210864615,96.0216331216349,1553.0,1435.0,1200.0,1528.0,1471.0,999.0,60.0,292.0,1649231852.4583955,1649231853.5987332,17b36339-7f3f-40a2-adbf-8d9d190d6727
0.0396083181402232,0.1834944986723903,0.1348443240679486,-0.1524809928334221,-0.0774545274375348,0.125521898646798,-0.1628158689097907,-0.1821444540624861,-12.357447032382623,24.958244624465173,23.08637043289532,0.7956494709968658,0.5988103478347704,0.188045304291389,3592.8857693142363,11.96722222222222,0.14,179.09598849117012,-3.854174813620461,96.02643626244124,1553.0,1435.0,1200.0,1528.0,1471.0,999.0,60.0,292.0,1649231853.70707,1649231855.0345142,17b36339-7f3f-40a2-adbf-8d9d190d6727
0.0582926155043863,0.1813512612649282,0.1350415545058178,-0.1496934690142337,-0.0767182004151432,0.1257454264792637,-0.1630262480722701,-0.1812897887399691,-12.397641522959589,25.005770001699567,23.18404852239964,0.7901840068896593,0.5898607782709303,0.1869283499562991,3595.7320149739585,11.965777777777776,0.1422222222222222,179.0922774217211,-3.86015255723656,96.04176093020902,1553.0,1435.0,1200.0,1528.0,1471.0,999.0,60.0,292.0,1649231855.1429584,1649231856.2626665,17b36339-7f3f-40a2-adbf-8d9d190d6727
0.0768191284404899,0.194197537003724,0.2256360683412856,-0.1609093078072011,0.0050798414501543,0.1183690080344243,-0.0684871162012799,-0.0933381535125214,-11.776698877265936,24.92855356134592,23.16699231798587,0.8032173668490273,0.6409212214447,-0.1806794808334918,3592.38330078125,11.965222222222224,0.14,179.087661731662,-3.8629895521993154,96.05043754718466,1553.0,1435.0,1200.0,1435.0,1471.0,999.0,60.0,292.0,1649231857.8279674,1649231858.8752053,c6b90a0b-73c8-4c9d-b7e6-115a6a2cd70f
0.0865754609709087,0.2004037213787837,0.2262672057344893,-0.1644331586773237,0.0037386744142929,0.1161731758102415,-0.0683687779274349,-0.0855672734265169,-11.671423175986988,24.90668791913341,23.260537761455385,0.8061863640995192,0.6630974811253587,-0.1789469760832512,3592.38330078125,11.965,0.14,179.07286147064048,-3.854690113447843,96.04771609625536,1553.0,1435.0,1200.0,1435.0,1471.0,999.0,60.0,292.0,1649231858.9853745,1649231860.1503074,c6b90a0b-73c8-4c9d-b7e6-115a6a2cd70f
0.097949083104461,0.1994833126803892,0.2295806770299497,-0.1644200099804507,0.008182933816085,0.115962796670969,-0.0638850723185053,-0.0926807184779945,-11.687484941377145,24.79782386370928,23.13563959449114,0.8050992750434961,0.6610726306946298,-0.1961546502566964,3595.396728515625,11.964222222222222,0.14,179.07268540354187,-3.8547383990907256,96.05743545544428,1553.0,1435.0,1200.0,1435.0,1471.0,999.0,60.0,292.0,1649231860.258438,1649231861.3807538,c6b90a0b-73c8-4c9d-b7e6-115a6a2cd70f
0.1218797098273312,0.2184963266202962,0.3599894383426103,-0.1710206560474336,0.1236021890380362,0.0976992578842432,0.0676544872428608,0.0394242364039436,-10.678281265460909,25.001166842659323,23.324180022368573,0.7873276378692171,0.732652417659814,-0.7152747244526522,3594.391845703125,11.957333333333334,0.14,179.07270209955985,-3.8521592437691377,96.0169779682606,1553.0,1435.0,1200.0,1330.0,1471.0,999.0,60.0,292.0,1649231862.493807,1649231863.8366,68c2c9e0-7e86-46d5-960d-26116889dfc2
0.1235890402981657,0.2159323309713104,0.3591742192330147,-0.1695348532516608,0.1241675829606485,0.0979096370242479,0.0671811341756621,0.0435923729561702,-10.74933503046369,24.96392192331241,23.18739596672249,0.7841037164391884,0.7245158434753671,-0.7147841656536127,3594.894287109375,11.958666666666668,0.1466666666666666,179.0659493192004,-3.849416922817378,95.98048654425492,1553.0,1435.0,1200.0,1330.0,1471.0,999.0,60.0,292.0,1649231863.9454794,1649231865.269941,68c2c9e0-7e86-46d5-960d-26116889dfc2
0.1440484111820136,0.2202976979248962,0.3646966712449077,-0.1729272171717684,0.1287301804513648,0.0973179457018616,0.0730848987509293,0.0451702166628501,-10.709578445849504,24.893980851471333,23.31180414963756,0.7902776261650512,0.740271190216964,-0.7362015612768325,3596.905517578125,11.960333333333333,0.14,179.05626411095733,-3.8464123510606094,95.98519937478224,1553.0,1435.0,1200.0,1330.0,1471.0,999.0,60.0,292.0,1649231865.379038,1649231866.498413,68c2c9e0-7e86-46d5-960d-26116889dfc2
0.1508988817524567,0.2390740352537218,0.4916341742768441,-0.1591079362647029,0.2426899265203489,0.0590289425343354,0.194289577849789,0.1766571768037285,-9.78673471190886,25.213777370574245,23.239727323782464,0.6819578681480529,0.8111521602094086,-1.2342127164099002,3596.905517578125,11.950333333333331,0.14,179.03842365684528,-3.848956169639617,95.9480932337513,1553.0,1435.0,1200.0,1210.0,1471.0,999.0,60.0,292.0,1649231867.410512,1649231868.5462763,d0fccd40-d63c-4ffa-b1c4-743caac70d5f
0.1456899753175634,0.2333058036420136,0.4822586489752484,-0.1545554526938987,0.2346965310437687,0.060880885824842,0.1850349189353314,0.1637947180575779,-9.799198847971024,25.27882468390281,23.223046228561543,0.6758055791671288,0.7886000835077104,-1.1980858677384754,3591.3804524739585,11.948333333333332,0.14,179.04139251240449,-3.85671910651816,95.91545783098704,1553.0,1435.0,1200.0,1210.0,1471.0,999.0,60.0,292.0,1649231868.6551344,1649231869.7746785,d0fccd40-d63c-4ffa-b1c4-743caac70d5f
0.1828603269536991,0.2413340937333558,0.495811919276905,-0.1586264916574497,0.2457085636009125,0.0563167710748466,0.1969825318906916,0.1781824255785504,-9.780299842417694,25.28609400801201,23.257535077466347,0.675470733008669,0.8196321765787277,-1.247575503410853,3592.38330078125,11.945666666666666,0.14,179.0393070279779,-3.8577840468462505,95.91096887888256,1553.0,1435.0,1200.0,1210.0,1471.0,999.0,60.0,292.0,1649231869.8841715,1649231871.004187,d0fccd40-d63c-4ffa-b1c4-743caac70d5f
0.1661210257828602,0.2412708788534535,0.5608979596473754,-0.1109751074233526,0.3084935844777654,0.0070976606461679,0.2481486580399146,0.2295508395213971,-9.469893534439638,25.81448889815048,22.929403107294245,0.4642265601981506,0.8183744919785523,-1.4947124974997077,3592.38330078125,11.943,0.14,179.05860979306655,-3.871588936539876,95.84218139325716,1553.0,1435.0,1200.0,1071.0,1471.0,999.0,60.0,292.0,1649231871.915882,1649231872.954898,0bc5cda4-97dc-4236-ab87-609932289a99
0.199877773547135,0.241372022665861,0.5620484704630442,-0.1110888942271321,0.308999303546508,0.007198804462064,0.248477375446472,0.2275785352598019,-9.492247748332211,25.89296382536115,22.947833572384408,0.4652797119209312,0.8188369883786961,-1.4974482067271766,3590.5028076171875,11.940125,0.14,179.06386611150356,-3.876358497276787,95.80823828030609,1553.0,1435.0,1200.0,1071.0,1471.0,999.0,60.0,292.0,1649231873.0631206,1649231874.281346,0bc5cda4-97dc-4236-ab87-609932289a99
0.1654383050407844,0.2358849708541124,0.5581291479157747,-0.1095590938959344,0.3068120686394597,0.010157261152509,0.246429213254265,0.2183997342674651,-9.48356983275406,25.8410106599362,22.782071982130827,0.4679152893585607,0.7992272322176797,-1.487067420393874,3589.37451171875,11.939666666666666,0.14,179.04899071840117,-3.8758021333086137,95.81587215506846,1553.0,1435.0,1200.0,1071.0,1471.0,999.0,60.0,292.0,1649231874.389653,1649231875.509123,0bc5cda4-97dc-4236-ab87-609932289a99
0.0373523052996822,0.1608489044854503,0.031814681267019,-0.1274615506783593,-0.168879946975694,0.1289127450459489,-0.2732856636594697,-0.3035403124617042,-13.16710538895611,25.26305087593281,22.868056086359744,0.7432794710492179,0.5119342890897466,0.6067762534710582,3593.220024956597,11.96577777777778,0.14,179.11754001473125,-3.853072402115673,95.88662380795088,1553.0,1435.0,1200.0,1613.0,1471.0,999.0,60.0,292.0,1649231876.4206994,1649231877.5584176,5b6529f1-ec00-4a7d-85f3-1bdb12fb0526
0.0269471350220079,0.1638705759306742,0.0377063086595234,-0.1289154931481591,-0.1631400348670413,0.1286598855071405,-0.2666354567987498,-0.2922374891084284,-13.14181005650671,25.166517030721213,23.111837731399152,0.7456960223141483,0.5214786015038508,0.5822128871025817,3597.2412380642363,11.963555555555557,0.14,179.10946369549265,-3.855897349383642,95.8873948604172,1553.0,1435.0,1200.0,1613.0,1471.0,999.0,60.0,292.0,1649231877.6670945,1649231878.991546,5b6529f1-ec00-4a7d-85f3-1bdb12fb0526
0.0357592901613658,0.1612914086712499,0.0376936656799508,-0.1294717841777423,-0.1626343157445273,0.1296713236587992,-0.2659653789296393,-0.297433753623788,-13.153741654243603,25.1592228509449,22.826403326803465,0.7491232256689437,0.5144869691331326,0.5798623774744628,3599.927001953125,11.961888888888888,0.1422222222222222,179.10601672669154,-3.852198896811819,95.88699036143636,1553.0,1435.0,1200.0,1613.0,1471.0,999.0,60.0,292.0,1649231879.1003628,1649231880.2225215,5b6529f1-ec00-4a7d-85f3-1bdb12fb0526
0.0052897148857452,0.1488127905886203,-0.0504531728620366,-0.1097866674940293,-0.2430310155146061,0.1295069649580357,-0.3616474447687269,-0.3832922256677786,-13.730771318458494,25.429353556546104,22.93377101926023,0.7014773473760759,0.4628099238531157,0.9440500294901648,3602.95361328125,11.96,0.14,179.14033007926184,-3.8573570177275176,95.91263772176974,1553.0,1435.0,1200.0,1694.0,1471.0,999.0,60.0,292.0,1649231881.82923,1649231882.8886654,d430a98e-1239-4341-acde-945596f08708
-0.0157102705969257,0.156145717127782,-0.0497072371814114,-0.115033503330848,-0.2442953133836324,0.1261945050196466,-0.3626209541937344,-0.3899424329718688,-13.745943183139898,25.43203280619846,22.7967010711616,0.7058948005873792,0.4923284185546965,0.9467775718244874,3602.95361328125,11.96,0.14,179.14667304827103,-3.854173722687469,95.88191553088303,1553.0,1435.0,1200.0,1694.0,1471.0,999.0,60.0,292.0,1649231883.0016186,1649231884.1126835,d430a98e-1239-4341-acde-945596f08708
-0.027114236279311,0.1536044787954334,-0.0476085028975349,-0.113212914514946,-0.2419310763713452,0.1261186471534317,-0.3601302872471145,-0.3813957787488162,-13.70950503573742,25.45208235243456,22.687571755403045,0.70185589552276,0.4834157750094732,0.9367222197361778,3600.095052083333,11.958666666666668,0.1388888888888889,179.1418296852396,-3.855661660425408,95.8697562763406,1553.0,1435.0,1200.0,1694.0,1471.0,999.0,60.0,292.0,1649231884.2212737,1649231885.347021,d430a98e-1239-4341-acde-945596f08708
-0.0586650396938906,0.1378159293493459,-0.1359662291502296,-0.0874475370684022,-0.3205476477445403,0.1219717507335518,-0.457964698906711,-0.4811721533519444,-14.471157645599906,25.759003852063497,22.5552741516377,0.63164739590518,0.4219939825421746,1.3010077901265165,3601.439453125,11.95188888888889,0.14,179.1496510107492,-3.868384026119419,95.85554796504714,1553.0,1435.0,1200.0,1774.0,1471.0,999.0,60.0,292.0,1649231886.4575243,1649231887.5925286,dfed86ba-0596-4b05-8d9b-ed0dcf8c256b
-0.055004644799359,0.137345610613257,-0.1332393916408902,-0.0874338826505502,-0.3199508991269809,0.1231096186544261,-0.4561790043978315,-0.477899644401801,-14.383742595320596,25.94950153233038,22.667854210094973,0.6356340948961818,0.4187879213984733,1.2940205117694792,3601.439453125,11.951444444444444,0.14,179.16237337644318,-3.8696756433505897,95.83157172433069,1553.0,1435.0,1200.0,1774.0,1471.0,999.0,60.0,292.0,1649231887.701095,1649231888.821708,dfed86ba-0596-4b05-8d9b-ed0dcf8c256b
-0.0222340469698357,0.1397477762122332,-0.1335301801359464,-0.0871051652234052,-0.3189394607863111,0.1210361704479565,-0.4557112141310303,-0.4797708054465507,-14.401375555160865,25.76941061059476,22.75361669038339,0.6290297451935009,0.4271002331398915,1.2928493256769211,3598.0801595052085,11.949666666666666,0.14,179.1603152127733,-3.870944730443873,95.80084725671423,1553.0,1435.0,1200.0,1774.0,1471.0,999.0,60.0,292.0,1649231888.9305885,1649231890.0299556,dfed86ba-0596-4b05-8d9b-ed0dcf8c256b
-0.0432972475404298,0.1294437500734717,-0.1897787901561684,-0.0577860998864718,-0.3690941597435736,0.1067116775846455,-0.5228960117809097,-0.5469682470922312,-14.886802155247093,26.15849867680397,22.64277845788067,0.530220555813145,0.3857028891794499,1.5318465195824298,3591.7146809895835,11.947222222222225,0.14,179.1617920514539,-3.87902598259686,95.75178752572585,1553.0,1435.0,1200.0,1856.0,1471.0,999.0,60.0,292.0,1649231891.9859211,1649231893.1257856,f719ddc6-df79-45b8-a82b-40f0b309a7aa
-0.0743863296022241,0.1309861932525871,-0.1933314670913925,-0.0582538900618885,-0.3726974089107446,0.104385369824344,-0.5269670515911113,-0.5493577703941225,-14.880940365614066,26.129587973511526,22.43677502430319,0.5256498120877184,0.3931041877300801,1.547301207456037,3595.396728515625,11.94511111111111,0.14,179.17258678598213,-3.8708557008253166,95.74779034724158,1553.0,1435.0,1200.0,1856.0,1471.0,999.0,60.0,292.0,1649231893.233785,1649231894.556213,f719ddc6-df79-45b8-a82b-40f0b309a7aa
-0.0529564824875342,0.1287863152807002,-0.1885650642278513,-0.0574573824713212,-0.3682344371420404,0.107166824757784,-0.5216696426661307,-0.5376124413353149,-14.858825768823252,26.19681090166005,22.667706965018745,0.530834294495173,0.3828552796264658,1.527237348482839,3592.571563720703,11.949625,0.14,179.15959804291043,-3.880163126087896,95.71510523587838,1553.0,1435.0,1200.0,1856.0,1471.0,999.0,60.0,292.0,1649231894.6643734,1649231895.782081,f719ddc6-df79-45b8-a82b-40f0b309a7aa
0.0270735647909865,0.1698127749960287,0.0686689596815662,-0.1511544916629584,-0.1067649958222238,0.1441728180885697,-0.1870984786954296,-0.208882330455435,-12.0365050250792,21.154462441066,23.701085689303376,0.8063170358376639,0.5353528156182322,0.3537535180662164,7208.9375,11.643555555555556,7.940000000000001,99.98838842552486,-4.12401291529417,82.61685715636925,1553.0,1435.0,1350.0,1528.0,1471.0,999.0,60.0,292.0,1649231899.9269187,1649231900.907265,c4dc5492-d4f0-4331-b60a-3a300cdaa6bc
0.0511331504306879,0.1655900207598113,0.0662794369978077,-0.1494476895947683,-0.1078270059852039,0.1458416910346071,-0.188514492293749,-0.2153681786827092,-12.055049019683889,21.1351349475134,23.55933586816061,0.8059380519997277,0.5205405400980335,0.3597723485773849,7215.00537109375,11.640555555555556,7.949999999999999,-179.77401074533856,-4.164124861310493,77.42659185261712,1553.0,1435.0,1350.0,1528.0,1471.0,999.0,60.0,292.0,1649231901.0161266,1649231902.1351595,c4dc5492-d4f0-4331-b60a-3a300cdaa6bc
0.0392234659127869,0.1716965785292076,0.0624612579065573,-0.1554151752865306,-0.1125301937679608,0.1439705304628927,-0.1919786683528612,-0.2189714273911503,-12.00214125331449,21.000466319676693,23.33618034476612,0.8141026957410598,0.5455375872291481,0.3767792069776528,7221.0830078125,11.638444444444444,7.96,-179.62972072239234,-4.174334666027324,72.20801237911564,1553.0,1435.0,1350.0,1528.0,1471.0,999.0,60.0,292.0,1649231902.243372,1649231903.363376,c4dc5492-d4f0-4331-b60a-3a300cdaa6bc
0.1557411418489291,0.3917728690656955,0.0824877335955162,-0.2435240917904998,-0.1436951345527304,0.0094239684688477,-0.2268480029303674,-0.2568371483039382,-11.766521497936916,20.65413778832773,23.275660984790857,0.7093210237753804,1.3819379966263097,0.467653458530469,7233.2705078125,11.622111111111112,7.954444444444444,-179.7546585426902,-4.169257274153065,66.05771617619402,1647.0,1435.0,1350.0,1528.0,1543.0,999.0,60.0,292.0,1649231904.3271923,1649231905.4108536,026f7550-30dc-4e8f-8797-948e75c3808a
0.1815454573874343,0.3926452344197378,0.0839037470138208,-0.2404771339391032,-0.1427974831351351,0.0097653288556224,-0.2273031501874077,-0.251653527017501,-11.845130994798318,20.7843938986176,23.84676813087973,0.7042003750100192,1.3804213985949378,0.4659780109521199,7233.2705078125,11.625666666666667,7.961111111111112,-179.80647235773392,-4.166805378536639,63.380924059331,1647.0,1435.0,1350.0,1528.0,1543.0,999.0,60.0,292.0,1649231905.5193264,1649231906.6451046,026f7550-30dc-4e8f-8797-948e75c3808a
0.1771457014826635,0.3959071222692062,0.0861162680354232,-0.2388209036919187,-0.1412550397608796,0.0043414915706204,-0.2260514952693506,-0.249491577901189,-11.761829908742415,20.75597077263454,23.760170399907544,0.6882261146744119,1.3927692527411073,0.4594361398204859,7233.2705078125,11.622888888888887,7.952222222222223,-179.9442676296894,-4.146005839830395,60.68585359733913,1647.0,1435.0,1350.0,1528.0,1543.0,999.0,60.0,292.0,1649231906.7532492,1649231907.8691015,026f7550-30dc-4e8f-8797-948e75c3808a
0.276241351751174,0.6041748663212793,0.1054600228098399,-0.3318605856070827,-0.1722429792559062,-0.1167150194171197,-0.2583543057583087,-0.2721983675273056,-11.613385216166956,20.54589501977377,23.333395345062613,0.6256479634692782,2.189309664585342,0.5452402251252594,7245.5,11.609444444444444,7.961111111111112,179.5808287104936,-4.11184811122303,56.01949909223768,1745.0,1435.0,1350.0,1528.0,1614.0,999.0,60.0,292.0,1649231910.007238,1649231911.1486828,361b5b13-5e66-4dfd-9adb-a2ea64ec395a
0.2684785642240847,0.6011152661444232,0.1058772410356886,-0.3279791909809059,-0.1703718184909376,-0.1165885896543137,-0.2585439504496258,-0.2769521278050015,-11.73844404999912,20.574752662127768,23.434425585645823,0.617341821550607,2.17737306697197,0.5420999501623591,7240.060329861111,11.602,7.970000000000001,179.4522799968545,-4.098649624425628,54.77602217270184,1745.0,1435.0,1350.0,1528.0,1614.0,999.0,60.0,292.0,1649231911.256831,1649231912.3743231,361b5b13-5e66-4dfd-9adb-a2ea64ec395a
0.2614364263465355,0.6003314016364287,0.1025647810867467,-0.3323283758199937,-0.1732923464477848,-0.1133519872780625,-0.2589864546869893,-0.2804542327008605,-11.631199134516171,20.43198877369116,23.202848872041777,0.6333313269248335,2.176049568167438,0.5508970857183789,7239.38037109375,11.605333333333332,7.970000000000001,179.30914048132843,-4.076855818876455,53.52733192155451,1745.0,1435.0,1350.0,1528.0,1614.0,999.0,60.0,292.0,1649231912.482621,1649231913.809508,361b5b13-5e66-4dfd-9adb-a2ea64ec395a
0.3470420192040356,0.7315781347770465,0.135803167384025,-0.4019406208382591,-0.1792345462441968,-0.190790228394743,-0.2630701368342512,-0.2856504972303758,-11.544170998324258,20.908410697885408,21.470262511546625,0.6209263607671637,2.6937304938323843,0.5321894603706255,7245.5,11.579125,7.97,178.8411899917301,-4.026477143971235,51.440985752777,1849.0,1435.0,1350.0,1528.0,1686.0,999.0,60.0,292.0,1649231915.9541752,1649231917.082305,a7f618ab-5130-48a0-ae5d-0d9c6f4f621b
0.3374965721487737,0.7267990898705468,0.1297218955070894,-0.3985017302673034,-0.1825722925010457,-0.192446458535988,-0.2677480389896363,-0.2869527240146801,-11.5520085437295,20.76635534336846,20.97993381507924,0.6081206806032813,2.6793960824731657,0.5504985137075586,7245.5,11.575888888888889,7.977777777777779,178.73238716525404,-4.0012647872395855,50.8708759340353,1849.0,1435.0,1350.0,1528.0,1686.0,999.0,60.0,292.0,1649231917.190266,1649231918.3226013,a7f618ab-5130-48a0-ae5d-0d9c6f4f621b
0.3448547843199041,0.7260405113151217,0.1286219565086006,-0.396579997439196,-0.1823320759315893,-0.1914350203042547,-0.2689870509392083,-0.3002531377564422,-11.669252028983722,20.734457366046644,21.261454286097425,0.6057781923688577,2.674578785733327,0.5536879789908851,7245.5,11.575111111111111,7.964444444444443,178.6405059427192,-3.97568928618808,50.36749326893508,1849.0,1435.0,1350.0,1528.0,1686.0,999.0,60.0,292.0,1649231918.430899,1649231919.5426877,a7f618ab-5130-48a0-ae5d-0d9c6f4f621b
0.4068432966014136,0.8260211653362605,0.1566387931586978,-0.4343066495572492,-0.1851641030839098,-0.2611736901476909,-0.273310949716957,-0.2923007040936714,-11.414151230503746,21.305101873620377,20.41875167070436,0.5393401760465409,3.0616610915005253,0.5360340964805795,7245.5,11.517,7.96,178.4550799671317,-3.9556666340680575,49.70507609974533,1962.0,1435.0,1350.0,1528.0,1760.0,999.0,60.0,292.0,1649231920.4540994,1649231921.5915549,b7ba907e-c393-4bc3-9baa-3083204194b8
0.4166289601637787,0.8058935475160076,0.1475737788093098,-0.4387190492192332,-0.1893868578383214,-0.240047272644769,-0.2730201611935707,-0.2946143691513923,-11.395732450437947,21.141485346224023,20.009195942884737,0.595175324685182,2.989635618110772,0.5507564901662986,7239.38037109375,11.519333333333334,7.96111111111111,178.40603313761176,-3.922199940363595,49.32132268013808,1962.0,1435.0,1350.0,1528.0,1760.0,999.0,60.0,292.0,1649231921.7001774,1649231922.8193953,b7ba907e-c393-4bc3-9baa-3083204194b8
0.3848698040489147,0.815489566308236,0.1514678156547832,-0.4507678091965773,-0.1901580795253632,-0.2353314416568737,-0.2700743471015061,-0.2926167784293783,-11.364360248837995,21.271072513813863,20.46331054667483,0.6340926036181356,3.0231121910348,0.5439694271045777,7239.38037109375,11.528444444444444,7.98,178.36324276137154,-3.889112986204237,49.01066442720848,1962.0,1435.0,1350.0,1528.0,1760.0,999.0,60.0,292.0,1649231922.9283266,1649231924.0468051,b7ba907e-c393-4bc3-9baa-3083204194b8
-0.0803285291436848,-0.0802526712671793,0.0452415230231567,-0.0577228850393034,-0.0737415377745129,0.2991124960458101,-0.1484109653538043,-0.1723314800911279,-12.315207472189758,21.650138568051126,23.180614648652885,0.9456244756080106,-0.4089393360779165,0.2550546293584446,7239.38037109375,11.632333333333332,8.009999999999998,178.89178860228398,-3.855912432718059,48.62887278971282,1459.0,1435.0,1350.0,1528.0,1394.0,999.0,60.0,292.0,1649231924.9597075,1649231926.0951977,0e3de68d-c687-4f28-81e4-e4b9005d9929
-0.1111521091407337,-0.0817318996649,0.0423589242148835,-0.0535127734965636,-0.0764597779976238,0.2967861883953774,-0.1521912158165618,-0.1818516427169184,-12.278739255643224,21.707599044163608,23.168461970137965,0.9311537697735393,-0.4153378678667108,0.2679112493180883,7245.5,11.628,7.996666666666666,178.85135995367676,-3.824566038432194,48.379956411240514,1459.0,1435.0,1350.0,1528.0,1394.0,999.0,60.0,292.0,1649231926.204026,1649231927.529148,0e3de68d-c687-4f28-81e4-e4b9005d9929
-0.1001906472879275,-0.0799113108752311,0.0467839662373504,-0.0530196973608975,-0.0723634532048858,0.2952816742072961,-0.1472604543454586,-0.1803724142662713,-12.193013424518751,21.650485016916004,23.30888494039872,0.92656792474552,-0.4101420173722987,0.2497857935489924,7245.5,11.633444444444445,7.992222222222221,178.83695887926677,-3.795975578044559,48.2051536565421,1459.0,1435.0,1350.0,1528.0,1394.0,999.0,60.0,292.0,1649231927.637159,1649231928.7663746,0e3de68d-c687-4f28-81e4-e4b9005d9929
-0.2371899594008294,-0.3068401297853865,0.0302595950158127,0.0308285289697113,-0.0402376470108758,0.4430780661753089,-0.1074350736331177,-0.131886593040364,-12.362869679175704,22.32465335249255,23.76876649554326,1.07317924237286,-1.2754964125714137,0.1453808898394607,7245.5,11.608333333333333,7.989999999999999,178.87752261383756,-3.783663830042526,47.88394959153399,1364.0,1435.0,1350.0,1528.0,1312.0,999.0,60.0,292.0,1649231930.8975906,1649231932.0344074,5776709c-b2bc-4032-b29f-989ea787264d
-0.2052917245705361,-0.3037805288550541,0.0374660920403645,0.0269597779639823,-0.0340678739609541,0.4474019639958783,-0.0992803529146733,-0.1241996626738788,-12.36351043238374,22.30915156710021,24.36215092008535,1.09197291113239,-1.2683427483119,0.1167227234334993,7250.948784722223,11.609777777777778,7.989999999999999,178.89126950790703,-3.767648506826793,47.854095973036735,1364.0,1435.0,1350.0,1528.0,1312.0,999.0,60.0,292.0,1649231932.1427574,1649231933.468289,5776709c-b2bc-4032-b29f-989ea787264d
-0.202788414842081,-0.3068527727632361,0.035544359494005,0.0263908439909904,-0.0366596843644527,0.4504615642025066,-0.1022893816598653,-0.1293959265936352,-12.445004377298552,22.49437690261677,24.27396355549356,1.1012087290997052,-1.278555772726524,0.1265224903007876,7251.6298828125,11.608555555555556,8.0,178.89048783070206,-3.7565233618974414,47.82978695032571,1364.0,1435.0,1350.0,1528.0,1312.0,999.0,60.0,292.0,1649231933.577216,1649231934.69763,5776709c-b2bc-4032-b29f-989ea787264d
-0.3336306026238432,-0.5394203874261468,0.0210175786144434,0.1015027710479052,-0.0045970934774123,0.5986878147640812,-0.0597078325272318,-0.0815928269571563,-12.516798437418345,23.31330573317873,22.88305526937729,1.2693063840202272,-2.1481449197449245,0.0121964494478363,7251.6298828125,11.569,7.98,178.95717172647878,-3.740131761663058,47.75086335555631,1262.0,1435.0,1350.0,1528.0,1222.0,999.0,60.0,292.0,1649231936.3315785,1649231937.365553,045968ff-1a80-4dc2-8c3f-fd1f7357c9a7
-0.3607245072823514,-0.5438580736694221,0.0228634532947194,0.1086207670610953,-0.0020684979996271,0.6004578313943252,-0.058102174379481,-0.0799492399791568,-12.508690994205544,23.42517699946457,23.459882785867983,1.2581569437361264,-2.1707161932504984,0.0042489363388431,7251.6298828125,11.562,7.98,179.00200053473128,-3.7366436694312974,47.74125100266437,1262.0,1435.0,1350.0,1528.0,1222.0,999.0,60.0,292.0,1649231937.4780433,1649231938.7933247,045968ff-1a80-4dc2-8c3f-fd1f7357c9a7
-0.3690815167028918,-0.5425179177179352,0.0216623704550333,0.1109470748307186,-0.0016765656958871,0.5953500691149068,-0.0608330575440165,-0.0809859640360192,-12.66783401890447,23.344308214844325,23.21180327127487,1.2407159908100778,-2.16272862794653,0.0089950737596117,7250.267686631944,11.567888888888888,8.007777777777777,179.02707947154377,-3.7420714879554726,47.79919680976295,1262.0,1435.0,1350.0,1528.0,1222.0,999.0,60.0,292.0,1649231938.9024477,1649231940.0219042,045968ff-1a80-4dc2-8c3f-fd1f7357c9a7
-0.4128383635049265,-0.6327109222718323,-0.000758179832212,0.1269025116293551,-0.0141961476595051,0.6655519629878573,-0.0674089230797984,-0.0901035739226168,-12.84267117865826,24.53240905059166,22.59258963461384,1.3690504189982575,-2.497647352336968,0.0537148096022911,7245.5,11.503333333333334,7.98,179.08004075836809,-3.734996170885247,47.80367210148912,1153.0,1435.0,1350.0,1528.0,1121.0,999.0,60.0,292.0,1649231941.9563854,1649231943.093097,bd1f79b2-d100-4bf4-9518-ffd8d369f91e
-0.4100068417557825,-0.6333577372236696,-0.0079095535996265,0.1202143768581764,-0.0197433804702358,0.6690080468868087,-0.0709727256718656,-0.0908474868935034,-12.81332865218396,24.27291949748667,22.08031640564197,1.3897603271218073,-2.495375023345054,0.0753601425881982,7245.5,11.508111111111113,7.970000000000001,179.11846284917908,-3.748740029315128,47.87957181973098,1153.0,1435.0,1350.0,1528.0,1121.0,999.0,60.0,292.0,1649231943.2022412,1649231944.3236668,bd1f79b2-d100-4bf4-9518-ffd8d369f91e
-0.4198051510548193,-0.630917641799527,-0.0060636788885951,0.1174834938336384,-0.0186940133428721,0.6701459147204017,-0.0706187222896632,-0.0941599468917335,-12.953988598752158,24.352232326148723,22.23264293106861,1.39904863476302,-2.486123097707706,0.0712659427733885,7245.5,11.510444444444444,7.978888888888889,179.1219523169351,-3.746085077866501,47.92412059022752,1153.0,1435.0,1350.0,1528.0,1121.0,999.0,60.0,292.0,1649231944.431884,1649231945.4840157,bd1f79b2-d100-4bf4-9518-ffd8d369f91e
0.0222439474771234,0.1698633469022743,0.0578086423269394,-0.1479558181410075,-0.1135542749665205,0.1377628288400993,-0.1984645162570175,-0.2230803953048,-12.250363633180548,20.89249442296207,23.134683330762115,0.7822221826058896,0.540989385292927,0.3931806503720926,7245.5,11.635222222222222,8.014444444444443,178.8434915757529,-3.796079880725009,48.044670393438615,1553.0,1435.0,1350.0,1528.0,1471.0,999.0,60.0,292.0,1649231947.48609,1649231948.6253145,ce01c411-7406-4100-87bd-8f451d173d64
0.0362776522109091,0.1704954957403553,0.0563799859033556,-0.1471466675725297,-0.115450721671533,0.1355123789631819,-0.200714966415686,-0.2147107435331492,-12.21994604903085,20.92709333790566,22.9940787490951,0.775490996897349,0.5442016082776071,0.4008076029541071,7251.6298828125,11.634,8.03,178.86019670064294,-3.807745084917483,48.13848000604912,1553.0,1435.0,1350.0,1528.0,1471.0,999.0,60.0,292.0,1649231948.733865,1649231949.8548765,ce01c411-7406-4100-87bd-8f451d173d64
0.0428393573677862,0.1673094656024666,0.0549007575603926,-0.1471466675730854,-0.115551865512968,0.1387236950778701,-0.1997288141096722,-0.2283651604282681,-12.171631072603958,20.81656928040528,23.00597733630088,0.7819271371959491,0.531708990161576,0.4012680657028605,7257.76953125,11.626666666666669,7.989999999999999,178.84690059905864,-3.814022740242765,48.20562304232006,1553.0,1435.0,1350.0,1528.0,1471.0,999.0,60.0,292.0,1649231949.96366,1649231951.2867267,ce01c411-7406-4100-87bd-8f451d173d64
0.0640669160558747,0.1633269279268543,0.0503239998523716,-0.4481380691311185,-0.1514579231035191,0.4382105203816785,-0.1198757639181316,-0.1388275879465386,-12.016379558340438,20.25974788429657,25.918396833049407,2.130500158271332,0.5266194185216407,0.3440421134577391,7257.76953125,11.633,8.0,178.8653330028988,-3.7309946761008734,48.24352831548391,1553.0,1537.0,1350.0,1528.0,1471.0,999.0,60.0,292.0,1649231951.8486805,1649231952.7954454,ace3cdac-655c-4f0b-bd75-a61b7b9027c1
0.0392740378237608,0.1616201260655374,0.0480482639327346,-0.4484162147008526,-0.1528233647727549,0.4394495320393548,-0.1208745591942302,-0.1403573885400059,-12.000003756586096,20.186063269233507,25.808639457973506,2.1333007776909523,0.5209634732697973,0.3501039730116863,7257.76953125,11.632444444444443,7.9944444444444445,178.8814598384391,-3.73711362439169,48.32718067788868,1553.0,1537.0,1350.0,1528.0,1471.0,999.0,60.0,292.0,1649231952.9040558,1649231954.1545074,ace3cdac-655c-4f0b-bd75-a61b7b9027c1
0.0415877026433438,0.1638326469966265,0.0455070255275306,-0.4504138055582329,-0.1559714663172884,0.4383243071687233,-0.1243893070623398,-0.1426963392845417,-12.036260989805715,20.206986473762683,25.672075546262786,2.1352504684250744,0.5308139543211116,0.3628836868812989,7257.76953125,11.637444444444444,8.001111111111111,178.91360119085337,-3.742608843602049,48.390300732738496,1553.0,1537.0,1350.0,1528.0,1471.0,999.0,60.0,292.0,1649231954.2630594,1649231955.3820174,ace3cdac-655c-4f0b-bd75-a61b7b9027c1
0.0787706983935005,0.1539458391650903,0.0481367648019943,-0.7326936466427217,-0.185770966009986,0.7263818716648289,-0.0436386079605017,-0.0628938628878786,-11.843090943319028,20.110748465298727,28.6122017983536,3.419367320537619,0.501226708585105,0.2855652833018021,7257.76953125,11.60875,8.0,178.91276866668454,-3.65809980234903,48.54149019538383,1553.0,1645.0,1350.0,1528.0,1471.0,999.0,60.0,292.0,1649231956.498576,1649231957.6396878,493fc425-fc29-4972-8d96-6265f65c861f
0.0489712013414746,0.1579410198230404,0.0420428498114903,-0.7363853974318538,-0.1909798730625717,0.7215143259281052,-0.049391162762513,-0.0736783228519963,-11.855051353533286,19.89336965823584,27.95093114349972,3.4149010830482927,0.5222210682979627,0.3087563280647043,7257.76953125,11.62,8.0,178.9360118004301,-3.652327118561605,48.612153624989496,1553.0,1645.0,1350.0,1528.0,1471.0,999.0,60.0,292.0,1649231957.7502372,1649231958.8673477,493fc425-fc29-4972-8d96-6265f65c861f
0.0795419200065864,0.1585225967593829,0.038818890604656,-0.7373209781319402,-0.1938371861932717,0.7202120994059631,-0.0512749664297517,-0.07486676286786,-11.747314417599435,19.770287896678887,27.705733644041484,3.413123937635378,0.5257216999096879,0.3195670343847683,7257.76953125,11.61225,7.995,178.9656087176511,-3.647217016484525,48.65670566828503,1553.0,1645.0,1350.0,1528.0,1471.0,999.0,60.0,292.0,1649231958.9753456,1649231960.295048,493fc425-fc29-4972-8d96-6265f65c861f
0.0634853390975846,0.1451589702884692,0.0407279801651694,-1.0009651187052158,-0.2239148319325954,0.990152281543942,0.0208658629245211,0.00265997553509,-11.657224400696732,20.007470617663145,29.98655881754071,4.616508456424876,0.4873327299602117,0.2544723103631457,7257.76953125,11.597333333333331,7.978888888888889,178.98406901143028,-3.5757863823229536,48.71970368093528,1553.0,1761.0,1350.0,1528.0,1471.0,999.0,60.0,292.0,1649231960.850498,1649231961.935341,0b359eec-ef37-418d-acbb-2a9bbd253057
0.0567466322906371,0.1450957554040993,0.039046464175037,-0.996679146828224,-0.2264434276669773,0.9859295274741288,0.0175281169092042,0.0016738232151385,-11.566701882854169,20.113012417949907,29.91747325446698,4.598001736880472,0.4864347390814906,0.264913159656031,7257.76953125,11.59688888888889,8.001111111111111,178.99153061364356,-3.5661519498958927,48.74748281919963,1553.0,1761.0,1350.0,1528.0,1471.0,999.0,60.0,292.0,1649231962.0440884,1649231963.1646888,0b359eec-ef37-418d-acbb-2a9bbd253057
0.0888345081202459,0.1472829903946649,0.0451530221913945,-0.9940746918709992,-0.219148429022068,0.9833503603028858,0.0234703162533818,0.0037599145975134,-11.64127974172382,19.998746564065737,30.244385024815827,4.5858921462834354,0.4923331542937968,0.2389360859986436,7257.76953125,11.596666666666668,7.976666666666666,179.0218536179188,-3.5521644576696803,48.76744366759405,1553.0,1761.0,1350.0,1528.0,1471.0,999.0,60.0,292.0,1649231963.2725136,1649231964.6020496,0b359eec-ef37-418d-acbb-2a9bbd253057
