raw_voltage_G-,raw_voltage_G0,raw_voltage_G1,raw_voltage_G2,raw_voltage_G3,raw_voltage_G4,raw_voltage_G5,raw_voltage_G6,load_x,load_y,load_z,load_l,load_m,load_n,rpm,voltage,current,roll,pitch,yaw,aileron1_pwm,elevator_pwm,throttle_pwm,rudder_pwm,aileron2_pwm,pbaro,pdiff,Tt,sample_start_time,sample_end_time,uid
0.0560386255844329,0.1734539522960527,0.0365684407030795,-0.1965933554243441,-0.1364759940185808,0.2286531882723793,-0.2128522256925302,-0.236760098121199,-13.781965225155684,21.39186384624854,30.049541482587863,1.0987633831246384,0.5086607001361958,0.4823233924379556,3319.01060655382,11.965444444444444,0.2044444444444444,178.88305203142562,-8.754463392658582,107.51315091588484,1553.0,1435.0,1200.0,1528.0,1471.0,999.0,60.0,292.0,1649236342.408553,1649236343.588445,7ebd2208-7a75-4826-8f19-2a950ebc4bc9
0.0170856127414102,0.1713805041136679,0.0326491177600342,-0.1959612065028714,-0.1385747283743668,0.2309289240511456,-0.215165890746234,-0.2312604025722,-13.815320858889974,21.27318529074697,30.144547523988194,1.1014677557278436,0.4999497476854583,0.4937326135831404,3548.768527560764,11.965555555555556,0.2011111111111111,178.95955015012976,-8.761624751139601,106.76124878219406,1553.0,1435.0,1200.0,1528.0,1471.0,999.0,60.0,292.0,1649236343.7010703,1649236344.8249838,7ebd2208-7a75-4826-8f19-2a950ebc4bc9
0.0397797569226095,0.1755274004777192,0.0356581463435693,-0.1968967868994655,-0.1368299973978888,0.2288807618530728,-0.2133453018466035,-0.2402748461872326,-13.80513907156132,21.30114993501189,30.32662794062338,1.0993450624136023,0.5141237126170112,0.4854084822260874,3574.572591145833,11.965222222222222,0.2055555555555555,178.98863005997606,-8.764879715734068,106.19559528243084,1553.0,1435.0,1200.0,1528.0,1471.0,999.0,60.0,292.0,1649236344.933494,1649236346.0492914,7ebd2208-7a75-4826-8f19-2a950ebc4bc9
0.157599659452485,0.3488752507916453,0.0656093592630485,-0.2874205140551876,-0.1505096996915522,0.1429085204134368,-0.2188070685557502,-0.2479112054972084,-13.390534140969084,20.93610978893055,30.496983870237912,1.1096606392149226,1.1728771785479464,0.4918517449254977,3579.2157389322915,11.948666666666668,0.2,178.89849584804892,-8.769492749608503,105.18661317638978,1647.0,1435.0,1200.0,1528.0,1543.0,999.0,60.0,292.0,1649236347.7782583,1649236348.9180892,7531305f-7b2c-4424-836a-a4e9dbfd03e7
0.1185075750678075,0.3476362391184022,0.0636623407862274,-0.2875722298085406,-0.1516981396366559,0.1434648113927658,-0.2195024323713346,-0.2369118140010473,-13.350329593313448,20.85602064692508,30.37427258881592,1.1106257408290252,1.1689270511548364,0.4968511553452413,3581.874755859375,11.951555555555554,0.2,178.91129865819318,-8.772505716806124,104.8661111030464,1647.0,1435.0,1200.0,1528.0,1543.0,999.0,60.0,292.0,1649236349.026183,1649236350.145443,7531305f-7b2c-4424-836a-a4e9dbfd03e7
0.1414798640243144,0.3519601369960752,0.0657737179597293,-0.2884445953522319,-0.1510533477545877,0.1411385036602216,-0.2190219991920756,-0.2342188594400779,-13.350248086029016,20.91217666020293,30.540850261053176,1.1078700516329767,1.1839095558030754,0.4931383472674236,3581.874755859375,11.950444444444445,0.2022222222222222,178.90176523193165,-8.78021823360767,104.5805059839924,1647.0,1435.0,1200.0,1528.0,1543.0,999.0,60.0,292.0,1649236350.2536223,1649236351.3745406,7531305f-7b2c-4424-836a-a4e9dbfd03e7
0.2451017007331408,0.5050160058165801,0.0941698444225634,-0.37301348332713,-0.1643790467425024,0.0620819686426003,-0.2253308454791141,-0.2512868808510982,-13.028757193178532,20.89207050980684,29.635122717634683,1.1222842569622205,1.7759261901585726,0.4982977351882381,3582.8729654947915,11.937333333333337,0.2,178.77276572580732,-8.775894344408098,104.05147747637858,1745.0,1435.0,1200.0,1528.0,1614.0,999.0,60.0,292.0,1649236353.309205,1649236354.4431674,d552896a-3ce4-47d8-8798-646b25e4d10a
0.2426110343615608,0.5059642290169448,0.0932721930508396,-0.3742145663638787,-0.1650111956651601,0.0639025573544523,-0.2252549876212313,-0.2568750773367916,-13.015268838821992,20.82338024158084,29.866235504829582,1.1286282892268094,1.7774285973939608,0.500742129674882,3579.2157389322915,11.935666666666668,0.19,178.75870008957656,-8.761612323989862,103.88659063853522,1745.0,1435.0,1200.0,1528.0,1614.0,999.0,60.0,292.0,1649236354.5534203,1649236355.6835065,d552896a-3ce4-47d8-8798-646b25e4d10a
0.2339505954317826,0.5037011363115417,0.0898838752203307,-0.3733422007785492,-0.1667179977067572,0.0649013525483622,-0.2280617288440692,-0.2593783870255952,-13.1046878667269,20.75684556889185,29.7846686480998,1.1282370768786285,1.7699730981479458,0.5112652532575976,3577.389892578125,11.939,0.2,178.72869734528246,-8.758308314842607,103.7505552786559,1745.0,1435.0,1200.0,1528.0,1614.0,999.0,60.0,292.0,1649236355.8141696,1649236356.9065638,d552896a-3ce4-47d8-8798-646b25e4d10a
0.2873545280104365,0.6306745438757088,0.1172179914046263,-0.4349893699335635,-0.1753278658970623,-0.0146356175325863,-0.2357486598491711,-0.2518558146577125,-12.903298042797871,21.02198728852071,28.16642457878203,1.0915299251656436,2.2684450642485063,0.5092502420149639,3581.874755859375,11.913444444444446,0.19,178.5296003666162,-8.734718169541722,103.50074718104194,1849.0,1435.0,1200.0,1528.0,1686.0,999.0,60.0,292.0,1649236358.8378851,1649236359.9997003,f40af2f1-b0a8-4216-bd8e-a3ce2276d071
0.2994032845037972,0.6323939886022161,0.1187098626851508,-0.4375053229130667,-0.1747842178400849,-0.0137126801639526,-0.2341430015575845,-0.2618816967917343,-12.873221927891125,21.03578181677045,28.219345840157573,1.0994685685047605,2.274616694527754,0.5044660787189305,3577.7219509548613,11.919444444444444,0.19,178.5155256234665,-8.731328024119932,103.40814347627492,1849.0,1435.0,1200.0,1528.0,1686.0,999.0,60.0,292.0,1649236360.1084597,1649236361.2153003,f40af2f1-b0a8-4216-bd8e-a3ce2276d071
0.2866212353873764,0.6277413734601455,0.1137285297811705,-0.4333331395113876,-0.1786023972647735,-0.0137632520751276,-0.2394404095942013,-0.2651815142410013,-12.90415651966247,21.092587361239573,28.07024995247773,1.0900326983676716,2.257878427868392,0.5232174437377652,3572.91650390625,11.915888888888889,0.19,178.47618980512647,-8.727298686828318,103.33837840627255,1849.0,1435.0,1200.0,1528.0,1686.0,999.0,60.0,292.0,1649236361.3269255,1649236362.6401298,f40af2f1-b0a8-4216-bd8e-a3ce2276d071
0.3594897879044078,0.7407493495317857,0.1464546225392452,-0.4971215260554133,-0.180645502574137,-0.0719715209125826,-0.2348970287899426,-0.2546858191657526,-12.60660520607282,21.431817847214724,27.324425876292693,1.1070311498869685,2.696165399939003,0.4870537674577248,3564.8263888888887,11.862666666666668,0.1755555555555555,178.3839124316198,-8.709964141033518,103.21670389857816,1962.0,1435.0,1200.0,1528.0,1760.0,999.0,60.0,292.0,1649236364.2635195,1649236365.5022256,727e70c0-cc75-42f4-b8a9-80f6113c39e7
0.376841514186423,0.7343722324625122,0.1437050279372385,-0.4971549034227741,-0.1813079946375396,-0.0646385938168842,-0.2344337900875171,-0.2622230574746021,-12.618251187771408,21.34997948660058,27.466380601724204,1.122921845621786,2.670900031827404,0.4904982863100183,3564.167426215278,11.856777777777776,0.1722222222222222,178.40166029872313,-8.70448376799823,103.07265672680242,1962.0,1435.0,1200.0,1528.0,1760.0,999.0,60.0,292.0,1649236365.6102543,1649236366.6597612,727e70c0-cc75-42f4-b8a9-80f6113c39e7
0.393087738584357,0.7485197225482773,0.1462968381831892,-0.5041338287672882,-0.182433219711895,-0.0715669456392031,-0.2353440845203791,-0.2603139674267679,-12.619644176704185,21.364373543832315,27.54475015950928,1.1233319258760082,2.7243007992202743,0.4915483336926925,3560.549560546875,11.870111111111113,0.18,178.39701728790732,-8.71898473392486,102.953969288505,1962.0,1435.0,1200.0,1528.0,1760.0,999.0,60.0,292.0,1649236366.768818,1649236367.9701169,727e70c0-cc75-42f4-b8a9-80f6113c39e7
-0.1192689009448209,-0.0641455176509723,-0.0057728903414376,-0.0906831279632547,-0.1220124271770308,0.3630227411943735,-0.2046090037447056,-0.2236872584046354,-14.47921467165239,22.059424272602104,29.78473821929309,1.1637260191870655,-0.3909125757342921,0.4796468011364531,3561.5357801649307,11.955666666666666,0.2055555555555555,178.85766649501042,-8.726824842454649,102.88228341752612,1459.0,1435.0,1200.0,1528.0,1394.0,999.0,60.0,292.0,1649236368.8734255,1649236370.0145028,6f58d8a6-6e0e-4bfa-804f-4cf3bcd1ae08
-0.0939323732530459,-0.0613134906508356,-0.0028650055386368,-0.0878258149689757,-0.119294186916186,0.3588758449936697,-0.2013976872279362,-0.2193507166823122,-14.33056478279786,21.96573503749101,29.98750403794564,1.1475928562543651,-0.3833090092363545,0.4682045803796705,3565.320610894097,11.959444444444443,0.2011111111111111,178.86264039054598,-8.71495074831006,102.96191659305926,1459.0,1435.0,1200.0,1528.0,1394.0,999.0,60.0,292.0,1649236370.123088,1649236371.2533066,6f58d8a6-6e0e-4bfa-804f-4cf3bcd1ae08
-0.0796078794049984,-0.0633616530352405,-0.0028650055375281,-0.0856512227773713,-0.1192689009582692,0.3595079938099009,-0.2024217684715815,-0.231222473712655,-14.394165199135408,22.07462786264584,30.071780448007328,1.144811314855971,-0.3915535471269033,0.4694291481533319,3577.389892578125,11.958333333333334,0.2,178.8373019065451,-8.722314925463932,103.04270786511172,1459.0,1435.0,1200.0,1528.0,1394.0,999.0,60.0,292.0,1649236371.361893,1649236372.4663112,6f58d8a6-6e0e-4bfa-804f-4cf3bcd1ae08
-0.2036987092926478,-0.2598714631560626,-0.031804780948908,0.0014588927295293,-0.1037938959843338,0.4698811754356909,-0.1902212943293028,-0.2131809431994392,-14.814788990325724,22.79588539677772,29.722816448733948,1.199408450298259,-1.1350623962394977,0.4463325854067555,3579.5479329427085,11.938333333333333,0.1955555555555556,178.8774330624684,-8.716892324445373,103.18238295690875,1364.0,1435.0,1200.0,1528.0,1312.0,999.0,60.0,292.0,1649236374.4225256,1649236375.536826,3a59b4ec-d63e-4e93-baf6-bb370ca57736
-0.2169991226265579,-0.263879287420721,-0.0322093562345381,0.0072367333855327,-0.1039203257633882,0.4683893042619183,-0.1912706615423593,-0.2124223644309626,-14.761919467385145,22.898579330083365,29.701729042992746,1.1837065006919452,-1.1510167564574705,0.4480811403077546,3578.883544921875,11.93877777777778,0.2,178.87960202698488,-8.713926504525773,103.20291602337365,1364.0,1435.0,1200.0,1528.0,1312.0,999.0,60.0,292.0,1649236375.645955,1649236376.771064,3a59b4ec-d63e-4e93-baf6-bb370ca57736
-0.2263169978106756,-0.2647769389160693,-0.0344977351697699,0.0036334848386803,-0.1043881159484895,0.4697168167462444,-0.1909419441077383,-0.2201472242846649,-14.7751764351758,22.674113805746007,29.28920539863634,1.1931432574691674,-1.1503387199119,0.4507303923794156,3578.219699435764,11.939777777777776,0.19,178.8718778419435,-8.715136491509988,103.22874248644526,1364.0,1435.0,1200.0,1528.0,1312.0,999.0,60.0,292.0,1649236376.8802135,1649236378.0052986,3a59b4ec-d63e-4e93-baf6-bb370ca57736
-0.316752225440037,-0.4548388484889164,-0.0557252945361269,0.0889609378945451,-0.0865868031448182,0.5682688146360213,-0.1781598930158801,-0.2116764287086627,-15.204735325216578,23.807209735557898,27.952154738308348,1.228150003326048,-1.860128012311809,0.4123203555223015,3578.883544921875,11.90322222222222,0.19,178.98105917473606,-8.717521840213875,103.25975533982664,1262.0,1435.0,1200.0,1528.0,1222.0,999.0,60.0,292.0,1649236380.3520305,1649236381.4935043,f802d9b8-891f-4632-b67d-e02884ab0dab
-0.32887684244378,-0.4541814135296214,-0.0556241507314067,0.0863438416431736,-0.087408596721705,0.5706709800673673,-0.1777553177411577,-0.2044572881486698,-15.177836931221384,23.84586429191273,28.04390811434764,1.2397409657392349,-1.8583365314759333,0.4129147279031191,3572.91650390625,11.899,0.18,179.0042727109952,-8.720328763371535,103.16804714875082,1262.0,1435.0,1200.0,1528.0,1222.0,999.0,60.0,292.0,1649236381.6311486,1649236382.710997,f802d9b8-891f-4632-b67d-e02884ab0dab
-0.3097353719901549,-0.4534481206832684,-0.0579251726455779,0.0868874896604203,-0.0881166034571397,0.5699376874613948,-0.1796770504136036,-0.1996655992184611,-15.263628232631891,23.71737694887044,28.098684570428706,1.2358660354882178,-1.855679496358526,0.4199152329848634,3569.940185546875,11.904000000000002,0.1833333333333333,179.02492264958585,-8.718085330820404,103.10502043981964,1262.0,1435.0,1200.0,1528.0,1222.0,999.0,60.0,292.0,1649236382.819768,1649236383.9442806,f802d9b8-891f-4632-b67d-e02884ab0dab
-0.4033060624420152,-0.5570573456661205,-0.0659661064658251,0.1344377259118021,-0.0778757914808907,0.6240749104375879,-0.1711303971319907,-0.194671622720601,-15.392622846557092,24.61463390898526,27.579697985216097,1.2556578988339393,-2.24511331403066,0.391448694800767,3569.940185546875,11.859888888888888,0.1744444444444444,179.1017789737665,-8.714058839440941,102.95991610654237,1153.0,1435.0,1200.0,1528.0,1121.0,999.0,60.0,292.0,1649236384.8466527,1649236385.986265,405913f7-a08a-4481-b61c-10b4d8053357
-0.3646059019651197,-0.5489911238837957,-0.0684820590148494,0.1362836005142322,-0.0822376187971295,0.6153512570459961,-0.1773760283831,-0.1982495856123624,-15.36833776698819,24.669431675012763,27.67016226253065,1.2321554723919297,-2.2162195798698083,0.4108259131645584,3565.156005859375,11.862444444444444,0.1788888888888888,179.10201423583788,-8.72065443058571,102.78783404386334,1153.0,1435.0,1200.0,1528.0,1121.0,999.0,60.0,292.0,1649236386.0945263,1649236387.420022,405913f7-a08a-4481-b61c-10b4d8053357
-0.3921423113940158,-0.550204850057956,-0.0668131859552631,0.1343239390980806,-0.0800756695948728,0.619434938268511,-0.1742152838103162,-0.1947854096114903,-15.392965079540543,24.62494473816069,27.844257413922094,1.2455561098652188,-2.221794166384039,0.4011887138747071,3557.2648111979165,11.860111111111111,0.17,179.11744135644324,-8.73678306853705,102.639603001766,1153.0,1435.0,1200.0,1528.0,1121.0,999.0,60.0,292.0,1649236387.528366,1649236388.6485655,405913f7-a08a-4481-b61c-10b4d8053357
0.0383384575052028,0.1654888769552633,0.0314606778990627,-0.1938624720960038,-0.1368932122928694,0.237300984223089,-0.2126752239919978,-0.2282387306073571,-13.814279085822584,21.113106605558468,30.5111896817015,1.1099910070830488,0.4742591954485669,0.4894051821193183,3552.350151909722,11.959555555555555,0.1911111111111111,178.8945662125465,-8.741878579385357,102.38233254302884,1553.0,1435.0,1200.0,1528.0,1471.0,999.0,60.0,292.0,1649236390.7862082,1649236391.9299366,e649e6d1-d4b4-457e-a3e2-69ea07d46b4c
0.0264667018920924,0.1603052564842373,0.0300952363581371,-0.1907902283508855,-0.1362863493421309,0.2403100126347182,-0.2123844354793086,-0.2270123616268863,-13.835247883248751,21.06204764138312,30.61561791509079,1.1094220919015243,0.4535746476604935,0.4895791365687563,3563.5126953125,11.962888888888893,0.2,178.8359889924046,-8.742048006022268,102.6806850718038,1553.0,1435.0,1200.0,1528.0,1471.0,999.0,60.0,292.0,1649236392.042651,1649236393.1539495,e649e6d1-d4b4-457e-a3e2-69ea07d46b4c
0.027124136681399,0.162075273231213,0.0341409890762014,-0.1922441708569158,-0.1339221124478503,0.2388560703360808,-0.209122547031068,-0.2237251872011931,-13.769981877738616,21.14085353086748,30.492058901206576,1.1101716499597822,0.461283277390662,0.4762403735186842,3570.270697699653,11.962666666666667,0.2,178.8139714981601,-8.728031888662974,102.90681138574551,1553.0,1435.0,1200.0,1528.0,1471.0,999.0,60.0,292.0,1649236393.2624032,1649236394.3837943,e649e6d1-d4b4-457e-a3e2-69ea07d46b4c
0.0439013674880356,0.1542745565628371,0.0181855517515976,-0.3780201031967468,-0.167514505344756,0.4261996930891993,-0.1714717575281874,-0.1947980527684103,-13.666941643543474,20.74927439198796,31.80581804078618,1.9470937617679147,0.4415076025716533,0.4896496655960177,3574.2413736979165,11.953222222222225,0.1844444444444444,178.77826934045854,-8.66691213060259,103.37560445506898,1553.0,1537.0,1200.0,1528.0,1471.0,999.0,60.0,292.0,1649236396.3199604,1649236397.658887,4aa23f30-9ce2-4899-99e6-1468f9d732f3
0.021510654783963,0.159913324201511,0.0214853688315506,-0.3788924687875865,-0.1658329892357814,0.4218757952580957,-0.1699419571558382,-0.1955187022591479,-13.6391915133654,20.77349289548026,31.88047852052436,1.9396959553141853,0.4621152954242054,0.4814726672996627,3575.8974609375,11.953555555555557,0.2,178.7758044010781,-8.657537031920576,103.50163586454396,1553.0,1537.0,1200.0,1528.0,1471.0,999.0,60.0,292.0,1649236397.769493,1649236398.8642037,4aa23f30-9ce2-4899-99e6-1468f9d732f3
0.0256701943204015,0.1598753952750717,0.0198038528545885,-0.3786269662156061,-0.1665662819665524,0.4211930745471496,-0.1717372600663802,-0.186997334860328,-13.715625084284008,20.72078502396196,31.80060134535752,1.9370785392500705,0.4630817842161068,0.4871729179840963,3580.37841796875,11.959,0.1966666666666666,178.78566567641974,-8.654018725588113,103.60647016138476,1553.0,1537.0,1200.0,1528.0,1471.0,999.0,60.0,292.0,1649236398.972327,1649236400.1303189,4aa23f30-9ce2-4899-99e6-1468f9d732f3
0.0305756694890042,0.1569801535948306,0.0043162056194632,-0.6028249371303052,-0.2073778160133025,0.6417877197167591,-0.1280936995839687,-0.1522923596774714,-13.641378411615788,20.581933725084752,33.51665472268478,2.9371391340409425,0.4631074100053655,0.5019450782086463,3581.874755859375,11.947555555555557,0.1877777777777777,178.8047644031589,-8.601181046215062,103.80544799119548,1553.0,1645.0,1200.0,1528.0,1471.0,999.0,60.0,292.0,1649236401.7414272,1649236402.986138,3b9c7ff5-ce28-45cd-82bc-62b9fed7dae9
0.0427382135690481,0.1545906309837293,0.0039874882054829,-0.6026226494565419,-0.2063790207218823,0.6443542438298872,-0.126197252884381,-0.1417607588540226,-13.602649392686006,20.46578707977011,33.58233769444719,2.9416937923497786,0.4532412717547003,0.4982126590226936,3583.0394422743057,11.949666666666666,0.19,178.82613834180162,-8.59987780817593,103.83183604759888,1553.0,1645.0,1200.0,1528.0,1471.0,999.0,60.0,292.0,1649236403.0944405,1649236404.220234,3b9c7ff5-ce28-45cd-82bc-62b9fed7dae9
0.0559880536548354,0.161304051650184,0.0063643679557435,-0.6088935681728816,-0.2070996704861651,0.6452392521447519,-0.1255777469579192,-0.1562622547877019,-13.613876313280432,20.58702597239172,33.83235390180377,2.958784443135339,0.4772090769760934,0.4961245733378651,3584.0381944444443,11.946333333333332,0.19,178.85155271679332,-8.601140729126213,103.8787055645934,1553.0,1645.0,1200.0,1528.0,1471.0,999.0,60.0,292.0,1649236404.3435094,1649236405.4447095,3b9c7ff5-ce28-45cd-82bc-62b9fed7dae9
0.0703378327056554,0.157814590062198,0.0029760500178505,-0.6916671692936652,-0.2231688961510206,0.7271657361781604,-0.1104314593725937,-0.1375000752959497,-13.580970355973776,20.94679217034384,34.19788845422872,3.331892206566075,0.470631352744002,0.5003079232623553,3586.370849609375,11.934777777777777,0.18,178.86201960224142,-8.576437927036785,103.87503927082894,1553.0,1761.0,1200.0,1528.0,1471.0,999.0,60.0,292.0,1649236406.3537896,1649236407.491285,e9e3ab8e-b5d9-4c0e-9b0b-94a891d1526c
0.0308791009540157,0.1574226577785505,0.004708137910712,-0.6962312861098371,-0.2223976744692494,0.7299851198252318,-0.1077385051021019,-0.1291936386884864,-13.540784888353604,20.968691183363656,33.96332951241555,3.3487375232991825,0.4716279525093186,0.4926631196518137,3583.5386013454863,11.934333333333331,0.1822222222222222,178.8745841146746,-8.577341788736952,103.8525193782255,1553.0,1761.0,1200.0,1528.0,1471.0,999.0,60.0,292.0,1649236407.5992148,1649236408.9266615,e9e3ab8e-b5d9-4c0e-9b0b-94a891d1526c
0.0396280411907137,0.1553239236383222,0.0067310142862747,-0.6912246649237244,-0.2199070077096081,0.7291886123272948,-0.1051593375945851,-0.1268294018125222,-13.43884175569435,20.966457427207875,34.23019761240003,3.33583372762684,0.4601814292573006,0.4830797067922023,3583.3720703125,11.939,0.19,178.8884463630501,-8.585108947051854,103.84808810327397,1553.0,1761.0,1200.0,1528.0,1471.0,999.0,60.0,292.0,1649236409.034612,1649236410.365792,e9e3ab8e-b5d9-4c0e-9b0b-94a891d1526c
0.0598947336030419,0.1533769052076567,0.0028243342795057,-0.7214919641746886,-0.2297938169223487,0.7606064075628114,-0.1059811311661295,-0.1320888808873934,-13.641260927735978,21.397946064135457,34.44070728411561,3.477306847601057,0.4559320650565987,0.5025184740426192,3584.870849609375,11.891,0.17,178.9013690809598,-8.568793332671987,103.7894987405736,1553.0,1887.0,1200.0,1528.0,1471.0,999.0,60.0,292.0,1649236411.267906,1649236412.4073238,ab366f14-ba2b-4558-a506-4878e812f2d4
0.0333950534269331,0.155627355076336,0.0025082598468809,-0.7231481949138762,-0.2311971875528618,0.7601765463813025,-0.1064994932547779,-0.1222779297865484,-13.57875642019351,21.41379095948161,34.47249934271943,3.4802027732431995,0.4638326053133135,0.5059386274259494,3579.2159016927085,11.88811111111111,0.17,178.9189590948023,-8.57371941688338,103.63142387806244,1553.0,1887.0,1200.0,1528.0,1471.0,999.0,60.0,292.0,1649236412.5160415,1649236413.837261,ab366f14-ba2b-4558-a506-4878e812f2d4
0.0468851100905113,0.1591294596434959,0.0043035626433956,-0.7274847378889662,-0.2301098913749592,0.7597846141268505,-0.1043249010454911,-0.1336186809829055,-13.562818417770917,21.343235619396864,34.35303754564187,3.4887148817312643,0.4785601456434664,0.4991716839500804,3576.56103515625,11.883777777777778,0.17,178.937641938912,-8.577093150878415,103.474989019862,1553.0,1887.0,1200.0,1528.0,1471.0,999.0,60.0,292.0,1649236413.9473858,1649236415.2755723,ab366f14-ba2b-4558-a506-4878e812f2d4
0.0131662897705884,0.1696357733249746,0.0524606630409224,0.0110169836221862,-0.1025169552119925,0.0358098620770306,-0.2567865763401512,-0.2698467735109241,-13.983322200005798,22.343668162471257,29.16287773875049,0.2039588753142374,0.4790861888328291,0.4765365934516194,3576.394938151041,11.964,0.19,178.95172578898055,-8.826598253711687,103.27858237681886,1553.0,1335.0,1200.0,1528.0,1471.0,999.0,60.0,292.0,1649236417.4135163,1649236418.5474834,d489cc63-01a8-433d-8c1e-9d4af07083c9
0.0430416450471851,0.1689151236495795,0.0539651773225455,0.012357139220488,-0.1016193037817751,0.0347478519909337,-0.256091212513581,-0.2792784356437189,-13.96279409903286,22.427811739966657,29.09434693859396,0.1991814559845714,0.4767772116632972,0.4720808082309198,3579.0496419270835,11.964777777777776,0.1888888888888888,178.93289116288932,-8.823356854631824,103.49553954125476,1553.0,1335.0,1200.0,1528.0,1471.0,999.0,60.0,292.0,1649236418.6552956,1649236419.7791393,d489cc63-01a8-433d-8c1e-9d4af07083c9
0.0057322190898766,0.1698001320190139,0.0514112959349605,0.0104101207106554,-0.104008826600884,0.0345455643471748,-0.2584933784799176,-0.2764969804293324,-13.98439594694884,22.38215176489085,28.91568022384533,0.2026496793134225,0.4819099851109376,0.4820784724731606,3583.0394422743057,11.966111111111111,0.1888888888888888,178.91171454082263,-8.830157351451694,103.63519110684464,1553.0,1335.0,1200.0,1528.0,1471.0,999.0,60.0,292.0,1649236419.887376,1649236421.008324,d489cc63-01a8-433d-8c1e-9d4af07083c9
0.029387229632409,0.1730240910860772,0.0687321746039299,0.2199674633736221,-0.0692912095853231,-0.1696385256695992,-0.3031610228996065,-0.3342880375296239,-14.106766928649156,23.230496734489986,27.656333811892413,-0.7226653573839626,0.4813409034488383,0.4747963341223181,3587.038058810764,11.957666666666666,0.1855555555555555,178.86725911624475,-8.863329872703154,103.8586680662983,1553.0,1236.0,1200.0,1528.0,1471.0,999.0,60.0,292.0,1649236421.9176989,1649236423.0550072,6edb091e-2572-48a0-8679-42714f41891d
-0.0062406804907818,0.1686749070924579,0.0676828075057155,0.2221294123655155,-0.0704164345991869,-0.1692213073897308,-0.3047413952721255,-0.3225679959836549,-14.103703387412567,23.35885965887856,27.38133636980359,-0.7258482516613705,0.4671139020679049,0.4790637523538719,3589.0406358506943,11.955,0.19,178.86521309513336,-8.888059805821788,103.9749550725574,1553.0,1236.0,1200.0,1528.0,1471.0,999.0,60.0,292.0,1649236423.1639445,1649236424.4935615,6edb091e-2572-48a0-8679-42714f41891d
-0.0013604912140654,0.1703437800215504,0.0667092982635809,0.2213581907910192,-0.0705807933177166,-0.1673501466132256,-0.3054746880636737,-0.3214301277081898,-14.202841988353594,23.2884055816266,27.77340672052985,-0.720406745050189,0.4706320029710233,0.4823664057867242,3587.705268012153,11.951777777777778,0.1811111111111111,178.87029475587585,-8.890495811762017,104.06267519206789,1553.0,1236.0,1200.0,1528.0,1471.0,999.0,60.0,292.0,1649236424.60165,1649236425.92705,6edb091e-2572-48a0-8679-42714f41891d
0.024418539568773,0.1717977223437071,0.0788718422123299,0.3440077048827195,-0.0506048886021007,-0.2878883044199841,-0.3314180812469267,-0.3562994645126175,-14.203944745880362,24.009310377760453,26.83471894596035,-1.2627049435274762,0.4700950279134372,0.4751482285893783,3597.576958550347,11.947,0.19,178.85727945095744,-8.920792159326734,104.1711484619165,1553.0,1133.0,1200.0,1528.0,1471.0,999.0,60.0,292.0,1649236426.8325212,1649236427.971739,21515d18-6d28-4941-8fe3-cf2b734d8262
-0.0064682540970107,0.1726448017866158,0.0790994157920335,0.3413526798946203,-0.0518186144633785,-0.2876101587913002,-0.3320123013039628,-0.3531387197813597,-14.194678206197931,24.10796074032421,26.642161540020165,-1.2554515606794976,0.4752561263861805,0.4771108263232926,3598.415771484375,11.947666666666668,0.18,178.8613517615226,-8.936495048819808,104.21030973097773,1553.0,1133.0,1200.0,1528.0,1471.0,999.0,60.0,292.0,1649236428.0802586,1649236429.4073875,21515d18-6d28-4941-8fe3-cf2b734d8262
0.0064655117443132,0.1718482942514122,0.0798579944178626,0.343881275105469,-0.0491509461925342,-0.2889123857143257,-0.3296607071422758,-0.3614325141768978,-14.169593424923733,23.929164465228723,26.691062286434995,-1.265208797594973,0.4713915222393894,0.4691808578614959,3595.899658203125,11.944666666666668,0.18,178.87832402270018,-8.934417627811,104.26245518965112,1553.0,1133.0,1200.0,1528.0,1471.0,999.0,60.0,292.0,1649236429.5161867,1649236430.6336403,21515d18-6d28-4941-8fe3-cf2b734d8262
0.0209290778313483,0.1692691269994677,0.0845485388754051,0.3984483603987859,-0.0429811731535857,-0.3401038082208271,-0.3446426375922826,-0.3686895843783402,-14.256673959325038,24.593749797878672,26.15080613647088,-1.4988235143812432,0.4607129384539484,0.4747854827070478,3599.927001953125,11.915,0.18,178.87347458838946,-8.958862874850476,104.3097679100318,1553.0,1026.0,1200.0,1528.0,1471.0,999.0,60.0,292.0,1649236432.2489078,1649236433.302274,11c4ed33-2d79-4b00-bcf5-3c5643bb124c
-0.0117024467406911,0.1745412482906798,0.0836761734491669,0.4164013865296477,-0.0433731054658903,-0.3638978953593781,-0.3531892916781105,-0.3774638121660076,-14.27120889598178,24.679957893853125,25.815756754941702,-1.5923223130709068,0.481294764576791,0.4889542905313671,3597.9126790364585,11.932666666666668,0.18,178.8784742868619,-8.949798360048222,104.31173045105332,1553.0,1026.0,1200.0,1528.0,1471.0,999.0,60.0,292.0,1649236433.4103673,1649236434.7324169,11c4ed33-2d79-4b00-bcf5-3c5643bb124c
0.0188682725155898,0.1704954957389565,0.0839922479041398,0.4088661727140647,-0.0433604624547818,-0.3503446216200633,-0.3486251761400737,-0.3752133618587108,-14.21975459737247,24.670711431882392,26.21092105731433,-1.5448253663435,0.4632018473174649,0.4820494146020074,3592.38330078125,11.93411111111111,0.1844444444444444,178.88544715109458,-8.97605569422,104.28850932569507,1553.0,1026.0,1200.0,1528.0,1471.0,999.0,60.0,292.0,1649236434.8438196,1649236435.9788444,11c4ed33-2d79-4b00-bcf5-3c5643bb124c
0.0174016871704533,0.1661210257915743,0.0382373136988928,-0.170397104357209,-0.1310142275046326,0.2135574742482643,-0.2153681784006231,-0.2366589543942723,-13.793865736605492,21.485721658958703,30.30689501201828,1.0064893005502171,0.4758431486247504,0.4758501294480836,3582.706814236112,11.960888888888888,0.1977777777777777,178.8957501120026,-8.816686321133659,104.24028211887554,1553.0,1435.0,1200.0,1528.0,1471.0,999.0,60.0,292.0,1649236437.8920362,1649236439.0373554,15c9d3e5-239a-4169-9c17-03bff218673a
0.01492366362103,0.1672336077445849,0.0384648872881998,-0.171256826883257,-0.131987736814381,0.2123437484953443,-0.2154819652083592,-0.2387956176695251,-13.706592112670467,21.53114210165496,30.17628821233148,1.0060367611977432,0.4806769184048172,0.4770131508170872,3587.8720703125,11.964,0.19,178.9076528549962,-8.79236249967943,104.28144994573292,1553.0,1435.0,1200.0,1528.0,1471.0,999.0,60.0,292.0,1649236439.1451333,1649236440.2612116,15c9d3e5-239a-4169-9c17-03bff218673a
0.0243426816950089,0.1675370391864147,0.0393246097401976,-0.1715096864486104,-0.131241801108975,0.2143666247460518,-0.2143946690612548,-0.2295662433011139,-13.718858972763378,21.542409466161143,30.480263252083606,1.011312605173616,0.4792934948394643,0.4737272103284119,3589.37451171875,11.964111111111112,0.19,178.90921620940622,-8.796758485320238,104.3005964837963,1553.0,1435.0,1200.0,1528.0,1471.0,999.0,60.0,292.0,1649236440.3700812,1649236441.4882767,15c9d3e5-239a-4169-9c17-03bff218673a
0.0427129276332184,0.1792697215816397,0.1148158257932464,-0.1779070334522956,-0.0621479271970176,0.2029247309151824,-0.1356289144960115,-0.1501809823131021,-13.150673816866345,21.359358077588126,30.243727900891493,1.002825783093377,0.5269434056909155,0.1660727914999718,3592.38330078125,11.965777777777776,0.19,178.90297948778414,-8.808575186903052,104.33227793680643,1553.0,1435.0,1200.0,1435.0,1471.0,999.0,60.0,292.0,1649236443.4219906,1649236444.765343,5632c1d8-4929-4384-9995-b84585b21439
0.037478735072096,0.1767284832640186,0.1156123333527921,-0.1766553785996028,-0.0609342013241367,0.2031143755660256,-0.1356542004352623,-0.1578426270187581,-13.246814522599587,21.43600494231384,30.083223067194304,1.0009022951593392,0.5194129162222817,0.1627483431019528,3592.8853352864585,11.967666666666666,0.19,178.9009410557718,-8.798783162090457,104.39202160147654,1553.0,1435.0,1200.0,1435.0,1471.0,999.0,60.0,292.0,1649236444.8742473,1649236446.200431,5632c1d8-4929-4384-9995-b84585b21439
0.0789729860438818,0.1812546689214856,0.1194305123801748,-0.1799551959345644,-0.0593032572049905,0.2047453195494452,-0.1314188027947328,-0.1619768810436961,-13.112078937745984,21.45464968894148,30.543350731312863,1.0124657110798103,0.5320057856461107,0.1505463131625744,3591.882080078125,11.964,0.1833333333333333,178.87983577123646,-8.796606893066162,104.42039876074824,1553.0,1435.0,1200.0,1435.0,1471.0,999.0,60.0,292.0,1649236446.309303,1649236447.4276571,5632c1d8-4929-4384-9995-b84585b21439
0.109278201914155,0.1928609215089462,0.2263142376080532,-0.1843296664368401,0.0386924608803248,0.189611676499063,-0.0215639691691472,-0.0453327669425127,-12.400922918704673,21.40248493580417,30.267444194482387,0.993616414382175,0.5802618190943707,-0.2835359583706775,3590.210015190972,11.959555555555555,0.19,178.8675475020097,-8.799979773287546,104.44129382723912,1553.0,1435.0,1200.0,1330.0,1471.0,999.0,60.0,292.0,1649236449.3614712,1649236450.4994974,b9e0af9a-0661-4d4f-a6c3-1fe189a67822
0.0799212093135026,0.1906104716654759,0.2250120110186143,-0.1847215987484943,0.0378580243747617,0.1921402718393752,-0.021943258504168,-0.0460154877659134,-12.402319604428122,21.39713897243972,30.255737981574537,1.000079758685292,0.5719005115577569,-0.2803753546981658,3589.37451171875,11.959333333333332,0.19,178.8701505629934,-8.802846365736706,104.45467340891324,1553.0,1435.0,1200.0,1330.0,1471.0,999.0,60.0,292.0,1649236450.6084173,1649236451.7258022,b9e0af9a-0661-4d4f-a6c3-1fe189a67822
0.0708561947644127,0.1899656798568516,0.2243672192158708,-0.1836848745230733,0.0373649482718271,0.1903702551090104,-0.0228282669124468,-0.0407307231671666,-12.3855469472696,21.39742628515504,30.04415995024343,0.9937082133724572,0.5710701338231914,-0.2779205119500408,3584.0381944444443,11.960555555555556,0.1855555555555555,178.86151265042304,-8.806756649036538,104.45565088487449,1553.0,1435.0,1200.0,1330.0,1471.0,999.0,60.0,292.0,1649236451.833892,1649236453.1628067,b9e0af9a-0661-4d4f-a6c3-1fe189a67822
0.1460186927147542,0.2081336372853405,0.3407963889536753,-0.1803471282550454,0.1409109300675022,0.1653498042094454,0.0895298718560232,0.0634726960916264,-11.6792805119579,21.73983004359812,30.3276400540171,0.9384227177166716,0.6386756104470439,-0.734652911747133,3582.706597222222,11.95488888888889,0.1844444444444444,178.86500667163844,-8.813754841887384,104.43645198202746,1553.0,1435.0,1200.0,1210.0,1471.0,999.0,60.0,292.0,1649236454.7594163,1649236456.0294857,cb57940b-5737-4f69-a8d3-a3ec14b990a8
0.1394443447589029,0.2070336983217324,0.3313900145952899,-0.177553030062002,0.1332872150227357,0.1630614254139916,0.080325784557851,0.0564558438096131,-11.691178929117042,21.63450215081961,30.144668396427555,0.9257758619773409,0.6353139442721539,-0.6986743049387678,3579.548258463541,11.95088888888889,0.1877777777777777,178.86095105709126,-8.815645855650097,104.41603123422895,1553.0,1435.0,1200.0,1210.0,1471.0,999.0,60.0,292.0,1649236456.1386936,1649236457.264016,cb57940b-5737-4f69-a8d3-a3ec14b990a8
0.1160548375216208,0.2075773463155621,0.335536910818212,-0.1783874666251686,0.1362583145823277,0.1648061562042132,0.0844600380583298,0.0672655892199824,-11.64658394908431,21.707631442093625,30.3898058798791,0.9323315844346453,0.6352315434811384,-0.7138546394872145,3576.7265896267363,11.957333333333334,0.1855555555555555,178.8515284316763,-8.816358472053501,104.40643861299463,1553.0,1435.0,1200.0,1210.0,1471.0,999.0,60.0,292.0,1649236457.376467,1649236458.492964,cb57940b-5737-4f69-a8d3-a3ec14b990a8
0.1667026027174316,0.2187663805987802,0.420497710840771,-0.1595494290863207,0.2117621715363536,0.131125265991042,0.1600271109458196,0.1347411573529938,-11.1452721728064,22.23540257378206,30.235425265153555,0.8221090072729209,0.6780929816008558,-1.0386606752931618,3578.883544921875,11.942444444444444,0.1844444444444444,178.86251592932115,-8.812278287798062,104.3603211757187,1553.0,1435.0,1200.0,1071.0,1471.0,999.0,60.0,292.0,1649236459.3993616,1649236460.536157,10cde2de-5558-4e20-bd0d-6653ad7914d1
0.1604822581410329,0.2175526548509144,0.4203207091758916,-0.1602827218022292,0.2130011832416557,0.1300126840347067,0.161341980532588,0.1306448328522324,-11.138809425887054,22.084169501682336,29.81862960483647,0.8201884735076617,0.6772655780481593,-1.0426536310392442,3573.7444932725693,11.947444444444445,0.18,178.8574494467768,-8.813848187806043,104.35954556979294,1553.0,1435.0,1200.0,1071.0,1471.0,999.0,60.0,292.0,1649236460.644883,1649236461.9672558,10cde2de-5558-4e20-bd0d-6653ad7914d1
0.1665003150903178,0.2184629491631833,0.4254158285516182,-0.1630009621467287,0.217009006822832,0.1311126230083596,0.1672968225825586,0.1412143614955144,-11.05273100679927,22.083202857788628,29.7880728841584,0.8290776211874957,0.680998977301535,-1.063432258673848,3564.661865234375,11.945444444444446,0.18,178.85101540857863,-8.81351369826419,104.3311327417556,1553.0,1435.0,1200.0,1071.0,1471.0,999.0,60.0,292.0,1649236462.0752573,1649236463.1969526,10cde2de-5558-4e20-bd0d-6653ad7914d1
-0.0014742780485535,0.1495334402684275,-0.0669396157347649,-0.1524314323647459,-0.2259503514307939,0.2145941983278336,-0.3280803347276089,-0.3495733997117306,-14.565724549892762,21.697000172431903,29.658653625574736,0.963964417983758,0.4159619596339838,0.9056120350891266,3547.1234266493057,11.96577777777778,0.1844444444444444,178.93882735618794,-8.800147776968382,104.30701003142693,1553.0,1435.0,1200.0,1613.0,1471.0,999.0,60.0,292.0,1649236465.347052,1649236466.473472,2546d0b9-d6af-481e-8639-fb183410e11c
-0.0169239964293982,0.1473082763479431,-0.0624892875850379,-0.1504085558649943,-0.2220815999986423,0.2147585570232538,-0.3240345813860859,-0.3434036256484561,-14.533164666011952,21.804698005133584,29.66811487766029,0.9607240767118848,0.4073368305153766,0.888256482604189,3543.53857421875,11.966111111111111,0.19,178.9260518668004,-8.798994518499773,104.29413133029192,1553.0,1435.0,1200.0,1613.0,1471.0,999.0,60.0,292.0,1649236466.5822637,1649236467.7061465,2546d0b9-d6af-481e-8639-fb183410e11c
-0.00710040299661,0.1458922629425234,-0.0698854295419361,-0.150029266517644,-0.2282134445985291,0.2165665026751053,-0.3302802131174145,-0.3608256511411846,-14.532796099067689,21.72093809743179,29.725991770799187,0.9630170665509608,0.4009933541348566,0.9155307335618594,3547.7769368489585,11.966,0.1866666666666666,178.90820837704868,-8.796847088051972,104.3195532943827,1553.0,1435.0,1200.0,1613.0,1471.0,999.0,60.0,292.0,1649236467.8150184,1649236468.932686,2546d0b9-d6af-481e-8639-fb183410e11c
-0.0291497556609065,0.1364353162792486,-0.1505223426861767,-0.1347691919731057,-0.3022254424592321,0.2180204449833013,-0.4186672828724079,-0.4342181481208977,-15.173360210635511,22.009088071337064,29.96208848195707,0.9294714722095024,0.3609793852134151,1.250855373413546,3568.453857421875,11.962555555555555,0.1855555555555555,178.9162088052965,-8.78746155435873,104.32011944117392,1553.0,1435.0,1200.0,1694.0,1471.0,999.0,60.0,292.0,1649236469.839269,1649236471.1862352,a9f3e1f0-48ba-4905-b598-e725e60aa2e4
-0.0492141610570636,0.1353859491996187,-0.1508763460507996,-0.1351358383333278,-0.3020231547731754,0.217666441637973,-0.4186925688102264,-0.4394649847955207,-15.19469873354987,21.9746777176976,29.71681780245308,0.929207467555589,0.3593905938307372,1.250621476736551,3573.91015625,11.964,0.18,178.9230981894393,-8.79148738169202,104.30085906662435,1553.0,1435.0,1200.0,1694.0,1471.0,999.0,60.0,292.0,1649236471.2952597,1649236472.4164102,a9f3e1f0-48ba-4905-b598-e725e60aa2e4
-0.0491635891447029,0.1339952217489406,-0.1530762242507586,-0.13392211244569,-0.3037299569480846,0.2175147259185943,-0.4213981664934124,-0.445078467910266,-15.24975060383928,22.00364379825333,29.64152250318125,0.9261714400235458,0.3549430993408708,1.259482852957262,3574.406494140625,11.96211111111111,0.1822222222222222,178.91208488885763,-8.786203850914061,104.28901172405403,1553.0,1435.0,1200.0,1694.0,1471.0,999.0,60.0,292.0,1649236472.524951,1649236473.640623,a9f3e1f0-48ba-4905-b598-e725e60aa2e4
-0.0395549261697905,0.12572671487694,-0.2355337291971395,-0.1074856455164076,-0.3793223301028878,0.2075647033365188,-0.5151964365287727,-0.5436052141753218,-15.833995187040683,22.36416672914011,29.85603428638126,0.8422024357157615,0.3176889515613443,1.6073671200893471,3575.5661349826387,11.951,0.18,178.91978175314233,-8.78038158896532,104.25931861500226,1553.0,1435.0,1200.0,1774.0,1471.0,999.0,60.0,292.0,1649236474.2427285,1649236475.4919784,e0db0a22-248e-417f-93a7-11cf5946a734
-0.0606307698995728,0.1242348436015608,-0.2299076037473776,-0.1073971446732429,-0.3741639944787331,0.2079566356093672,-0.5087485165041173,-0.5371572940763939,-15.747697484090128,22.380679698564,29.761417047545844,0.8433014911311818,0.3126673735563159,1.5832321709203598,3572.91650390625,11.954,0.18,178.9200913883847,-8.778183596144913,104.2093739950614,1553.0,1435.0,1200.0,1774.0,1471.0,999.0,60.0,292.0,1649236475.604407,1649236476.7143638,e0db0a22-248e-417f-93a7-11cf5946a734
-0.0775723599909964,0.1254485693847891,-0.230969613944754,-0.1087373003371457,-0.3757317239388652,0.2065279792502204,-0.5105691056825814,-0.5344896249648639,-15.763770640580102,22.40313411781174,29.54079962976351,0.8431668859034569,0.319386728516174,1.589210735857412,3571.427490234375,11.948333333333332,0.18,178.89647411205462,-8.778475871323145,104.18580680678524,1553.0,1435.0,1200.0,1774.0,1471.0,999.0,60.0,292.0,1649236476.8226614,1649236477.9491005,e0db0a22-248e-417f-93a7-11cf5946a734
-0.0831099842726066,0.1138549595584771,-0.295271804055608,-0.0770666408773867,-0.4336492140627696,0.1932022818816327,-0.5868442090041553,-0.605214460735289,-16.300031525359675,22.87564731627845,29.63329572485115,0.7414563479076629,0.2709116364546884,1.8627832820376864,3572.91650390625,11.940875,0.17,178.91247838364478,-8.78697828290105,104.10266120647138,1553.0,1435.0,1200.0,1856.0,1471.0,999.0,60.0,292.0,1649236479.7454505,1649236480.919041,8247b8c3-8ed9-4fdc-977b-b4627b9cb850
-0.0587722521434156,0.1171294905803585,-0.286750436252585,-0.0789504445647618,-0.4257094227016779,0.1909265460769835,-0.5783481257224362,-0.6025847205379499,-16.292453083728688,22.814998811186232,29.585529679237588,0.7406103268461887,0.2843339468708399,1.8285993470317616,3568.453857421875,11.942,0.17,178.90026259031424,-8.785624518063212,104.04119121148857,1553.0,1435.0,1200.0,1856.0,1471.0,999.0,60.0,292.0,1649236481.0484962,1649236482.3502038,8247b8c3-8ed9-4fdc-977b-b4627b9cb850
-0.1008227961734981,0.1141583910043993,-0.292578849559956,-0.0784952973648252,-0.4305263980736553,0.1943401497771802,-0.5823685937229137,-0.6054293913239133,-16.240201788152465,22.758842674980777,29.6789581915372,0.7466331627150566,0.2715661596169862,1.8486651485221648,3570.435953776041,11.940666666666669,0.18,178.8956818101109,-8.801811212622496,104.0053919133188,1553.0,1435.0,1200.0,1856.0,1471.0,999.0,60.0,292.0,1649236482.4592972,1649236483.5745337,8247b8c3-8ed9-4fdc-977b-b4627b9cb850
0.0277309996141927,0.1529596869742844,-0.0663327529133228,-0.1517107827467705,-0.1951394130234938,0.2204352535013825,-0.2836908353424859,-0.3109870270269689,-13.607965503619958,17.705355140053847,31.27577538107584,0.9497734504875488,0.4075832243068444,0.8046277450847342,7221.0830078125,11.640333333333334,7.954444444444444,-179.20733878847912,-8.962112811666803,90.3010438510564,1553.0,1435.0,1350.0,1528.0,1471.0,999.0,60.0,292.0,1649236486.760046,1649236488.0787838,a8de7d25-1d84-48cb-98ad-d0a05f6c7a5d
-0.0034212965447102,0.153199903530786,-0.0603399815161046,-0.1540370907305896,-0.1900063638377725,0.2195628881176754,-0.2781911395430229,-0.3021748705820216,-13.630009740665376,17.755546689733524,30.924669475037074,0.9536247708870962,0.4124192281935646,0.7811145938778794,7233.2705078125,11.63888888888889,7.993333333333333,-178.69738927594688,-8.887707861352052,84.15133276767367,1553.0,1435.0,1350.0,1528.0,1471.0,999.0,60.0,292.0,1649236488.1880052,1649236489.3114288,a8de7d25-1d84-48cb-98ad-d0a05f6c7a5d
0.0252529760708359,0.1503173048267667,-0.0688234194981725,-0.1506740585444005,-0.1959359206417795,0.2208398287496943,-0.2857389979136518,-0.3090779371103069,-13.702512795655908,17.646698981580258,31.08479482974424,0.9477530958566384,0.3997479903076002,0.8114017718030019,7236.664876302083,11.636666666666668,8.014444444444443,-178.49491666601085,-8.78599467637073,79.4866786002206,1553.0,1435.0,1350.0,1528.0,1471.0,999.0,60.0,292.0,1649236489.4200485,1649236490.537564,a8de7d25-1d84-48cb-98ad-d0a05f6c7a5d
0.111920584072673,0.3431606255205434,-0.0456994134295168,-0.2509202343621422,-0.2187059248793068,0.1311379089606768,-0.3013025050751666,-0.3220875628287379,-13.469610379967476,17.12597582833238,32.10490862010827,0.9702910506939906,1.1261375792998274,0.8573243562120325,7245.5,11.624666666666668,8.003333333333334,-178.71756413693532,-8.663907985732644,70.50784017309626,1647.0,1435.0,1350.0,1528.0,1543.0,999.0,60.0,292.0,1649236492.472551,1649236493.5966666,fff748c3-f5cd-4c89-8e04-95dc296475c0
0.0980891672940636,0.3468018026790573,-0.0431328889693692,-0.246697479541384,-0.2190219993371292,0.1250566370863768,-0.3028196625311105,-0.3199761852400878,-13.40013333108005,17.382892781783063,32.30082483758553,0.9489972529762182,1.137213215102685,0.857113589005086,7245.5,11.621666666666666,8.03,-178.9129485283327,-8.631236914202752,67.61946928631374,1647.0,1435.0,1350.0,1528.0,1543.0,999.0,60.0,292.0,1649236493.7066717,1649236495.044874,fff748c3-f5cd-4c89-8e04-95dc296475c0
0.1390271265273871,0.3445134239793416,-0.0473935724094046,-0.2519822445822083,-0.2220816001326809,0.1273450159044837,-0.3048931110973376,-0.3332639564822353,-13.426906416195724,17.244609739960204,31.59343370865393,0.964805593179992,1.1354677045903148,0.8687578920649426,7251.6298828125,11.623,8.04,-179.1373384564054,-8.623456190373245,65.19225683518245,1647.0,1435.0,1350.0,1528.0,1543.0,999.0,60.0,292.0,1649236495.1536732,1649236496.2737515,fff748c3-f5cd-4c89-8e04-95dc296475c0
0.2312702844137035,0.5171406197999858,-0.0227650521737382,-0.3548202360714964,-0.2425252965319681,0.0475425449051347,-0.3161959344430004,-0.346008079598674,-13.219357677244773,17.015207205311107,30.88551677045239,1.017153326253348,1.8019489006146905,0.898351429477025,7245.5,11.611,8.03111111111111,-179.8584182231016,-8.657942574402547,60.66998251443773,1745.0,1435.0,1350.0,1528.0,1614.0,999.0,60.0,292.0,1649236498.4101398,1649236499.5495262,d49b47e9-c1cb-4de8-9e55-4ce7aa6eb50a
0.2038350252193295,0.5135879435453926,-0.0259510824926657,-0.3540363713962352,-0.2442953135364886,0.0505262875213535,-0.3181303102145675,-0.3410646745505851,-13.256912123845906,16.974618182778062,30.8984059982798,1.0216454257403982,1.7884765926751376,0.90744487927869,7245.5,11.608444444444444,8.03,179.89795287583743,-8.683214748650286,59.28433444841817,1745.0,1435.0,1350.0,1528.0,1614.0,999.0,60.0,292.0,1649236499.658386,1649236500.7756407,d49b47e9-c1cb-4de8-9e55-4ce7aa6eb50a
0.223570711684182,0.5159395370803627,-0.0273418099584991,-0.358018909934669,-0.2463055470964792,0.0499952824764285,-0.3211393392249499,-0.3420508271200517,-13.403116769012447,17.026401693722597,30.612529884868067,1.0295906819261398,1.8012680607509106,0.9160857442510352,7245.5,11.60675,8.024999999999999,179.7211249700501,-8.71633737157531,58.36854268450287,1745.0,1435.0,1350.0,1528.0,1614.0,999.0,60.0,292.0,1649236500.88457,1649236502.0023806,d49b47e9-c1cb-4de8-9e55-4ce7aa6eb50a
0.3120715467960023,0.656466214767381,-0.0062533235813156,-0.4222831754073971,-0.2637907867087434,-0.0351678130171123,-0.3393958011977909,-0.367804575962448,-13.276598310032316,17.333429425744665,29.67447660637333,0.9861818180761892,2.345001428735338,0.9522283498160344,7251.6298828125,11.57611111111111,8.014444444444443,179.1528991451545,-8.745300504159532,56.34123856818572,1849.0,1435.0,1350.0,1528.0,1686.0,999.0,60.0,292.0,1649236503.744231,1649236504.8708584,465c6b95-bf09-48f4-ab93-e66e6ee398c1
0.3151185040936536,0.661687763825066,0.0009658165286475,-0.4191477163739948,-0.25868302326754,-0.039175636864594,-0.3356155503984543,-0.3651621933250522,-13.30540851898808,17.504673439602506,30.282563592473856,0.9716799678647162,2.35947438139365,0.9314751607183828,7251.6298828125,11.586,8.0375,178.9944338234958,-8.762149798216111,55.7020240259252,1849.0,1435.0,1350.0,1528.0,1686.0,999.0,60.0,292.0,1649236504.980901,1649236506.1090338,465c6b95-bf09-48f4-ab93-e66e6ee398c1
0.309037232480478,0.6638244267565218,-0.0042936620757872,-0.4260002113095835,-0.2643217918067943,-0.0385055590693496,-0.340508383404454,-0.3603705039309369,-13.346282268265252,17.441266433045556,29.740632591120185,0.9878540904769094,2.373089772166033,0.9527225139110592,7251.6298828125,11.577444444444446,8.038888888888888,178.8431181920783,-8.749724379739455,55.164629200624304,1849.0,1435.0,1350.0,1528.0,1686.0,999.0,60.0,292.0,1649236506.2176151,1649236507.3301833,465c6b95-bf09-48f4-ab93-e66e6ee398c1
0.3626181659444728,0.7944895831685559,0.0185142689936806,-0.5044372604430434,-0.2812380975798481,-0.1051466947017243,-0.3489286077121205,-0.3739743499211976,-12.940550520444646,17.716834084354904,28.25043795227624,1.0179664696370574,2.884607294646093,0.96985362431134,7251.6298828125,11.513555555555556,8.026666666666664,178.45068587876565,-8.754855843944643,54.32868462483617,1962.0,1435.0,1350.0,1528.0,1760.0,999.0,60.0,292.0,1649236508.446771,1649236509.592393,40189a53-59be-40bf-8b8b-1fd97a82e815
0.3559047455630345,0.7931367847426138,0.0226358795916653,-0.4970158308738632,-0.2767371971130188,-0.1010630127787774,-0.3470068748694642,-0.3656299836064379,-13.13091273276451,17.92139639758358,29.63502178309952,1.012088305492853,2.867960303985534,0.9570060235386892,7251.6298828125,11.518666666666668,8.003333333333334,178.32511512760473,-8.762619302573746,53.88180963255928,1962.0,1435.0,1350.0,1528.0,1760.0,999.0,60.0,292.0,1649236509.700302,1649236511.0168097,40189a53-59be-40bf-8b8b-1fd97a82e815
0.355019737231807,0.7960067402881451,0.0192475617807308,-0.502300596926164,-0.2796450821364364,-0.1056018419496284,-0.3487642488760476,-0.3716606845586808,-13.034563835841352,17.675997192115098,28.680949210994733,1.011911006058425,2.886930074252765,0.9672108321912164,7245.5,11.518,8.008888888888889,178.21421714060074,-8.788358206414769,53.52804947087231,1962.0,1435.0,1350.0,1528.0,1760.0,999.0,60.0,292.0,1649236511.124665,1649236512.253993,40189a53-59be-40bf-8b8b-1fd97a82e815
-0.142645767306823,-0.0867375074429539,-0.0818724897042951,-0.0471336327639613,-0.1561363307809691,0.3560448297566141,-0.2462443550519335,-0.2627985658184512,-14.056219963127203,18.42506244121173,30.93426728853049,1.0223230196698028,-0.4990761931662391,0.6901937333340484,7247.032470703125,11.62975,8.055,178.55366122578732,-8.747285599034871,52.99075823677384,1459.0,1435.0,1350.0,1528.0,1394.0,999.0,60.0,292.0,1649236513.366606,1649236514.5034275,27631345-babe-4b77-9829-29cb058d3393
-0.1073718587111647,-0.0864477303798653,-0.0859293684098951,-0.0515910409567956,-0.1594103564041988,0.3593942070186505,-0.2490743593951135,-0.2793542936596729,-14.137082527886374,18.328990743401,30.842402947148983,1.039010114175872,-0.496312847737373,0.7040616640246209,7251.6298828125,11.625333333333334,8.043333333333331,178.49220583982026,-8.758724292335808,52.76553967394557,1459.0,1435.0,1350.0,1528.0,1394.0,999.0,60.0,292.0,1649236514.6124408,1649236515.7353046,27631345-babe-4b77-9829-29cb058d3393
-0.122088285042697,-0.0868775916310477,-0.0836409894521726,-0.0494164487890676,-0.1571978352372752,0.3570552564170732,-0.2472411275192453,-0.2629689930146889,-14.103569115378,18.348594110981363,30.75020117693921,1.029094904109439,-0.4974674418717404,0.6951710886677674,7251.6298828125,11.626333333333331,8.043333333333333,178.43869662004255,-8.756929185812696,52.60333254698656,1459.0,1435.0,1350.0,1528.0,1394.0,999.0,60.0,292.0,1649236515.8436158,1649236516.957408,27631345-babe-4b77-9829-29cb058d3393
-0.2494000424850548,-0.2949076861985918,-0.1077359765916784,0.0390166267245046,-0.1354534300333255,0.4719900238379239,-0.2274548659457567,-0.2530685294176106,-14.47713769417302,19.121937892009853,29.66564934991609,1.091451211834701,-1.2778527784034606,0.6437225436081648,7251.6298828125,11.604222222222225,8.04,178.4562911873445,-8.761867033127661,52.37837002138845,1364.0,1435.0,1350.0,1528.0,1312.0,999.0,60.0,292.0,1649236517.8674138,1649236518.824834,f0f27c52-4f60-40f4-8edd-327c0aa74670
-0.2605415410254812,-0.2928822809642369,-0.1074477166999454,0.040513049513458,-0.1365139230396675,0.4725109144512976,-0.2281755157255059,-0.2504524440375227,-14.424048165923637,19.22501808718195,30.214185789043167,1.0900580076899813,-1.2756579159510983,0.646826773251851,7251.6298828125,11.594888888888889,8.038888888888888,178.43569133680774,-8.742049239250868,52.27180465104799,1364.0,1435.0,1350.0,1528.0,1312.0,999.0,60.0,292.0,1649236518.933482,1649236519.8816366,f0f27c52-4f60-40f4-8edd-327c0aa74670
-0.2575198691045259,-0.2905686158174124,-0.1030100314488324,0.0479597630875729,-0.1326325287683087,0.4637240460976608,-0.2273916510449735,-0.2463181900731097,-14.444181298667264,19.33923832011951,30.28093977954768,1.054493433177945,-1.2680629936714318,0.6347535043024617,7251.6298828125,11.601777777777777,8.05888888888889,178.4149275617309,-8.721545959999876,52.191052842310754,1364.0,1435.0,1350.0,1528.0,1312.0,999.0,60.0,292.0,1649236519.99064,1649236521.2607744,f0f27c52-4f60-40f4-8edd-327c0aa74670
-0.3580821246094408,-0.4866865156526362,-0.1275879805564677,0.1181029997230871,-0.1178276015263414,0.5742362992818677,-0.2118787163909745,-0.2247492685057438,-14.809655524930289,20.31238671504976,27.812788984972425,1.1492531578417606,-1.98934020251634,0.5987526389025379,7244.140082465277,11.560666666666666,8.04,178.4329167621849,-8.692576186953959,52.0879651766227,1262.0,1435.0,1350.0,1528.0,1222.0,999.0,60.0,292.0,1649236523.395499,1649236524.5417783,09171238-e611-43f8-bf75-309dee27f979
-0.3663127041950232,-0.481540822645182,-0.1221515000322845,0.1190006510815351,-0.1138703494433509,0.5707468379217857,-0.2076559615990973,-0.2263928557403047,-14.73761589895809,20.32691661505762,28.187388264605644,1.1398499878080268,-1.9736362977126336,0.5811431490865645,7234.628255208333,11.559111111111111,8.055555555555555,178.44148030158428,-8.678277185926538,52.034382722038906,1262.0,1435.0,1350.0,1528.0,1222.0,999.0,60.0,292.0,1649236524.670328,1649236525.7658184,09171238-e611-43f8-bf75-309dee27f979
-0.3310767207942572,-0.4855865763533815,-0.1230238655274334,0.1185202179456721,-0.1142369958051992,0.5721122793242768,-0.2086926858346709,-0.2330177764792272,-14.823145684058918,20.397256766161146,27.747597997952862,1.144311753159399,-1.984302083880877,0.5831050228645993,7233.2705078125,11.55811111111111,8.044444444444444,178.44566189517616,-8.672695498418559,51.97904566774832,1262.0,1435.0,1350.0,1528.0,1222.0,999.0,60.0,292.0,1649236525.874904,1649236526.9315822,09171238-e611-43f8-bf75-309dee27f979
-0.4224728198055777,-0.6069086201298624,-0.1255271751642055,0.1819753184923168,-0.0957150332131717,0.6364270979206358,-0.1917005228674148,-0.218566852092879,-14.84185293978624,21.51308269963045,28.34018866528847,1.1530539201965888,-2.4524056758771446,0.5233376665412921,7230.560221354167,11.511777777777777,8.04,178.5434747575502,-8.678617082701484,51.97961636799897,1153.0,1435.0,1350.0,1528.0,1121.0,999.0,60.0,292.0,1649236527.9009426,1649236529.0466092,87f46a55-f36a-4826-bee7-dcf1a521befd
-0.4409568564470187,-0.6228514196559503,-0.1323038113603913,0.1836062625014795,-0.0992297810411041,0.6433933776572665,-0.195202627869332,-0.2183772073159157,-14.89029047368263,21.544562055778123,27.284269452702173,1.164707618182293,-2.5031293257892315,0.5388975782376679,7233.2705078125,11.510222222222222,8.03,178.58302762412384,-8.690296801045942,51.9601514672293,1153.0,1435.0,1350.0,1528.0,1121.0,999.0,60.0,292.0,1649236529.1594985,1649236530.2664108,87f46a55-f36a-4826-bee7-dcf1a521befd
-0.4304505401281879,-0.6198171041271647,-0.1289028503164203,0.1918747692340287,-0.095740319195222,0.6398912733263622,-0.1945199070601391,-0.2210322329657363,-14.957696690025369,21.625231267502546,28.30594964116101,1.139019239011947,-2.501127898078055,0.5303372662502469,7237.34375,11.513666666666666,8.036666666666667,178.5875127816788,-8.688724339717025,51.97479121880531,1153.0,1435.0,1350.0,1528.0,1121.0,999.0,60.0,292.0,1649236530.3748362,1649236531.6990366,87f46a55-f36a-4826-bee7-dcf1a521befd
-0.0087566329984664,0.1526056836227547,-0.0606560559438468,-0.1433411312141704,-0.1870858358185157,0.2087657861064331,-0.2802898740307727,-0.2958786671994236,-13.724147153380631,17.60531932776803,30.70030810551437,0.9041400122662202,0.4115058461353926,0.7802569882130671,7240.740288628473,11.636,8.06777777777778,178.380989110655,-8.68679955446342,52.04913896628577,1553.0,1435.0,1350.0,1528.0,1471.0,999.0,60.0,292.0,1649236532.8225355,1649236533.7695084,ebfc8369-00dd-48cd-abd1-239839e452df
-0.0100715026584479,0.1494955113331484,-0.0618824247653252,-0.143644562675603,-0.1868709051739754,0.2111426657152309,-0.2795186523191307,-0.3036793850638903,-13.717255208026112,17.503786387804936,30.5647785164475,0.90941337107275,0.400951116645507,0.7800142116993535,7249.586588541667,11.636,8.05,178.39496064205727,-8.688102792502555,52.17869171773284,1553.0,1435.0,1350.0,1528.0,1471.0,999.0,60.0,292.0,1649236533.8790138,1649236535.028084,ebfc8369-00dd-48cd-abd1-239839e452df
-0.0097680712019469,0.1496219410985161,-0.0589745399358612,-0.1423802649657651,-0.1856318933570384,0.2124954642010942,-0.278810645524734,-0.2930719258355291,-13.771183561425186,17.733139678413394,30.951418525598,0.9113010344386786,0.3984127880810754,0.7737946757794152,7251.6298828125,11.627666666666666,8.054444444444444,178.4106351672925,-8.688463369572487,52.26163943228825,1553.0,1435.0,1350.0,1528.0,1471.0,999.0,60.0,292.0,1649236535.1388178,1649236536.2079833,ebfc8369-00dd-48cd-abd1-239839e452df
0.0355443595369449,0.1472956333675586,-0.0831731992665333,-0.4393638411529492,-0.2382140407959532,0.5025253395379861,-0.219325430747346,-0.243941310095957,-13.631226907594227,16.924296713902365,33.12439327548499,2.2268090621740804,0.4044553719713848,0.7943137920149478,7251.6298828125,11.625,8.0375,178.4434322178671,-8.59416129557965,52.4783173178781,1553.0,1537.0,1350.0,1528.0,1471.0,999.0,60.0,292.0,1649236538.3480608,1649236539.4926026,81d06458-2d17-4026-9c09-3f1a42e20096
0.0369224440705588,0.1432878097157978,-0.0881292465641806,-0.4317021952729462,-0.2419690054533607,0.5006162501630546,-0.2275939387175333,-0.256217642443488,-13.843467124800927,17.120859388816093,33.24547614302532,2.206205012094068,0.38859846022883,0.8174803311949315,7251.6298828125,11.627666666666666,8.033333333333333,178.45771490233153,-8.56532615789456,52.582193490960336,1553.0,1537.0,1350.0,1528.0,1471.0,999.0,60.0,292.0,1649236539.6227524,1649236540.9174278,81d06458-2d17-4026-9c09-3f1a42e20096
0.0276677847053991,0.1465370547567395,-0.0811756087854021,-0.4297551763605044,-0.2352935127270245,0.4981382268633825,-0.2208173022109503,-0.2455848974283875,-13.797137576896974,17.06654449898779,33.65368995275264,2.1963191427508737,0.3970393895183964,0.7903016800026782,7251.6298828125,11.624666666666666,8.05777777777778,178.48424487488765,-8.573025204045242,52.684249798083705,1553.0,1537.0,1350.0,1528.0,1471.0,999.0,60.0,292.0,1649236541.0264862,1649236542.0742197,81d06458-2d17-4026-9c09-3f1a42e20096
0.0492872757750671,0.1401649944423167,-0.1166012326886485,-0.7526316301269282,-0.3028702344774961,0.8116334586134768,-0.1684880147012584,-0.1973140054455954,-13.727207788638289,16.478413370637398,35.136774300995235,3.6237238228068622,0.3969980364680073,0.8549068998178198,7251.6298828125,11.607555555555557,8.03,178.50684976540074,-8.466735412865056,52.79994068061025,1553.0,1645.0,1350.0,1528.0,1471.0,999.0,60.0,292.0,1649236542.8569882,1649236543.993152,372876d9-e2a9-4f0b-a88f-1fa8ffa6d96a
0.0309423158126436,0.1444509635858487,-0.1089648740699423,-0.7488893072687467,-0.2973073237550723,0.8066774120217466,-0.1638606847120202,-0.1903982961929524,-13.694579102224251,16.633899860661362,35.56402676752256,3.6056406702480137,0.4090813422723486,0.8314455061425,7251.6298828125,11.610333333333337,8.046666666666665,178.52356855066915,-8.461118815501319,52.90590651212355,1553.0,1645.0,1350.0,1528.0,1471.0,999.0,60.0,292.0,1649236544.1015904,1649236545.2262032,372876d9-e2a9-4f0b-a88f-1fa8ffa6d96a
0.0512975091327854,0.1451968992148914,-0.1036168944443147,-0.7583715442888799,-0.2929454960273575,0.8088520038938729,-0.1549979570079661,-0.1836216598491226,-13.520234624868875,16.4708443970801,34.79200348510938,3.631066947003471,0.4189912443403217,0.8047031089816544,7251.6298828125,11.613777777777775,8.024444444444443,178.5580625237975,-8.467931170288502,52.95794572340987,1553.0,1645.0,1350.0,1528.0,1471.0,999.0,60.0,292.0,1649236545.334772,1649236546.6597435,372876d9-e2a9-4f0b-a88f-1fa8ffa6d96a
0.0287803666949976,0.1412017185399497,-0.1309383697688664,-1.0278314626598706,-0.3514572035488356,1.0809162091246935,-0.1138703494605847,-0.1396999535683616,-13.66530839702489,16.573678107891524,37.688948093082416,4.8499771338626525,0.4108041288889671,0.8641795577465208,7251.6298828125,11.595,8.034444444444444,178.63247667589494,-8.363495111421805,53.1165408186628,1553.0,1761.0,1350.0,1528.0,1471.0,999.0,60.0,292.0,1649236548.8039782,1649236550.0461893,a9a4c3bc-cc56-4a0f-b14e-5949c683c0d0
0.0244185395661982,0.144842895864093,-0.1261087521370388,-1.0301198430237073,-0.3471838764929856,1.0768578136646545,-0.1081177944691087,-0.1256915339233513,-13.531904079329776,16.43030637081808,37.36158780942449,4.845324426183249,0.4270034297577518,0.8436963593066984,7251.6298828125,11.590777777777776,8.042222222222222,178.67298273331272,-8.375905375416242,53.10582766694963,1553.0,1761.0,1350.0,1528.0,1471.0,999.0,60.0,292.0,1649236550.173833,1649236551.3661804,a9a4c3bc-cc56-4a0f-b14e-5949c683c0d0
0.037504020999536,0.1437808858155275,-0.1265259704353914,-1.0295003366875854,-0.3480435991220338,1.0794369808515916,-0.1095843799221771,-0.1399654560750051,-13.612970803307771,16.563498141013135,37.652807176384826,4.850590489491966,0.4209124817606451,0.8477004637907208,7251.6298828125,11.588666666666668,8.02,178.68819432350423,-8.38930222229079,53.11715401786828,1553.0,1761.0,1350.0,1528.0,1471.0,999.0,60.0,292.0,1649236551.474682,1649236552.595022,a9a4c3bc-cc56-4a0f-b14e-5949c683c0d0
