raw_voltage_G-,raw_voltage_G0,raw_voltage_G1,raw_voltage_G2,raw_voltage_G3,raw_voltage_G4,raw_voltage_G5,raw_voltage_G6,load_x,load_y,load_z,load_l,load_m,load_n,rpm,voltage,current,roll,pitch,yaw,aileron1_pwm,elevator_pwm,throttle_pwm,rudder_pwm,aileron2_pwm,pbaro,pdiff,Tt,sample_start_time,sample_end_time,uid
-0.0038005858546461,0.118393788276831,-0.0276452413419127,-0.125299601440745,-0.1976047937014581,0.1761974782411625,-0.3200267569964545,-0.3523548551359035,-15.366795538859416,24.23478038189382,23.574202598036063,0.83388581162401,0.3579590351761117,0.7882618756757483,3430.10337999132,11.967999999999998,0.2088888888888889,179.51508586300247,-4.472331076328056,103.00183449529855,1553.0,1435.0,1200.0,1528.0,1471.0,999.0,60.0,292.0,1649232507.3678367,1649232508.3497057,2bbfd34a-950f-420b-9f1f-26d83413504c
-0.0219053295813152,0.1169904178404429,-0.0296175458377308,-0.1233146539000092,-0.199425382585324,0.1761974782378796,-0.3224921379252827,-0.3429358356568451,-15.377411800405932,24.287424141371485,23.62087565647316,0.8296611265250708,0.3519884896353081,0.7968246231100197,3548.4435221354165,11.96588888888889,0.2,179.56175578669126,-4.431698280955649,102.47599189147762,1553.0,1435.0,1200.0,1528.0,1471.0,999.0,60.0,292.0,1649232508.4574463,1649232509.5787077,2bbfd34a-950f-420b-9f1f-26d83413504c
-0.0060510358398001,0.1194178694055793,-0.0320070685883201,-0.1265765422219726,-0.201663189766699,0.1770824866069416,-0.3230231430481325,-0.3439978456372072,-15.28833724259886,24.12930423863856,23.647976088556813,0.8378898589959487,0.3604697142731033,0.8043163495226635,3567.959282769097,11.964333333333334,0.2,179.57821198913155,-4.392965606264846,101.95754486470798,1553.0,1435.0,1200.0,1528.0,1471.0,999.0,60.0,292.0,1649232509.6871283,1649232510.8122594,2bbfd34a-950f-420b-9f1f-26d83413504c
0.0869001326177443,0.3210859889263429,-0.0117150897231057,-0.2421965789309096,-0.2302616071167538,0.0910343861307709,-0.3416968233613529,-0.3715721837357923,-15.129891586293022,23.59552082920258,24.38205242320487,0.9030074275241836,1.124732888112315,0.8669488942654671,3571.427490234375,11.951,0.2,179.44921855428652,-4.304158822630171,100.98759804868344,1647.0,1435.0,1200.0,1528.0,1543.0,999.0,60.0,292.0,1649232512.9440727,1649232514.09027,59752a4b-2e82-4c6a-b577-d941e28edb46
0.1031842870015476,0.3215537790487581,-0.0145471166728392,-0.2420322202115503,-0.2343832181376601,0.0896057297279969,-0.3459069354707019,-0.3788671828615602,-15.08835177235292,23.71442424324248,24.236953070154204,0.900071282298295,1.127281633839798,0.8822509880765923,3575.5662434895835,11.953111111111111,0.2088888888888888,179.43237378997344,-4.280892589564299,100.65605838964132,1647.0,1435.0,1200.0,1528.0,1543.0,999.0,60.0,292.0,1649232514.1989396,1649232515.310901,59752a4b-2e82-4c6a-b577-d941e28edb46
0.1137917446752022,0.3256501033727664,-0.0107921523770533,-0.2433218040357631,-0.2312098305204794,0.087898927824572,-0.3420508267930841,-0.371610112746133,-15.043406734542693,23.639552944355145,24.425932413736884,0.8988882455370392,1.1410478618324302,0.8681330595190502,3577.389892578125,11.954,0.2,179.36784368051497,-4.249943010296464,100.390880848575,1647.0,1435.0,1200.0,1528.0,1543.0,999.0,60.0,292.0,1649232515.4191835,1649232516.542424,59752a4b-2e82-4c6a-b577-d941e28edb46
0.1992456247120052,0.5326409083632104,0.0081975996725918,-0.3685757975069468,-0.2648401538117333,0.0001187371392488,-0.3641128257633497,-0.3840255187312379,-14.860205509087958,23.2584185360158,24.374489528641487,0.982679753702649,1.9331673464150627,0.9436248950051868,3580.877197265625,11.933666666666667,0.2,179.22485139351105,-4.196669289749527,99.86036867209152,1745.0,1435.0,1200.0,1528.0,1614.0,999.0,60.0,292.0,1649232518.4725735,1649232519.6108854,da52dad8-81e0-42a4-9c8e-d3eb6305a801
0.227629107156402,0.5295307362712308,0.003317410407983,-0.3645679730570963,-0.2688353351204949,-0.0002352662419332,-0.3701055980326486,-0.3904481522774575,-14.93697214249286,23.339876075828872,24.37316099195423,0.9731017276861488,1.921255974765168,0.963820961967529,3581.874755859375,11.935,0.2,179.19524480018876,-4.18237242315622,99.65924919852102,1745.0,1435.0,1200.0,1528.0,1614.0,999.0,60.0,292.0,1649232519.719505,1649232520.851816,da52dad8-81e0-42a4-9c8e-d3eb6305a801
0.2195123161978674,0.5276848617781231,0.0066425134555734,-0.3644036142927204,-0.2657125193559787,0.0014462497653954,-0.3667425654995213,-0.387970128470508,-14.95495274687225,23.405033841564013,24.401650098534848,0.977102562553964,1.914399249952304,0.9500258060336072,3582.3738606770835,11.932666666666668,0.2033333333333333,179.1630063073063,-4.170424287863753,99.48098353791345,1745.0,1435.0,1200.0,1528.0,1614.0,999.0,60.0,292.0,1649232520.983256,1649232522.0703728,da52dad8-81e0-42a4-9c8e-d3eb6305a801
0.2524219841180321,0.6258069981425481,0.0280850029781745,-0.4359123074329514,-0.2759027602800861,-0.0436259649520912,-0.3686137264481289,-0.3849990280221079,-14.80118421066962,23.706491632236045,22.373003501246963,1.0399454880447885,2.309477129507482,0.9457093202435852,3569.444742838541,11.912000000000004,0.1933333333333333,179.05159226156505,-4.151687798309939,99.25896368548273,1849.0,1435.0,1200.0,1528.0,1686.0,999.0,60.0,292.0,1649232522.9786594,1649232524.126538,818f25f8-cf48-4bcb-af13-dcc15e99205d
0.2553804406136295,0.6298527504404794,0.0298929487097517,-0.4386684770835894,-0.2750430377398268,-0.0441063981109672,-0.366793137420598,-0.3879195562977142,-14.765740255908128,23.66464403022023,22.5216379969774,1.0449372796543344,2.323536200925047,0.9401987549478764,3556.774197048612,11.917444444444444,0.19,179.0223013747644,-4.13243174006051,99.09738190028771,1849.0,1435.0,1200.0,1528.0,1686.0,999.0,60.0,292.0,1649232524.2391694,1649232525.5498545,818f25f8-cf48-4bcb-af13-dcc15e99205d
0.2435466146202311,0.6173488472450883,0.024797828883688,-0.432384916017189,-0.2768762696589955,-0.0379239820735169,-0.3697136656686374,-0.391763022014275,-14.82947712539618,23.70272438475236,22.45046118034301,1.0446111265025797,2.27662491538624,0.9521806332518928,3550.715087890625,11.913333333333334,0.19,178.96534366836573,-4.110110681852909,98.93034279394588,1849.0,1435.0,1200.0,1528.0,1686.0,999.0,60.0,292.0,1649232525.660392,1649232526.7853692,818f25f8-cf48-4bcb-af13-dcc15e99205d
0.3208204864070789,0.685899062725275,0.0472264704809951,-0.4822488296113147,-0.2788991462879998,-0.0571160221044292,-0.3616474448029911,-0.3898412892088762,-14.566771005508958,24.08687881473605,22.854231917251543,1.1178248280330745,2.535859608765146,0.9213314844782352,3545.9819607204863,11.869222222222223,0.1822222222222222,178.88977293756892,-4.06625318341861,98.59977681631544,1962.0,1435.0,1200.0,1528.0,1760.0,999.0,60.0,292.0,1649232528.91879,1649232530.0614288,f290be6a-cc0d-490b-89d5-0db461f41581
0.3081648671007144,0.6891103786115743,0.0470621117826166,-0.4858141500833204,-0.2796071530996892,-0.0569390204616934,-0.3628105988969393,-0.3824325033118331,-14.676275243675027,24.09586211061351,22.855345557196287,1.126261487098387,2.549097869865927,0.9244545512658237,3544.84130859375,11.877555555555556,0.18,178.87351405170466,-4.063525329186968,98.36366476580716,1962.0,1435.0,1200.0,1528.0,1760.0,999.0,60.0,292.0,1649232530.1702316,1649232531.284654,f290be6a-cc0d-490b-89d5-0db461f41581
0.3077223629175879,0.6889460199249805,0.0503366428640489,-0.4851314291316245,-0.2765349092491782,-0.0567999477016967,-0.3584361280624452,-0.3734054158298172,-14.564348603319884,24.05705252042216,22.97084302421308,1.1250144792680017,2.546788456542508,0.909821382279392,3545.656060112847,11.874555555555556,0.1855555555555555,178.85980965659,-4.057682766398191,98.18003133542184,1962.0,1435.0,1200.0,1528.0,1760.0,999.0,60.0,292.0,1649232531.3930416,1649232532.7185287,f290be6a-cc0d-490b-89d5-0db461f41581
-0.1462490160607734,-0.137272501627215,-0.0479119343641658,0.0290332262597117,-0.156249611766739,0.2814755439900571,-0.2960430257083669,-0.3230737150891001,-15.823447017687808,25.198084315767687,23.13689002203735,0.7273997700612852,-0.6141071762183661,0.694498694451779,3553.6591796875,11.963,0.21,179.293763448777,-4.057065772643166,97.95657183089608,1459.0,1435.0,1200.0,1528.0,1394.0,999.0,60.0,292.0,1649232533.3162916,1649232534.363346,dd7e092f-419d-4de1-b26c-bd69401d0cec
-0.1833308711419952,-0.1437457063930185,-0.0494543776360287,0.0333824104273779,-0.1557818215789748,0.2839029954569664,-0.2965866738161801,-0.3140845569250692,-15.871881739600733,25.20309286199834,23.14181171564936,0.7229766863218171,-0.6387196169546913,0.6959639963980118,3564.16796875,11.964555555555556,0.2,179.2811746512268,-4.041529606170457,97.94965512599656,1459.0,1435.0,1200.0,1528.0,1394.0,999.0,60.0,292.0,1649232534.471928,1649232535.5851574,dd7e092f-419d-4de1-b26c-bd69401d0cec
-0.1648721229062511,-0.1430250566420026,-0.0512370374778225,0.0326744037139163,-0.1580449146715341,0.2846742170195974,-0.2983440478889523,-0.3195968960318783,-15.840440147160535,25.21998931458434,23.24508168125177,0.7263623466247002,-0.6371801109935269,0.7042201960780766,3570.7666829427085,11.965222222222224,0.21,179.24864018348026,-4.035202242246218,97.90254199892163,1459.0,1435.0,1200.0,1528.0,1394.0,999.0,60.0,292.0,1649232535.6958878,1649232536.815486,dd7e092f-419d-4de1-b26c-bd69401d0cec
-0.3149695653575789,-0.3719261870592328,-0.0655109592566287,0.1736435969310471,-0.1182321767631319,0.3785736019286888,-0.2742718160284888,-0.2947281561540981,-16.22376100208135,26.21958516556728,23.19130778336696,0.6250890097477343,-1.510753136320435,0.6079618144964548,3578.883544921875,11.944333333333333,0.1966666666666666,179.28520749847672,-4.033765436063315,97.7759611386734,1364.0,1435.0,1200.0,1528.0,1312.0,999.0,60.0,292.0,1649232538.9536216,1649232540.1007016,fc559944-0b0a-40e9-89b9-ab0ec28a3974
-0.2964096721548578,-0.3723560483664822,-0.0634375109093204,0.1768928419442838,-0.1158426539317201,0.3772966613308814,-0.2723247972828202,-0.2984957639226116,-16.195520205851015,26.217316873682,23.39048249436473,0.615024225446322,-1.5145991839355477,0.5993867950504813,3584.7043185763887,11.941555555555556,0.1911111111111111,179.2703085791672,-4.056225517079648,97.66591388967608,1364.0,1435.0,1200.0,1528.0,1312.0,999.0,60.0,292.0,1649232540.2296069,1649232541.3347042,fc559944-0b0a-40e9-89b9-ab0ec28a3974
-0.284196554430425,-0.3748972872454943,-0.067862553096148,0.1758687608329832,-0.1194079737038783,0.3798252565714343,-0.2743603168627784,-0.3050953988532539,-16.096037877961038,26.11376898571032,23.237849312973022,0.6221353699013445,-1.5236378960964128,0.6127531785410917,3585.870849609375,11.942666666666668,0.1966666666666666,179.26373793718565,-4.049832602312122,97.55560557567046,1364.0,1435.0,1200.0,1528.0,1312.0,999.0,60.0,292.0,1649232541.4435894,1649232542.7642384,fc559944-0b0a-40e9-89b9-ab0ec28a3974
-0.4529171155314928,-0.6140392615528839,-0.0904176254239183,0.3113888260803656,-0.0887361093716921,0.4800461281733578,-0.258404877633696,-0.2761303341254587,-16.529249238406226,27.39084809935205,21.87754231293508,0.5485528968595845,-2.423536800304445,0.5485112549363573,3581.874755859375,11.915,0.1866666666666666,179.3286383946791,-4.039878882257298,97.34638549774436,1262.0,1435.0,1200.0,1528.0,1222.0,999.0,60.0,292.0,1649232544.896023,1649232546.235341,6e6fd118-33ef-418c-8804-2d5368bb50da
-0.417225983159456,-0.6093992874058575,-0.088445320875793,0.3086832291438904,-0.0873327388300303,0.4788829743764801,-0.2584175206039197,-0.2845505580729541,-16.70085545643189,27.41590175985846,22.012395444918084,0.5522417042958705,-2.405656114075225,0.5445269682523907,3580.3798014322915,11.910666666666668,0.19,179.33687104935865,-4.038424905737732,97.15947737110696,1262.0,1435.0,1200.0,1528.0,1222.0,999.0,60.0,292.0,1649232546.3437378,1649232547.4663086,6e6fd118-33ef-418c-8804-2d5368bb50da
-0.4543837012227243,-0.6133312546048164,-0.0939323732479202,0.3116922575135228,-0.0919727116864449,0.4795530521049039,-0.2627287763543653,-0.2820851771823896,-16.59757697972611,27.400002504411024,21.915838423798,0.546617806982816,-2.420997174214374,0.5639577252909119,3572.420166015625,11.909666666666668,0.18,179.33502234482333,-4.02796987825695,97.03542975213092,1262.0,1435.0,1200.0,1528.0,1222.0,999.0,60.0,292.0,1649232547.5755303,1649232548.6930835,6e6fd118-33ef-418c-8804-2d5368bb50da
-0.4803776684699735,-0.6534474349989128,-0.1025422411668405,0.3147518577455436,-0.0990148503465153,0.5126017914024895,-0.2670526751137914,-0.2900502536880872,-16.763566356416057,28.235500287017125,21.368078382857146,0.618920059269243,-2.5663359781957764,0.5853830944700844,3572.91650390625,11.859222222222222,0.1744444444444444,179.3587534576396,-4.026132035619656,96.711813112526,1153.0,1435.0,1200.0,1528.0,1121.0,999.0,60.0,292.0,1649232551.0431488,1649232552.174407,2f103ae3-4c2c-4ff8-a581-62224997e4f1
-0.4836269144177084,-0.6605907197009582,-0.106613280057251,0.317912601843612,-0.1003044341008517,0.514839598157692,-0.2685698325686302,-0.2916179830733428,-16.749407437520656,28.119259520338424,21.084947984214217,0.6158075555188304,-2.591367683452212,0.59367059133795,3567.959282769097,11.863,0.1711111111111111,179.3663896091317,-4.024424772918368,96.50714573513665,1153.0,1435.0,1200.0,1528.0,1121.0,999.0,60.0,292.0,1649232552.282608,1649232553.410382,2f103ae3-4c2c-4ff8-a581-62224997e4f1
-0.4793283011131688,-0.6520946359562779,-0.1013411583091,0.3111106805914598,-0.0985849891348938,0.5113501367868272,-0.2651435853716392,-0.2844367711214315,-16.678371297127107,28.18403084471393,20.9143423973204,0.6240101934294698,-2.557320122181181,0.5800147738039703,3560.056640625,11.860111111111111,0.17,179.3659539948446,-4.014041367560132,96.35082926688185,1153.0,1435.0,1200.0,1528.0,1121.0,999.0,60.0,292.0,1649232553.5186737,1649232554.638584,2f103ae3-4c2c-4ff8-a581-62224997e4f1
-0.0145218307247807,0.1129067362911471,-0.0346368079109336,-0.1223032156795688,-0.2003736059646154,0.1817856739328854,-0.3241736541499204,-0.3504078362310708,-15.511705538706128,24.030340741755992,23.956677947904645,0.8379687576996585,0.3341994076866603,0.8073520241384464,3561.699896918403,11.96888888888889,0.2,179.1213709919457,-4.014784150632371,96.14881200289044,1553.0,1435.0,1200.0,1528.0,1471.0,999.0,60.0,292.0,1649232555.3386047,1649232556.4755852,945d22e7-95fb-4eb5-9524-2a50b5a4b8ee
-0.0207927476040013,0.1090632713055761,-0.0345483070687188,-0.1198251919869685,-0.2003103910738856,0.1833407600685291,-0.3245655865125189,-0.3544030176507267,-15.529266393688156,24.15885820884064,23.964149097207653,0.8367221453787796,0.3195448442879062,0.8072054935556374,3577.058403862847,11.969333333333331,0.2,179.08278194095496,-4.006179298074887,96.32398662344367,1553.0,1435.0,1200.0,1528.0,1471.0,999.0,60.0,292.0,1649232556.584079,1649232557.9129753,945d22e7-95fb-4eb5-9524-2a50b5a4b8ee
-0.0121323079895777,0.1130458090375118,-0.0375952646623175,-0.1220756420669276,-0.2035596365342966,0.1809512374754667,-0.3270815393704995,-0.3477907394935516,-15.451026960906798,24.027912108481555,23.86439290648424,0.8354327394329499,0.3348938562245308,0.8197965181581939,3587.8720703125,11.971444444444444,0.2,179.0670011683326,-4.00168745262635,96.48298204367296,1553.0,1435.0,1200.0,1528.0,1471.0,999.0,60.0,292.0,1649232558.0215695,1649232559.1391518,945d22e7-95fb-4eb5-9524-2a50b5a4b8ee
-0.0320955694412722,0.106597890801465,-0.0531587700731251,-0.3241736541668871,-0.2392760508614778,0.3851605925220251,-0.286156216168652,-0.2999749921907976,-15.430544080003612,23.71975616727988,25.640816367265806,1.7476777488090296,0.3187115950387613,0.8314834692870866,3587.3716634114585,11.966333333333331,0.1933333333333333,179.0353045371243,-3.9313014994557216,96.74461851110954,1553.0,1537.0,1200.0,1528.0,1471.0,999.0,60.0,292.0,1649232560.8738697,1649232562.0098388,7d02c07c-2c3d-44e8-b109-a417ca3f172c
-0.0126759560392945,0.1070024660631655,-0.0525392641707201,-0.3231369298721253,-0.2375692487488084,0.3836434353812899,-0.2854987812666777,-0.3058160489285524,-15.491506657614677,23.63739121246374,25.62344957245729,1.7413812827743311,0.3207246314163991,0.8274029620706298,3586.370849609375,11.970333333333333,0.1944444444444444,179.02846827667503,-3.9232271723556433,96.82030231948264,1553.0,1537.0,1200.0,1528.0,1471.0,999.0,60.0,292.0,1649232562.118847,1649232563.235783,7d02c07c-2c3d-44e8-b109-a417ca3f172c
-0.010172646521245,0.106825464386001,-0.0556620796533116,-0.3244644426990973,-0.2417414317038937,0.3852111644228516,-0.2889503145236974,-0.3050953987100095,-15.453508825573202,23.72745636603092,25.621284779468624,1.748359062435178,0.3197780175417616,0.8422101134258976,3593.889404296875,11.96822222222222,0.2,179.0218551357386,-3.9269096403875343,96.90976186050176,1553.0,1537.0,1200.0,1528.0,1471.0,999.0,60.0,292.0,1649232563.344119,1649232564.4663002,7d02c07c-2c3d-44e8-b109-a417ca3f172c
-0.0049510968106446,0.0985822434029206,-0.0722370233946067,-0.5407984723412377,-0.2806565203536232,0.6049460878532321,-0.2453573236049747,-0.2672170341870234,-15.402561574753012,23.49438945553582,27.496411007191583,2.728083544868867,0.2974617721958259,0.8556219295126363,3598.415771484375,11.94988888888889,0.1922222222222222,179.01022560031183,-3.8694140091598825,97.04527433145462,1553.0,1645.0,1200.0,1528.0,1471.0,999.0,60.0,292.0,1649232566.4072287,1649232567.4013398,8fac08f9-48f2-48d2-8898-0e1044033dba
0.0072620193481058,0.1052450922650723,-0.0674200488856373,-0.5434534983130153,-0.2772682020140933,0.6000911850928954,-0.2413115704309787,-0.2665975278714824,-15.335676609497822,23.421839192018613,27.421444271989685,2.722943645002216,0.3232735699663147,0.8394343026236044,3595.02099609375,11.95825,0.2,179.02625567483886,-3.856706335487368,97.04991202990108,1553.0,1645.0,1200.0,1528.0,1471.0,999.0,60.0,292.0,1649232567.5101054,1649232568.7668228,8fac08f9-48f2-48d2-8898-0e1044033dba
0.0089435353406697,0.1058013832518111,-0.0678751960949251,-0.5447051534070256,-0.2777107062804218,0.601355482686114,-0.2408311372462291,-0.2721604386363814,-15.294562788276124,23.36981308415219,27.515259644610527,2.72827621745698,0.3243618918861319,0.8402121500041475,3596.9068196614585,11.954666666666666,0.19,179.0251776433149,-3.862582397033792,97.07176408178564,1553.0,1645.0,1200.0,1528.0,1471.0,999.0,60.0,292.0,1649232568.8756151,1649232569.9921968,8fac08f9-48f2-48d2-8898-0e1044033dba
-0.0238649910633871,0.0977857358535541,-0.0689119202647371,-0.665028406352605,-0.2954361627425294,0.721994759016953,-0.2122200767802528,-0.2274169371656344,-15.213325255554317,23.72683164621609,27.89890176354747,3.27320570359091,0.305077850811002,0.8234584558191309,3595.900580512153,11.946333333333332,0.19,179.03986558567004,-3.838121023158776,97.04809899413138,1553.0,1761.0,1200.0,1528.0,1471.0,999.0,60.0,292.0,1649232571.9271667,1649232573.0696938,489df362-443f-494a-9f7c-1225410ecb11
0.0082102426490581,0.1028302836669999,-0.0565470880993113,-0.6495028248073113,-0.2831219012552671,0.7032578686805978,-0.2052537956442181,-0.2291616680619027,-15.1713153945626,23.77735882407975,28.043839344804823,3.1970743884779065,0.3212892485124373,0.7808724426149745,3559.8984646267363,11.948888888888888,0.1988888888888889,179.05008354866837,-3.8351219534988408,97.01200903346694,1553.0,1761.0,1200.0,1528.0,1471.0,999.0,60.0,292.0,1649232573.1779263,1649232574.2941172,489df362-443f-494a-9f7c-1225410ecb11
0.0053023578524019,0.0984937425642322,-0.066661470220836,-0.6486431020667885,-0.2915041962680899,0.703042938089358,-0.2136740192885598,-0.2410839971000123,-15.105238707039293,23.671192435573712,27.451712208187026,3.193383541184077,0.3090560674277551,0.8168025067508005,3515.773220486112,11.947,0.19,179.0477931585667,-3.842716459809726,96.9974812211023,1553.0,1761.0,1200.0,1528.0,1471.0,999.0,60.0,292.0,1649232574.415434,1649232575.4697392,489df362-443f-494a-9f7c-1225410ecb11
0.0103089768874622,0.0975328763089487,-0.0512623234400488,-0.6536244368990134,-0.2823001076108941,0.708226558223311,-0.2012333285122989,-0.2224861753194581,-15.035366750817651,24.2309596082391,27.50273106949165,3.220789342085197,0.3061045453735425,0.7652937204054512,3478.979248046875,11.900555555555554,0.1811111111111111,179.05784719702498,-3.8359709365262993,96.92189682992714,1553.0,1887.0,1200.0,1528.0,1471.0,999.0,60.0,292.0,1649232577.4567726,1649232578.5952785,958a06e5-d850-4397-995c-504e5eecf5b2
0.0122812813574024,0.094574419695308,-0.0513634672774681,-0.6652559801595929,-0.2814783140112725,0.7224625491320228,-0.1963531388542329,-0.2220689571110956,-15.121453635144794,24.08408736141769,27.61234301238996,3.2780128950047103,0.2960695373653177,0.757058642196828,3477.251953125,11.904,0.18,179.07899498051515,-3.8331576574981616,96.81222144678462,1553.0,1887.0,1200.0,1528.0,1471.0,999.0,60.0,292.0,1649232578.704095,1649232579.827402,958a06e5-d850-4397-995c-504e5eecf5b2
-0.0247752854431654,0.090920599338914,-0.052867981607264,-0.6483775996904242,-0.2810484527253421,0.7100345037906828,-0.2023079816898452,-0.2184783511666568,-15.18071936101555,24.21370132443733,27.51621335010601,3.212751081961853,0.2814656826167302,0.7664780558517819,3481.0187174479165,11.908666666666669,0.1822222222222222,179.0746191059869,-3.831749879619232,96.70920473917296,1553.0,1887.0,1200.0,1528.0,1471.0,999.0,60.0,292.0,1649232579.9362228,1649232581.0510857,958a06e5-d850-4397-995c-504e5eecf5b2
-0.0091485653004848,0.1199741603905738,-0.0104887209109219,0.0692252507126778,-0.163607825066275,-0.0140666835249345,-0.3605222196070924,-0.3894872858978975,-15.548875418641614,25.008350905557275,22.11369485672568,-0.0268056670633926,0.3552701296107964,0.7756195590862335,3492.048285590278,11.972111111111111,0.2055555555555555,179.0758895211725,-4.034193129228218,96.61204757495923,1553.0,1335.0,1200.0,1528.0,1471.0,999.0,60.0,292.0,1649232581.9664652,1649232583.102827,60ebd7d3-d060-4548-be9a-4120cfe52a4e
-0.0246614986777923,0.1169019170008551,-0.0147367613342546,0.0752559507846486,-0.1671352159889365,-0.0153309812682164,-0.3667425654930598,-0.392407814295036,-15.638881575677894,25.14268675736816,22.25395447949848,-0.0425944388089198,0.3421317398239909,0.7948318693131644,3510.00244140625,11.969,0.2,179.08224615056005,-4.043200061741217,96.75831759385488,1553.0,1335.0,1200.0,1528.0,1471.0,999.0,60.0,292.0,1649232583.2113826,1649232584.3287115,60ebd7d3-d060-4548-be9a-4120cfe52a4e
-0.0474567871646167,0.1186213618582462,-0.0138391099371408,0.0740295820002433,-0.1672742887513552,-0.0153056953297564,-0.3659334148094769,-0.3838232309222705,-15.576659092744224,25.167268442689583,22.342402856452683,-0.0395181580089273,0.3475647077292168,0.7930011092378975,3520.4165852864585,11.968555555555554,0.2,179.07538712281354,-4.045605331830185,96.85982103511044,1553.0,1335.0,1200.0,1528.0,1471.0,999.0,60.0,292.0,1649232584.4371216,1649232585.7640188,60ebd7d3-d060-4548-be9a-4120cfe52a4e
-0.0506554605078855,0.1241084138352174,0.0045943511208928,0.2896681926931755,-0.1317222342741322,-0.2307673262571422,-0.413584804977905,-0.4400465618801786,-15.750893099429344,26.102722268391684,20.583483720131365,-1.0033660726910911,0.3596016494638216,0.7868646149931984,3535.9054090711807,11.966444444444445,0.19,179.0485444793754,-4.110533821558365,97.04143500623115,1553.0,1236.0,1200.0,1528.0,1471.0,999.0,60.0,292.0,1649232587.0822003,1649232588.2270577,e272a33e-c678-4311-81ad-c1659332b325
-0.0183526528783191,0.1278886639221852,0.0037978435492243,0.2933978707252488,-0.1330118180335201,-0.2362290930228187,-0.4164294754336599,-0.4472909895022656,-15.72925586587086,26.12090525329545,20.807345514264885,-1.0239251788034285,0.37113327205241,0.7945705257390524,3540.44873046875,11.968222222222222,0.1922222222222222,179.05464763285377,-4.115101747725157,97.1771098839043,1553.0,1236.0,1200.0,1528.0,1471.0,999.0,60.0,292.0,1649232588.336442,1649232589.4486282,e272a33e-c678-4311-81ad-c1659332b325
-0.0179354346232967,0.1292667483995542,0.0097400428954885,0.297759697575635,-0.1272971919846573,-0.2410460678705581,-0.4119032886922858,-0.4360640231981444,-15.708563895952963,26.14818478716932,20.92530624718379,-1.0440828365647816,0.374950123184821,0.7726174419995799,3547.4518771701387,11.968,0.1944444444444444,179.04735147300036,-4.127067812264197,97.25126372990331,1553.0,1236.0,1200.0,1528.0,1471.0,999.0,60.0,292.0,1649232589.555785,1649232590.580577,e272a33e-c678-4311-81ad-c1659332b325
-0.0275815207284351,0.121853412474675,0.0211081023735423,0.4064174811729684,-0.1077228278106174,-0.3379828218778347,-0.4329558730142018,-0.4555058921541382,-15.870576722508838,26.923498938232186,20.29082978070692,-1.501494992215545,0.3412713663748006,0.7591642595608212,3574.572157118056,11.94811111111111,0.19,179.0315676647384,-4.172131455701301,97.4402201543818,1553.0,1133.0,1200.0,1528.0,1471.0,999.0,60.0,292.0,1649232592.335183,1649232593.340566,02ca8f6c-99d8-4615-8a31-e6f51e6e7dfe
-0.0584688206870682,0.125170423892204,0.0184763402180312,0.4017861061576551,-0.1108486776678155,-0.3388142241437311,-0.4349387979853712,-0.4596431811001189,-15.824614245031874,26.82243676051508,20.011768789864785,-1.4937383619429454,0.3562618430797458,0.7698732041649201,3575.8974609375,11.949444444444444,0.19,179.0444843113688,-4.180158161204667,97.46963474349742,1553.0,1133.0,1200.0,1528.0,1471.0,999.0,60.0,292.0,1649232593.4488094,1649232594.564545,02ca8f6c-99d8-4615-8a31-e6f51e6e7dfe
-0.0458005571407008,0.1290897467231644,0.0217635143260314,0.4105982605363577,-0.1086993714090422,-0.3492952539773308,-0.4360766661859386,-0.4579743079427302,-15.800815957911317,26.9656952974153,20.227576542009192,-1.536008958787911,0.3680064035978457,0.7648988018775215,3574.572157118056,11.94788888888889,0.1888888888888888,179.0297644947975,-4.173387831053629,97.48512864817464,1553.0,1133.0,1200.0,1528.0,1471.0,999.0,60.0,292.0,1649232594.6724768,1649232595.80295,02ca8f6c-99d8-4615-8a31-e6f51e6e7dfe
-0.0316277792966371,0.1301391138047694,0.0344823494288601,0.42533997068897,-0.0983953444660615,-0.3652759799424204,-0.4301976805721522,-0.4618304165734264,-15.71850350910062,27.32702314327825,20.098609865340016,-1.6021239952017543,0.3715000234444945,0.7251403510369205,3578.883544921875,11.936555555555556,0.18,179.03322815961658,-4.204874718536174,97.53862193084429,1553.0,1026.0,1200.0,1528.0,1471.0,999.0,60.0,292.0,1649232597.9499314,1649232599.0757396,315ae65e-a598-4026-bbd0-f69891b2921d
-0.0488222287559203,0.13558823683118,0.0318273242142561,0.4333935464857629,-0.1020618080435621,-0.3786901811233375,-0.4377961114956203,-0.4644222275098537,-15.688045077294763,27.422719947107872,19.964224414866862,-1.6499382968834575,0.3917547663519608,0.7450942899085254,3578.883544921875,11.940555555555555,0.18,179.02877184063811,-4.20345100354918,97.54550676152763,1553.0,1026.0,1200.0,1528.0,1471.0,999.0,60.0,292.0,1649232599.184159,1649232600.309224,315ae65e-a598-4026-bbd0-f69891b2921d
-0.041653660481031,0.128735743371425,0.0342927047602918,0.4367945070319861,-0.0978011245289295,-0.3752260048452374,-0.4334848553218635,-0.4659520280557854,-15.69489710512475,27.41052251342596,19.97367145792641,-1.649785605987368,0.365755871743592,0.7290063956994507,3577.389892578125,11.936333333333332,0.1833333333333333,179.03106526637944,-4.217110622979297,97.55287122327276,1553.0,1026.0,1200.0,1528.0,1471.0,999.0,60.0,292.0,1649232600.417712,1649232601.7373805,315ae65e-a598-4026-bbd0-f69891b2921d
-0.0238017762166162,0.107659900865652,-0.0337138705562007,-0.1142622816935081,-0.200436820861061,0.1804960903103208,-0.325804598481438,-0.3476769530048268,-15.477423104632836,24.34073152283173,24.08839456479631,0.8190743414813112,0.3121843033484988,0.808020172223346,3575.898193359375,11.967,0.19,179.04375120439786,-4.053434032995424,97.55376483968914,1553.0,1435.0,1200.0,1528.0,1471.0,999.0,60.0,292.0,1649232602.852212,1649232603.9881108,25eee584-0cbe-41e3-b6d5-a1064471fe07
-0.0162159897014173,0.106079528744182,-0.0316657081919,-0.1141864238385833,-0.1975921507197238,0.1817477449957545,-0.3234024324390531,-0.347247091648462,-15.551072393004953,24.32325323441984,24.073874047200945,0.821662591243351,0.3070271200002462,0.7976782140127378,3580.877685546875,11.969333333333331,0.1933333333333333,179.03999004689493,-4.047090139064755,97.59103604362504,1553.0,1435.0,1200.0,1528.0,1471.0,999.0,60.0,292.0,1649232604.0964832,1649232605.2216885,25eee584-0cbe-41e3-b6d5-a1064471fe07
-0.0421340935962796,0.1122745874477894,-0.0328415051035644,-0.1169425930191245,-0.2002345332024576,0.1773732750671353,-0.3249322329000411,-0.3474873078824764,-15.41960962311386,24.24266325165511,23.94405166539735,0.8175025086338483,0.3307459454409115,0.8057254290653574,3581.2100423177085,11.970555555555556,0.19,179.02123586525386,-4.050786789225547,97.6120684728092,1553.0,1435.0,1200.0,1528.0,1471.0,999.0,60.0,292.0,1649232605.3304071,1649232606.4474514,25eee584-0cbe-41e3-b6d5-a1064471fe07
0.0222945193853113,0.1277875201077647,0.053029597009087,-0.1240985185429909,-0.1235169415536306,0.1654256620626583,-0.2371141015233105,-0.265927450135852,-14.771903102617364,24.205069288539747,24.13525682046968,0.8111797525487747,0.3889741007150088,0.4616996104582388,3575.8974609375,11.968,0.1822222222222222,179.05063907072088,-4.04711902507312,97.59879513852218,1553.0,1435.0,1200.0,1435.0,1471.0,999.0,60.0,292.0,1649232608.3865943,1649232609.5227106,92833e1a-7e44-4845-8732-d8cc7959524d
0.016478749802692,0.1273450159144105,0.0547616848821009,-0.12309972327413,-0.1213802782699174,0.1637567891370618,-0.2353693704685442,-0.2612495480078936,-14.772172674917556,24.17588077665379,23.980955989240588,0.8050445549328504,0.3886702503315419,0.4536936238705457,3577.0582411024307,11.969666666666663,0.19,179.03237818051988,-4.042597392410702,97.61302394038312,1553.0,1435.0,1200.0,1435.0,1471.0,999.0,60.0,292.0,1649232609.6302726,1649232610.7512553,92833e1a-7e44-4845-8732-d8cc7959524d
-0.0056843894933073,0.1297345385467564,0.0544076815219263,-0.1233020109199658,-0.1224422884211205,0.1619235575068706,-0.2376451066206463,-0.2583922348849311,-14.851982323714578,24.250133231760067,24.01609023694211,0.8018213780009107,0.3978896154307004,0.4591134541945326,3575.8974609375,11.972333333333331,0.19,179.0310652663794,-4.04619125771086,97.61066600729968,1553.0,1435.0,1200.0,1435.0,1471.0,999.0,60.0,292.0,1649232610.859339,1649232611.9773648,92833e1a-7e44-4845-8732-d8cc7959524d
0.0555076205334389,0.1433004526995373,0.1594708200108316,-0.1297625726744054,-0.0274555966768961,0.1487116467749641,-0.1292442105826707,-0.153076224250801,-14.056056661836935,24.21964339872489,23.999777574797108,0.7921332654295766,0.4507366131431866,0.0343166909172701,3575.5661349826387,11.965666666666667,0.19,179.0182533493163,-4.049724030763441,97.59489813614572,1553.0,1435.0,1200.0,1330.0,1471.0,999.0,60.0,292.0,1649232613.9115903,1649232614.8606708,3aec52bb-e64d-4db0-9cee-ad767cbce769
0.0397266564040496,0.1448899277453768,0.1611548645153036,-0.1302859919804249,-0.0264507328267289,0.1469674216857249,-0.1289711222603236,-0.1504692423140867,-14.109646539140895,24.280239821222786,23.91184712048849,0.7898390272542415,0.4580289635705878,0.0302650449257015,3571.427490234375,11.967777777777776,0.19,179.00487528546196,-4.054419121771655,97.5934987062758,1553.0,1435.0,1200.0,1330.0,1471.0,999.0,60.0,292.0,1649232614.969347,1649232616.0740688,3aec52bb-e64d-4db0-9cee-ad767cbce769
0.0533962433474023,0.1440969602408036,0.160052396945563,-0.128283344260799,-0.027683170270026,0.1478392813655669,-0.1293959263157504,-0.1542773072734772,-14.00680503772087,24.285014599106724,24.18084351462016,0.7873521341915265,0.4516264798012657,0.0344222502177242,3574.572157118056,11.970333333333334,0.19,179.00233293727092,-4.050591559651772,97.59705951156307,1553.0,1435.0,1200.0,1330.0,1471.0,999.0,60.0,292.0,1649232616.1823213,1649232617.507764,3aec52bb-e64d-4db0-9cee-ad767cbce769
0.0656725741257264,0.1639717197452952,0.2693635725728947,-0.1302809347760898,0.0701987599402146,0.1242222006231326,-0.0212226087860618,-0.0363941818541151,-13.25993731082434,24.34906905841052,24.16294097117638,0.7450281670781957,0.5282182134373122,-0.3990573012666552,3580.545328776041,11.960444444444445,0.19,178.97179592040172,-4.054877076469131,97.56780505243802,1553.0,1435.0,1200.0,1210.0,1471.0,999.0,60.0,292.0,1649232619.4416497,1649232620.5816383,dd475715-35e8-46e6-b29d-a6bcc1279340
0.0748766614260697,0.160102968856549,0.268744066730081,-0.1289028501900621,0.0706412641424295,0.1243865593137912,-0.0209950351781556,-0.0517301136646711,-13.25486924385701,24.325869183613875,23.82677155448422,0.7420532035670033,0.5164422974195091,-0.4000566771824581,3577.8877766927085,11.958333333333334,0.19,178.97489379064527,-4.074319115077834,97.55937584009232,1553.0,1435.0,1200.0,1210.0,1471.0,999.0,60.0,292.0,1649232620.6904888,1649232621.8087006,dd475715-35e8-46e6-b29d-a6bcc1279340
0.0834612428743757,0.1594708200164234,0.2668476202641479,-0.1266650430614536,0.0677080934574128,0.1261818620430897,-0.0247373565186178,-0.0568505195866146,-13.300514329459542,24.52389745258893,24.26276318169344,0.7423043898571547,0.5101378487096381,-0.3877033953892131,3572.420166015625,11.960666666666668,0.19,178.98378214348517,-4.056634190064987,97.58092964038316,1553.0,1435.0,1200.0,1210.0,1471.0,999.0,60.0,292.0,1649232621.9165125,1649232623.0404656,dd475715-35e8-46e6-b29d-a6bcc1279340
0.0938537699667585,0.1745412482942341,0.347054662185782,-0.1123911209552291,0.1400638505937374,0.0928296888647372,0.0489206293931655,0.0232806714492304,-12.764736236919076,24.72053417082139,24.07645474195237,0.6406964345003916,0.5678508671330065,-0.6984789708549916,3573.662475585937,11.958,0.185,178.9630730099217,-4.043287573539958,97.55851523625688,1553.0,1435.0,1200.0,1071.0,1471.0,999.0,60.0,292.0,1649232624.9682407,1649232626.1084769,5cafa945-e887-47d2-b42c-3ee07a9918e5
0.0824498047320705,0.1742251738736993,0.3453478603943372,-0.1117084001490803,0.1384076206361419,0.090655096810008,0.0466322505251962,0.029361943583251,-12.763455026696654,24.73178815868292,23.797308923981653,0.6342155491080964,0.5689383213190399,-0.6910680954471414,3575.8974609375,11.954,0.1888888888888888,178.9586637433575,-4.054640296577904,97.5418146648263,1553.0,1435.0,1200.0,1071.0,1471.0,999.0,60.0,292.0,1649232626.2168505,1649232627.3379793,5cafa945-e887-47d2-b42c-3ee07a9918e5
0.1118700121736183,0.1746297491293553,0.3475224523090625,-0.1123531920248911,0.1396087034317664,0.0921216821499045,0.0484022673273667,0.0241403940205349,-12.75493766421229,24.81431690014556,23.99177370841844,0.6396563140774347,0.5688905490775633,-0.6978986880162944,3572.91650390625,11.953666666666669,0.18,178.9694554422461,-4.052100319980306,97.53853237947516,1553.0,1435.0,1200.0,1071.0,1471.0,999.0,60.0,292.0,1649232627.4463606,1649232628.5679293,5cafa945-e887-47d2-b42c-3ee07a9918e5
-0.0525139782261117,0.0983673127939191,-0.1528612936244832,-0.1023525965029945,-0.3113031014079889,0.1852498495509794,-0.4541814135316898,-0.4792777294813871,-16.321116256974125,24.625639548798105,24.076935920240107,0.7984207646250362,0.2743896420441026,1.3024732515315698,3568.453857421875,11.967666666666666,0.1888888888888889,179.02129202458704,-4.031985982057048,97.57566128780334,1553.0,1435.0,1200.0,1552.7777777777778,1471.0,999.0,60.0,292.0,1649232630.3143685,1649232631.438719,816d42cd-003d-43d5-a19c-a382bab3b881
-0.0701762180525113,0.097128301049633,-0.1489798993394077,-0.1007216523756351,-0.308066498763871,0.1846935585679236,-0.4498322283957137,-0.464384298573416,-16.196522157669442,24.661374279388383,24.06936908473462,0.7939833628088254,0.2689736745640156,1.2865079739417755,3570.435953776041,11.971666666666666,0.1866666666666666,179.02939870022198,-4.029585075700052,97.58241406816278,1553.0,1435.0,1200.0,1613.0,1471.0,999.0,60.0,292.0,1649232631.5472686,1649232632.659541,816d42cd-003d-43d5-a19c-a382bab3b881
-0.0779137203822379,0.0978995226455613,-0.1486258959529334,-0.104223757237839,-0.3060183361535032,0.1850981338230946,-0.4474679911272465,-0.4642452259429566,-16.251664128126595,24.435414839627885,23.78951213061762,0.801239734673929,0.2751866647528788,1.279591660117304,3574.2409396701387,11.972555555555555,0.1888888888888888,179.03719118715503,-4.036233790538366,97.56780049897856,1553.0,1435.0,1200.0,1613.0,1471.0,999.0,60.0,292.0,1649232632.767524,1649232633.8945897,816d42cd-003d-43d5-a19c-a382bab3b881
-0.1094832360224629,0.0846243967839168,-0.2512742376469536,-0.0801262415209678,-0.3999177439155528,0.1824178227630475,-0.5607364531213418,-0.5815973717776283,-17.00242220615358,24.816258722760395,23.88193801369188,0.7379089050388303,0.2204235658003233,1.7067312200687434,3573.4131673177085,11.963666666666668,0.18,179.0431182735348,-4.040263080398112,97.56698694755742,1553.0,1435.0,1200.0,1694.0,1471.0,999.0,60.0,292.0,1649232635.009351,1649232636.1509953,2265ebcb-9811-4d08-8cb3-d8e04c78c768
-0.0900130501484631,0.0791120587927049,-0.2519063865554037,-0.0783435816771187,-0.3994878825791744,0.1867290777942048,-0.5598893733956909,-0.5754781689596743,-17.000548751222915,24.8405701831368,23.96083969536333,0.7437188341350915,0.1987772372461456,1.7052526141014503,3574.2409396701387,11.962777777777776,0.18,179.05374908352294,-4.0504713198632585,97.52454794660451,1553.0,1435.0,1200.0,1694.0,1471.0,999.0,60.0,292.0,1649232636.2599516,1649232637.3908584,2265ebcb-9811-4d08-8cb3-d8e04c78c768
-0.0864603733700303,0.0830945965638812,-0.2488341427472704,-0.0789883735248879,-0.3978063662945193,0.1823925368047898,-0.5584607165570762,-0.5748460198949927,-16.975513890603356,24.877363470266506,23.831517782296324,0.7358174115679079,0.2149579370571017,1.6970366622720492,3569.940673828125,11.9605,0.185,179.06438520588046,-4.0578454814256055,97.50448502482747,1553.0,1435.0,1200.0,1694.0,1471.0,999.0,60.0,292.0,1649232637.4992435,1649232638.6007144,2265ebcb-9811-4d08-8cb3-d8e04c78c768
-0.1259823222915858,0.0684919580490411,-0.3328088089955693,-0.0459649158239275,-0.4728550952679043,0.1703311370303753,-0.6555967419484781,-0.6815654269703578,-17.751468806226246,25.344896704726214,23.707116544343464,0.6327285363676989,0.157402235994197,2.049636107850616,3570.105875651041,11.951555555555554,0.18,179.0549147691413,-4.076124277157225,97.46772304943973,1553.0,1435.0,1200.0,1774.0,1471.0,999.0,60.0,292.0,1649232639.5150535,1649232640.6516144,aee2e569-5550-4e84-86e5-ac4c0931bace
-0.130394721609875,0.0654829294989823,-0.339269371381486,-0.0448017618867833,-0.4781019320616677,0.1742125308890374,-0.6607045065615653,-0.6914648816002279,-17.751579433593086,25.311110883711624,23.947744972479672,0.6383193950243613,0.1434313014267514,2.0728605954373505,3568.61900499132,11.952222222222222,0.1711111111111111,179.05022925937067,-4.077626349592197,97.42475432937118,1553.0,1435.0,1200.0,1774.0,1471.0,999.0,60.0,292.0,1649232640.760052,1649232641.8837454,aee2e569-5550-4e84-86e5-ac4c0931bace
-0.1193953307575106,0.0680620968248898,-0.3385360785972449,-0.0435121781585061,-0.4787214381014388,0.1711655734975561,-0.6619814477157775,-0.6889995002786949,-17.73545883073391,25.41484624573737,24.03917782136904,0.6293103669470324,0.1520697530995234,2.0749439616803578,3569.940185546875,11.951666666666666,0.1766666666666666,179.06470622477147,-4.081843706813465,97.40103611802336,1553.0,1435.0,1200.0,1774.0,1471.0,999.0,60.0,292.0,1649232641.9919465,1649232643.3154278,aee2e569-5550-4e84-86e5-ac4c0931bace
-0.12302386539822,0.0699838293432301,-0.380409626378045,-0.0004501968519714,-0.5168400240413621,0.1283943829950756,-0.7220861843623738,-0.7495593852476573,-18.0183690935118,25.825735515636545,23.46789391298982,0.4364658471165382,0.158393619778219,2.268955320172647,3575.069146050347,11.930444444444444,0.1744444444444444,179.07147570114887,-4.090284207944047,97.36524896241212,1553.0,1435.0,1200.0,1856.0,1471.0,999.0,60.0,292.0,1649232644.4282331,1649232645.571144,f09742e9-2d09-430a-95d3-94eb3ecdfae6
-0.1588414222812769,0.065128926138805,-0.3854036033027863,0.0009405306578057,-0.5201777709078191,0.1309609072912097,-0.7262583685218421,-0.7444263344801958,-18.08847199023517,25.816582409225816,23.30385195716736,0.4387252483588227,0.1416468767289358,2.2853972090890045,3574.572157118056,11.933444444444442,0.1711111111111111,179.07624469100932,-4.103806132657772,97.2969106430364,1553.0,1435.0,1200.0,1856.0,1471.0,999.0,60.0,292.0,1649232645.6788208,1649232646.790774,f09742e9-2d09-430a-95d3-94eb3ecdfae6
-0.1232640819887076,0.0666587263674141,-0.3841140193733079,0.001319819964711,-0.5199628402279741,0.1313022676627256,-0.7263974413085846,-0.7573221767842947,-18.12204886062102,25.92942313259276,23.61817682578597,0.4394821978618562,0.1448733209685681,2.284106597003003,3575.8974609375,11.930666666666664,0.1733333333333333,179.09325186204268,-4.102474293201489,97.2429308991159,1553.0,1435.0,1200.0,1856.0,1471.0,999.0,60.0,292.0,1649232646.8988771,1649232648.024484,f09742e9-2d09-430a-95d3-94eb3ecdfae6
-0.0245350688739325,0.1062059585076553,-0.1164748029126255,-0.1096096659091695,-0.244889533469535,0.1872727258191195,-0.3756811520566854,-0.4011441130391822,-15.778042449440775,20.58006648722879,24.99392659235034,0.7947493631262936,0.294949921019671,1.054867476471368,7229.205078125,11.642666666666669,8.01,59.97463434707471,-4.251044425731998,84.10623682313361,1553.0,1435.0,1350.0,1528.0,1471.0,999.0,60.0,292.0,1649232651.961314,1649232652.9456265,56a6cebd-5e2a-4b8f-954a-e540ce2f3a7e
-0.0551437175653184,0.1084816943616441,-0.1203182682261319,-0.1149070736394004,-0.2498835100518865,0.1847694164301327,-0.3786143233219388,-0.4049117209170606,-15.620821504833218,20.497702416855702,24.23611062497463,0.8002947071345224,0.3094962189411075,1.0703885659458137,7233.2705078125,11.640333333333334,8.003333333333334,-179.79234904435015,-4.217957139549557,78.65761050710684,1553.0,1435.0,1350.0,1528.0,1471.0,999.0,60.0,292.0,1649232653.057537,1649232654.1666229,56a6cebd-5e2a-4b8f-954a-e540ce2f3a7e
-0.0387837045681207,0.1075461140651511,-0.1122899772427057,-0.1067144239483575,-0.2428540139253736,0.1888025259926337,-0.3737467762174642,-0.4012831859200711,-15.771884623013367,20.82563850165247,25.7971576371731,0.7936235141524612,0.2927267132194867,1.0448604584792751,7239.38037109375,11.640333333333334,8.023333333333333,-179.68000153942234,-4.162100848586445,73.54128883130927,1553.0,1435.0,1350.0,1528.0,1471.0,999.0,60.0,292.0,1649232654.2753875,1649232655.6003754,56a6cebd-5e2a-4b8f-954a-e540ce2f3a7e
0.0585925069656305,0.3150300032669442,-0.1071569281842742,-0.2286180200386632,-0.2872055835241541,0.0945870626626194,-0.4079586790395266,-0.4228394663948295,-15.49261800189065,20.107106881441613,25.24187772693412,0.8524378539528387,1.08918446222879,1.170726181821841,7233.2705078125,11.622666666666667,8.04111111111111,-179.82539957083395,-4.084092878620776,67.24548531394933,1647.0,1435.0,1350.0,1528.0,1543.0,999.0,60.0,292.0,1649232656.510935,1649232657.6511557,7fafc4ad-4834-452f-98b2-5d418ee01798
0.0962938645657473,0.3137530626566689,-0.1031491041775545,-0.2252170587883575,-0.2824265374838213,0.0958766463093347,-0.4050760796509035,-0.4292621000110568,-15.648960669852263,20.180350140437405,25.71873390595906,0.8483464012612887,1.0811119349579843,1.1550581147499952,7233.2705078125,11.62077777777778,8.044444444444444,-179.89505687562936,-4.046651631433666,64.65159727432201,1647.0,1435.0,1350.0,1528.0,1543.0,999.0,60.0,292.0,1649232657.7591774,1649232658.8784077,7fafc4ad-4834-452f-98b2-5d418ee01798
0.0601071356026684,0.3130222986228895,-0.1064868503765513,-0.2263240779834088,-0.2873866310053973,0.0937677977519615,-0.408091683213258,-0.4260133599995079,-15.428393459669888,20.2353904891728,25.14628621203626,0.846323149145484,1.081809230402072,1.1698833762472003,7227.17236328125,11.620444444444445,8.05,179.9586383477031,-4.000106927879661,61.84715575206064,1647.0,1435.0,1350.0,1528.0,1543.0,999.0,60.0,292.0,1649232658.986246,1649232660.1067507,7fafc4ad-4834-452f-98b2-5d418ee01798
0.1862233587484312,0.5301123131654052,-0.0930726508757489,-0.3521399244014366,-0.3273596850417185,0.0016106084542144,-0.439831631293413,-0.4526136841456284,-15.46265357994738,19.87067968621633,25.747629569214773,0.9213722017662882,1.9072763953804648,1.2773726295483998,7233.2705078125,11.607111111111111,8.04,179.6052504313259,-3.9351729360546495,58.560657692017536,1745.0,1435.0,1350.0,1528.0,1614.0,999.0,60.0,292.0,1649232661.0182402,1649232662.3605072,dc83aaa9-73e8-4de3-b389-5b6d39e90daa
0.2155929934725533,0.5311869661233644,-0.091176204195186,-0.3498389021775322,-0.3264241045754042,0.0001440230836584,-0.4399580610860872,-0.4631452864667397,-15.498132874622218,20.00516673727967,25.99528225702628,0.913893625424446,1.909202371890932,1.2741127721089125,7233.2705078125,11.604555555555557,8.034444444444444,179.48152383124085,-3.907561801471135,56.87828799461483,1745.0,1435.0,1350.0,1528.0,1614.0,999.0,60.0,292.0,1649232662.4689066,1649232663.5984943,dc83aaa9-73e8-4de3-b389-5b6d39e90daa
0.2181595177174685,0.5300238123329143,-0.0904808403674441,-0.3507239107108573,-0.324780517225988,0.0015473935677401,-0.4374926799652104,-0.4649785186157731,-15.471359283607924,19.892963762708625,25.930330820436893,0.9183374896167528,1.905377146996408,1.2672407756289616,7233.2705078125,11.607,8.05,179.34936118862092,-3.879941038218165,55.65723762176378,1745.0,1435.0,1350.0,1528.0,1614.0,999.0,60.0,292.0,1649232663.7331638,1649232665.0215006,dc83aaa9-73e8-4de3-b389-5b6d39e90daa
0.2785297304811396,0.6446956041797716,-0.0841467085228818,-0.4145456715488743,-0.3517227060713071,-0.0611364889961525,-0.4649911616166002,-0.4885956056997562,-15.614868597192515,20.359913209980064,24.55186966530593,0.9245635800061992,2.3569663705075623,1.345534371900668,7239.38037109375,11.580666666666666,8.033333333333331,178.90989315704394,-3.813176081376898,53.32451856106987,1849.0,1435.0,1350.0,1528.0,1686.0,999.0,60.0,292.0,1649232666.9558089,1649232668.0954697,41f927f6-57fd-4a93-9a56-74a45a8a772c
0.2659246829784729,0.6438358818167995,-0.0802906002791665,-0.4173650560912441,-0.3495228276490918,-0.0589239678969792,-0.4608442641021973,-0.4891013249213466,-15.536996762464254,20.46601453254944,24.40678269799273,0.9368066890404444,2.3550700160599893,1.3310549916866032,7239.38037109375,11.585111111111113,8.041111111111112,178.7930164777865,-3.781753179485954,52.53708768059148,1849.0,1435.0,1350.0,1528.0,1686.0,999.0,60.0,292.0,1649232668.203849,1649232669.5273468,41f927f6-57fd-4a93-9a56-74a45a8a772c
0.2692877147109013,0.6472241993651946,-0.0792033042326062,-0.4140146664369721,-0.3477275246314109,-0.0627800760845448,-0.4611097667160626,-0.4817810394006565,-15.612155467200298,20.406009304588103,24.773213469467315,0.9202607772413712,2.3647179615436795,1.3284338875950257,7239.38037109375,11.58188888888889,8.05777777777778,178.6862302646629,-3.764927055897497,51.90986723510471,1849.0,1435.0,1350.0,1528.0,1686.0,999.0,60.0,292.0,1649232669.6362236,1649232670.7539513,41f927f6-57fd-4a93-9a56-74a45a8a772c
0.28444664342777,0.7306046256328103,-0.0751069794146062,-0.485017642483699,-0.3727353378909113,-0.0828697677031346,-0.4736136741285757,-0.4977111945570138,-15.393906558425408,20.77625513684711,24.199086993803824,1.0379585917341656,2.6899969616397064,1.3833719872177346,7233.2705078125,11.509222222222222,8.02111111111111,178.51522509514302,-3.741300577784776,51.28640756766595,1962.0,1435.0,1350.0,1528.0,1760.0,999.0,60.0,292.0,1649232671.332164,1649232672.2812092,3877221a-cec8-4c55-89fd-9f2ba00d8db4
0.3238548007232911,0.7258382237005468,-0.0782297949846903,-0.4890254672257121,-0.3745938559182428,-0.069758999784602,-0.4741826082631912,-0.498001983160281,-15.55622910531116,20.79439011345754,24.86036695634901,1.0764493349192628,2.6677038146158782,1.3911699802976196,7233.2705078125,11.509333333333334,8.016666666666666,178.46551194272402,-3.710684681717017,50.93590806239776,1962.0,1435.0,1350.0,1528.0,1760.0,999.0,60.0,292.0,1649232672.3900669,1649232673.630297,3877221a-cec8-4c55-89fd-9f2ba00d8db4
0.3035248947791075,0.7281898172254232,-0.0753724819815307,-0.4823626167180211,-0.3709653207752129,-0.0778378626636939,-0.4724631629974389,-0.4870531622411525,-15.494280748388356,20.704826319937087,24.92997117310893,1.042856117427614,2.6748276443885186,1.380406043202972,7234.628255208333,11.51511111111111,8.02,178.39328041552142,-3.68724442112292,50.50296134365834,1962.0,1435.0,1350.0,1528.0,1760.0,999.0,60.0,292.0,1649232673.7607696,1649232675.065707,3877221a-cec8-4c55-89fd-9f2ba00d8db4
-0.1902465802849914,-0.1550611718253331,-0.1249076692201795,0.0339639873155127,-0.1952784857477477,0.3075706472220418,-0.3352236180371071,-0.348561961261133,-15.975036704009238,21.72863426960796,24.608577213111364,0.7482413743741241,-0.6983431576375677,0.9096803127872464,7239.38037109375,11.62688888888889,8.06111111111111,178.79278576917457,-3.69853344316048,49.968250877565005,1459.0,1435.0,1350.0,1528.0,1394.0,999.0,60.0,292.0,1649232675.967315,1649232677.1111746,9a12ed3d-38d5-4d0c-a17f-513f9c13df20
-0.2038630680191615,-0.1564013275116524,-0.1265512563633533,0.0322318994490289,-0.1965554265670666,0.3047259775448762,-0.3373223525863482,-0.3596877829955489,-16.02453687648549,21.71618999178524,23.77728337937356,0.7454344231877156,-0.69554261855948,0.91526877131697,7239.38037109375,11.632111111111108,8.062222222222225,178.75492071823584,-3.687810473050383,49.770436456642905,1459.0,1435.0,1350.0,1528.0,1394.0,999.0,60.0,292.0,1649232677.2431424,1649232678.3313837,9a12ed3d-38d5-4d0c-a17f-513f9c13df20
-0.1689558048511063,-0.1536451582649394,-0.1283086302954066,0.031764109283805,-0.1980852269558214,0.3057121296979749,-0.3388142241622383,-0.3643530424664417,-16.04186475061697,21.64677105549285,24.22828936498788,0.7482211372990376,-0.6891349108398918,0.9228538884460818,7245.5,11.627666666666666,8.045555555555556,178.71548017032853,-3.683861248185908,49.5896633577,1459.0,1435.0,1350.0,1528.0,1394.0,999.0,60.0,292.0,1649232678.4400551,1649232679.5623024,9a12ed3d-38d5-4d0c-a17f-513f9c13df20
-0.3105065937217632,-0.3884884902787615,-0.1441629247667702,0.171380504040167,-0.158967852146162,0.4005344515425196,-0.3134144789735495,-0.3311020068486241,-16.270791412418955,22.5580239697812,23.30073386919435,0.6513474490934986,-1.5782783918638374,0.8259877111424196,7245.5,11.604555555555557,8.047777777777778,178.73685562679103,-3.6663126897971146,49.24582708142211,1364.0,1435.0,1350.0,1528.0,1312.0,999.0,60.0,292.0,1649232681.420933,1649232682.4381552,7ff348a7-5018-4ed7-882d-1d2105574559
-0.3158925028252308,-0.3930526059189818,-0.1460214425502538,0.1728976612665767,-0.159574715094011,0.4051870667621869,-0.3140971998481107,-0.3383970057991613,-16.32002824699555,22.57276515669956,23.515179650984184,0.6583947403828618,-1.5972531064601254,0.8300427122123419,7245.5,11.607,8.05,178.734452918023,-3.661800875531628,49.12527955494074,1364.0,1435.0,1350.0,1528.0,1312.0,999.0,60.0,292.0,1649232682.5466003,1649232683.6591432,7ff348a7-5018-4ed7-882d-1d2105574559
-0.2992543423682354,-0.3924204569437934,-0.1451364340912073,0.178321498275724,-0.158500061951972,0.4012930301083142,-0.3137305534583747,-0.3385234356054674,-16.22613364730107,22.557247064892383,23.7640239616008,0.6374376002156497,-1.5983641759880196,0.8273976569221465,7245.5,11.606666666666666,8.051111111111112,178.74404857489696,-3.6721765494951777,49.09021070755722,1364.0,1435.0,1350.0,1528.0,1312.0,999.0,60.0,292.0,1649232683.7670314,1649232684.8871875,7ff348a7-5018-4ed7-882d-1d2105574559
-0.4752699044509759,-0.6370494878136583,-0.1641388302440366,0.3188861110062278,-0.1237318722405407,0.5021586932361107,-0.2938431474237354,-0.3105445228493616,-16.60822666346523,23.918394477113377,22.418965456645115,0.5546871574598424,-2.519734273809207,0.7465384668441444,7239.38037109375,11.574666666666666,8.043333333333333,178.79577435639138,-3.681803653698441,49.047290178267815,1262.0,1435.0,1350.0,1528.0,1222.0,999.0,60.0,292.0,1649232686.0036995,1649232687.141348,eaa34f2a-ee56-4e87-8fa6-343fe0838821
-0.4502241607698725,-0.6355323300155314,-0.1622803124481761,0.3174068827728702,-0.1220377131979425,0.5011346121793999,-0.2918708427111189,-0.3105445227099651,-16.603766247928593,23.87480130016062,22.30638889923731,0.5555105443160582,-2.512778610715539,0.7389222926361274,7239.38037109375,11.570777777777778,8.04,178.8189545006146,-3.6914034845768944,48.97812730327731,1262.0,1435.0,1350.0,1528.0,1222.0,999.0,60.0,292.0,1649232687.2497177,1649232688.3613408,eaa34f2a-ee56-4e87-8fa6-343fe0838821
-0.4513620289862375,-0.6343312467837462,-0.161787236323128,0.3132852724961457,-0.1219997842803507,0.5063814472216289,-0.2900502537682847,-0.3148557788012769,-16.607649950536537,23.849542377879267,22.689030123040137,0.5765143739271873,-2.511099381497999,0.7362629093119915,7239.38037109375,11.572111111111113,8.044444444444444,178.84825752997375,-3.6959069034015255,49.02046726648726,1262.0,1435.0,1350.0,1528.0,1222.0,999.0,60.0,292.0,1649232688.4700754,1649232689.5991771,eaa34f2a-ee56-4e87-8fa6-343fe0838821
-0.4996329275755151,-0.7122878730471315,-0.1750244345156499,0.3329577436397008,-0.1277776252058444,0.5574843561425686,-0.2939442912906734,-0.3121501811606905,-16.8111582458896,25.085328747949568,21.5912770704896,0.6542287825093356,-2.795554699841901,0.75626251393876,7239.38037109375,11.525,8.02,178.9129394214138,-3.6975980392672727,49.078351601883305,1153.0,1435.0,1350.0,1528.0,1121.0,999.0,60.0,292.0,1649232691.3125668,1649232692.4666882,778940d4-1d7b-4b6b-86cb-fbab1610e6e3
-0.490744406644607,-0.7051471167003547,-0.1835119187011238,0.3236595931217108,-0.1357164039795222,0.552118171414445,-0.301087574412399,-0.323072198042079,-16.784783663907707,24.74209015493753,20.55033266150298,0.6602939520131149,-2.759132411766424,0.7882889667285302,7239.38037109375,11.520333333333332,8.03,178.93883039182757,-3.710247691905745,49.080180954216,1153.0,1435.0,1350.0,1528.0,1121.0,999.0,60.0,292.0,1649232692.575386,1649232693.6969178,778940d4-1d7b-4b6b-86cb-fbab1610e6e3
-0.4901527151530716,-0.7073298011828507,-0.18127664011788,0.321818775746186,-0.1341517089970783,0.557811556349794,-0.2977346563612995,-0.3219414098096808,-16.75770824544028,24.81935951545698,20.834963499410527,0.6779227119066275,-2.769663455527673,0.7784454468537888,7239.38037109375,11.521555555555556,8.03,178.94635118901363,-3.714446218674925,49.169281151393776,1153.0,1435.0,1350.0,1528.0,1121.0,999.0,60.0,292.0,1649232693.805029,1649232694.9230185,778940d4-1d7b-4b6b-86cb-fbab1610e6e3
-0.0583929628128866,0.1061301006429253,-0.1145404272908224,-0.1025169553186091,-0.2423988666828456,0.178713430601451,-0.3767431623373744,-0.3991844511190596,-15.839663267807236,20.64306192001576,24.69816655821699,0.7599518256644414,0.2969732916056324,1.0499173275933724,7239.38037109375,11.635,8.07,178.73661125780075,-3.706070035159028,49.26243203020432,1553.0,1435.0,1350.0,1528.0,1471.0,999.0,60.0,292.0,1649232695.8355565,1649232696.9726636,17d307ea-fe91-485b-a9a9-8b5c9c38e4b8
-0.0370769025922133,0.1098977077822673,-0.1167023765443827,-0.1045398317861966,-0.2443458854043476,0.1776640635260413,-0.3773879543242658,-0.3978948674989437,-15.735339795354708,20.457550711233992,24.799784364907104,0.760888156824991,0.3095739543027319,1.0571648188879077,7245.5,11.633444444444445,8.078888888888889,178.74878720836116,-3.707647903721039,49.33211362011679,1553.0,1435.0,1350.0,1528.0,1471.0,999.0,60.0,292.0,1649232697.081093,1649232698.4090338,17d307ea-fe91-485b-a9a9-8b5c9c38e4b8
-0.0567873046532257,0.1035888622773812,-0.1207354864867911,-0.1013285153829246,-0.2462296892216544,0.1790927199009768,-0.3809659175072953,-0.3996016696238701,-15.83713194526231,20.463247660305115,24.515839808093325,0.756595037262605,0.2884980383381673,1.0691132413688744,7248.224392361111,11.633333333333333,8.065555555555555,178.76518725146826,-3.7205428739872,49.41071012471594,1553.0,1435.0,1350.0,1528.0,1471.0,999.0,60.0,292.0,1649232698.5180178,1649232699.6380415,17d307ea-fe91-485b-a9a9-8b5c9c38e4b8
-0.0466602795812111,0.1031842870154975,-0.1516602108345183,-0.413660662971614,-0.3085342891142184,0.4809690654238132,-0.3288262705954577,-0.3518491358099088,-15.910470857851786,19.88395324056271,26.575627945352096,2.134407663681139,0.3057283450641981,1.1221965185052765,7251.6298828125,11.635555555555555,8.065555555555555,178.78408107253233,-3.638804672097319,49.52635661101287,1553.0,1537.0,1350.0,1528.0,1471.0,999.0,60.0,292.0,1649232700.3396027,1649232701.678193,ca99e953-9992-47e0-9709-97c2e8f440ce
-0.0502635281922848,0.1025900671015482,-0.1534934426296837,-0.4133951604122562,-0.3101525903947667,0.4837631631258655,-0.3288389135359726,-0.3495733995194252,-15.79785152744748,19.81949013470154,26.917678968507595,2.1396800637584104,0.2995209781601312,1.127435675289379,7251.6298828125,11.635666666666664,8.051111111111112,178.81515387979644,-3.62566054222206,49.56893145683928,1553.0,1537.0,1350.0,1528.0,1471.0,999.0,60.0,292.0,1649232701.7862346,1649232702.9167376,ca99e953-9992-47e0-9709-97c2e8f440ce
-0.0493557624038938,0.1039054424178601,-0.1521785729159629,-0.4096432297260435,-0.3087927115859984,0.4828771433639924,-0.3295150600786871,-0.3454249853025011,-15.908199887275428,19.90559956591618,27.467768656875705,2.129894065130387,0.2999828959868353,1.1256092483051474,7251.6298828125,11.636333333333331,8.056666666666667,178.83712432162667,-3.6318567570278617,49.60976877843184,1553.0,1537.0,1350.0,1528.0,1471.0,999.0,60.0,292.0,1649232703.029044,1649232704.145428,ca99e953-9992-47e0-9709-97c2e8f440ce
-0.0057728903462431,0.1051313054719253,-0.1826734363435728,-0.709759276773011,-0.3726974089082841,0.7717827983121345,-0.2829448995762031,-0.3009232156386418,-15.891520445633306,19.630905259264548,29.48601041522056,3.453082613461282,0.321587787680927,1.1883994662454809,7251.6298828125,11.614555555555556,8.063333333333333,178.83746583108515,-3.556497548651884,49.75356247429839,1553.0,1645.0,1350.0,1528.0,1471.0,999.0,60.0,292.0,1649232705.817611,1649232707.0126746,335b092a-f94b-41b0-abcd-c36eb01f5027
0.0016485374008188,0.1085449092502856,-0.1827113652893424,-0.7122752302299643,-0.3738732060106352,0.7681289782572894,-0.283501190654444,-0.3136420528077209,-15.81698339952306,19.602999832512698,29.11059789168186,3.450338166588568,0.337497484110325,1.1907697641815005,7251.6298828125,11.618,8.045555555555556,178.82948817013457,-3.551862933276946,49.83870950976653,1553.0,1645.0,1350.0,1528.0,1471.0,999.0,60.0,292.0,1649232707.1259975,1649232708.243185,335b092a-f94b-41b0-abcd-c36eb01f5027
-0.0344850921820046,0.1055738096649753,-0.1808907764278625,-0.7132866687465125,-0.3709147488164351,0.7714414379610586,-0.2790255761315541,-0.2996842037073219,-15.7665552586321,19.48915173857118,29.060615939570773,3.4594166205495323,0.3266781396148739,1.177529378162167,7251.6298828125,11.611333333333334,8.046666666666667,178.84796155510972,-3.546800767032712,49.89602769837138,1553.0,1645.0,1350.0,1528.0,1471.0,999.0,60.0,292.0,1649232708.3773134,1649232709.465594,335b092a-f94b-41b0-abcd-c36eb01f5027
-0.0095404976169876,0.1140572471908541,-0.1927878190378531,-0.9733654825714144,-0.4187557838311886,1.020773570200818,-0.2292754548526434,-0.2606047560304053,-15.613286274605308,19.76324927645681,31.78122970544505,4.60810876305194,0.3645703650164591,1.1906519810205165,7251.6298828125,11.605333333333332,8.064444444444446,178.8534970439771,-3.4827662968918305,49.98842232345882,1553.0,1761.0,1350.0,1528.0,1471.0,999.0,60.0,292.0,1649232710.3743412,1649232711.5441668,c014ed57-10fb-4838-8e09-e3223f8bb775
-0.0120564501098396,0.114702039012545,-0.1921430271323559,-0.9726195464954396,-0.4165811912945724,1.019167912212987,-0.2298317458982356,-0.2583543057451772,-15.833666977706818,19.715830785736216,31.74254393264222,4.602418648789476,0.3688396293317749,1.1874985662933109,7251.6298828125,11.599333333333334,8.043333333333331,178.87403921736086,-3.4785377931812933,49.99573935333467,1553.0,1761.0,1350.0,1528.0,1471.0,999.0,60.0,292.0,1649232711.652392,1649232712.619445,c014ed57-10fb-4838-8e09-e3223f8bb775
0.0120880966632152,0.1111503739330242,-0.1961741143700412,-0.9711848204985624,-0.4202410811162568,1.0205009876416369,-0.231741341417892,-0.2563820010828277,-15.646948415290476,19.66961094676692,31.601924079928786,4.601742312556016,0.355010509239325,1.2002311836361497,7251.6298828125,11.6,8.08,178.88757209883636,-3.477720589506222,49.97476611912329,1553.0,1761.0,1350.0,1528.0,1471.0,999.0,60.0,292.0,1649232712.7287033,1649232713.978614,c014ed57-10fb-4838-8e09-e3223f8bb775
