raw_voltage_G-,raw_voltage_G0,raw_voltage_G1,raw_voltage_G2,raw_voltage_G3,raw_voltage_G4,raw_voltage_G5,raw_voltage_G6,load_x,load_y,load_z,load_l,load_m,load_n,rpm,voltage,current,roll,pitch,yaw,aileron1_pwm,elevator_pwm,throttle_pwm,rudder_pwm,aileron2_pwm,pbaro,pdiff,Tt,sample_start_time,sample_end_time,uid
0.0683528853000351,0.193796501785699,0.0686563167429893,-0.1851388170326124,-0.1134152021604842,0.1932402108109225,-0.1901580794382048,-0.2173910551787362,-13.153847833389593,21.65492702282427,29.55296979489286,0.9969257235962375,0.5855414335072845,0.3770556303769617,3261.6165635850693,11.963333333333336,0.1977777777777778,179.22331232421806,-8.795539865735824,110.69712328302658,1553.0,1435.0,1200.0,1528.0,1471.0,998.0,60.0,292.7,1649237199.7287345,1649237200.8028018,d27f92ab-4f06-4495-b51e-eaeae77252f8
0.068706888643496,0.1954653747019356,0.065773717962708,-0.1839377340952246,-0.1155645084134186,0.1932528537873891,-0.1935716835896493,-0.2175806997048901,-13.237830468967267,21.61635568219417,29.920901410755285,0.993861932668646,0.5888028868762312,0.3894611070267378,3513.732231987847,11.96511111111111,0.1955555555555555,179.33699854622316,-8.799467129644842,109.5207818106626,1553.0,1435.0,1200.0,1528.0,1471.0,998.0,60.0,292.7,1649237200.9117875,1649237202.028963,d27f92ab-4f06-4495-b51e-eaeae77252f8
0.038831533627752,0.1950481564733157,0.064736993838387,-0.184772170656481,-0.1162725151795566,0.191988556123061,-0.1933693959390466,-0.2143567401877869,-13.144891929571973,21.521034864549502,29.57147451237172,0.9922107385178448,0.5897126281429489,0.3911040723153097,3556.446180555556,11.964333333333334,0.19,179.4073707441517,-8.80524679777501,108.39472039641876,1553.0,1435.0,1200.0,1528.0,1471.0,998.0,60.0,292.7,1649237202.1380374,1649237203.283353,d27f92ab-4f06-4495-b51e-eaeae77252f8
0.1389639116446473,0.372745189905479,0.093373336860048,-0.2695433419273988,-0.1307740109369543,0.0951939255663654,-0.203230919111224,-0.2244205510512118,-12.76832713596279,21.11070326806236,29.54104417842404,0.9648137360852784,1.2660345907644175,0.4070087608637679,3559.562255859375,11.949333333333335,0.1855555555555555,179.3133600204157,-8.815218115053321,106.52876128540537,1647.0,1435.0,1200.0,1528.0,1543.0,998.0,60.0,292.7,1649237205.3517077,1649237206.5261872,b5b299e0-814b-4cf2-ae5c-e612e611b949
0.1400512076490491,0.3718854675241893,0.0939169848856163,-0.271642076413662,-0.1309004407010703,0.0988983178235778,-0.2018275484796086,-0.2158865406650443,-12.72835844520908,21.151922844424764,29.679870753361936,0.9782147994876766,1.2615903667083734,0.4045262179462838,3559.562255859375,11.951,0.18,179.2448183131847,-8.805259604379705,105.98138157731157,1647.0,1435.0,1200.0,1528.0,1543.0,998.0,60.0,292.7,1649237206.6358764,1649237207.7605276,b5b299e0-814b-4cf2-ae5c-e612e611b949
0.1455382595862573,0.3728463337165104,0.0941572014519836,-0.2708329257671202,-0.1307613679396797,0.0964455802901217,-0.2017011186945954,-0.2248377694399379,-12.675212892364094,21.12051808930168,29.572525966584163,0.9706913411427626,1.2656845141916653,0.4038513594370835,3554.4781358506943,11.94988888888889,0.1844444444444444,179.19320788599626,-8.797982607001487,105.52335440393986,1647.0,1435.0,1200.0,1528.0,1543.0,998.0,60.0,292.7,1649237207.8921604,1649237208.986915,b5b299e0-814b-4cf2-ae5c-e612e611b949
0.2661775425114641,0.5301249561420764,0.1261186471487358,-0.3490550373304793,-0.1393080211060292,0.0071608755218655,-0.206328448804062,-0.2325626294077007,-12.377932828745012,20.96483180185237,28.65376349776845,0.947069197767681,1.873268227346503,0.3958344023820339,3554.641927083333,11.937333333333337,0.1833333333333333,179.0384373172236,-8.784537664211534,104.92768601732398,1745.0,1435.0,1200.0,1528.0,1614.0,998.0,60.0,292.7,1649237209.900977,1649237211.0352638,b2f2343d-4408-47b6-925f-d3c64f393dc6
0.2667338334785956,0.5279756502253155,0.1256129280779409,-0.3498389020513776,-0.1396746674616457,0.0123318532583955,-0.206062946255039,-0.2328534177537723,-12.417630363159672,21.01323765670154,28.985375003690844,0.9607858668349348,1.862614199934979,0.3967982611290416,3549.244873046875,11.943,0.19,178.97943814317307,-8.772503724667617,104.64100476402074,1745.0,1435.0,1200.0,1528.0,1614.0,998.0,60.0,292.7,1649237211.1441548,1649237212.2634776,b2f2343d-4408-47b6-925f-d3c64f393dc6
0.2362136882374625,0.5256619856194237,0.1264726505062506,-0.3470195176569619,-0.1388402309125506,0.0122433524163277,-0.2055825130713844,-0.2259124225657622,-12.398193757565185,21.090185873162905,29.023701302698512,0.9547959539721534,1.8531679786731687,0.3935866319368453,3548.2666286892363,11.944333333333333,0.1844444444444444,178.904922297148,-8.759778323333974,104.39320322420296,1745.0,1435.0,1200.0,1528.0,1614.0,998.0,60.0,292.7,1649237212.3725374,1649237213.414952,b2f2343d-4408-47b6-925f-d3c64f393dc6
0.2962298974345344,0.6503343714432712,0.150026516355043,-0.3984385152884265,-0.1492074729440879,-0.0766494226353389,-0.2184530651592862,-0.236026805527237,-12.15111713882372,21.297378794920537,27.060012764924483,0.8733883611533282,2.344248082618752,0.4058782685205199,3550.715087890625,11.922,0.18,178.70592094113013,-8.730581446498157,104.0539454513987,1849.0,1435.0,1200.0,1528.0,1686.0,998.0,60.0,292.7,1649237214.402733,1649237215.7518957,28bf8358-c4c6-442d-9a95-7ddbea417f73
0.2963436842196,0.6449990356022762,0.1450831124201568,-0.3957202746476941,-0.1520774289874073,-0.0738426815688959,-0.2227263919094338,-0.2481008499658674,-12.254782109319306,21.29119611229289,27.036841672121128,0.873220788004326,2.324528245438418,0.4218855817810967,3546.307861328125,11.92,0.18,178.65626091240472,-8.727822903847118,103.8736922057426,1849.0,1435.0,1200.0,1528.0,1686.0,998.0,60.0,292.7,1649237215.8643963,1649237216.974551,28bf8358-c4c6-442d-9a95-7ddbea417f73
0.2992262828284745,0.6494620061044115,0.1484335012751483,-0.4000821026397743,-0.1500545524910604,-0.0741208270773576,-0.2193760025908703,-0.2472411274253391,-12.225447363083283,21.258660947271515,27.07397522641452,0.8824068063289741,2.3414792398065005,0.4103811776514256,3542.400092230903,11.919444444444444,0.1711111111111111,178.60247089596112,-8.721332516588312,103.70355295242751,1849.0,1435.0,1200.0,1528.0,1686.0,998.0,60.0,292.7,1649237217.0828192,1649237218.2099478,28bf8358-c4c6-442d-9a95-7ddbea417f73
0.3812791988270864,0.7624017101484881,0.1743263176783517,-0.450616093204983,-0.1577667691563286,-0.143480203913289,-0.225545776117193,-0.2432585892567326,-11.92468533963604,21.6692577343351,26.40001187680983,0.8445944747681574,2.776786643043727,0.40668905627315,3541.2614474826387,11.86722222222222,0.17,178.46825160749114,-8.718694925203826,103.34181626815484,1962.0,1435.0,1200.0,1528.0,1760.0,998.0,60.0,292.7,1649237220.3417542,1649237221.3904543,657464fe-ca70-49c0-9e41-7813152ca6ff
0.3623779494017127,0.7631223597813204,0.1733022365614356,-0.4552813529522038,-0.1588414223018485,-0.1406987487909885,-0.2254699182621874,-0.2484169244476629,-11.947663198205264,21.611062014627183,26.28233552369936,0.8609013551888812,2.781203596587697,0.40932883933527,3537.5275065104165,11.876666666666669,0.17,178.43329166367937,-8.725245930391514,103.17330867114146,1962.0,1435.0,1200.0,1528.0,1760.0,998.0,60.0,292.7,1649237221.4991577,1649237222.7167222,657464fe-ca70-49c0-9e41-7813152ca6ff
0.4028986880783596,0.7621994225363001,0.1732769505997177,-0.4511976704068268,-0.1580322717252789,-0.1428606980498176,-0.2255331331933595,-0.2491881461599902,-11.919284181071164,21.577543120319262,26.380866672956927,0.8466379110588088,2.7761629217989685,0.408447922152052,3529.595513237847,11.878,0.17,178.39587133394662,-8.729734218449858,103.0172175991292,1962.0,1435.0,1200.0,1528.0,1760.0,998.0,60.0,292.7,1649237222.826721,1649237223.9517488,657464fe-ca70-49c0-9e41-7813152ca6ff
-0.0863086576376907,-0.0293520432953083,0.0340398452583381,-0.0905566981683725,-0.0954495305899861,0.3214273492825455,-0.1745819301722661,-0.2020045501841043,-13.641680234430352,22.1836403028258,28.99795467577991,1.0730724521746942,-0.2568600572551904,0.3500820409405959,3532.666422526041,11.962,0.1866666666666666,178.78958165154393,-8.722476857865503,102.83630713749302,1459.0,1435.0,1200.0,1528.0,1394.0,998.0,60.0,292.7,1649237225.8712757,1649237227.2147882,640b116f-bc54-4650-8578-31b7329e2d04
-0.0599101201581939,-0.0294658300939762,0.0358225050498476,-0.091542850447415,-0.0936668707164144,0.3246007363326147,-0.1708269656295064,-0.1887799948019292,-13.543988389059296,22.113783264986576,29.325577249340828,1.0821550688583108,-0.2606487335530816,0.3404144195398703,3543.8663736979165,11.963333333333336,0.19,178.73988064168344,-8.719429455130818,102.91948745793516,1459.0,1435.0,1200.0,1528.0,1394.0,998.0,60.0,292.7,1649237227.3227704,1649237228.4291694,640b116f-bc54-4650-8578-31b7329e2d04
-0.0847788573145724,-0.0299083343073349,0.0328387624096587,-0.0904302683894684,-0.0964609688304087,0.3244363776450728,-0.1740382821165452,-0.1913085904869628,-13.543142750079044,22.125989763806004,29.36219306721389,1.0792146307417336,-0.2629648327120895,0.3528629194255418,3550.715087890625,11.96,0.1822222222222222,178.7222481288861,-8.707788536055393,102.99294690136855,1459.0,1435.0,1200.0,1528.0,1394.0,998.0,60.0,292.7,1649237228.5382109,1649237229.5879967,640b116f-bc54-4650-8578-31b7329e2d04
-0.1998173149102574,-0.2226252480553537,0.0084883881498621,-0.0121828798848226,-0.0788240147905139,0.4374519418196827,-0.157349550867707,-0.177578316135875,-13.97464359915002,22.9074937752445,28.791420588477788,1.1603287632508144,-0.9888219895730068,0.3142115806152488,3552.6774088541665,11.939666666666666,0.18,178.77991921059805,-8.706066190019689,103.0494568509216,1364.0,1435.0,1200.0,1528.0,1312.0,998.0,60.0,292.7,1649237230.246438,1649237231.3186858,4ee8b6c3-5fe3-4dbd-8843-9a63a8340166
-0.1906385126361716,-0.2242309063364905,0.0078688822587985,-0.0129793874640803,-0.0798733819452529,0.4396391766831517,-0.1572989789591306,-0.1837228035107812,-13.918365190274852,22.947335237734087,28.77147615545852,1.1672989144575132,-0.9950062726493332,0.3162069143501774,3553.6591796875,11.940222222222223,0.1855555555555555,178.77630831725685,-8.70642733627205,103.02170351559413,1364.0,1435.0,1200.0,1528.0,1312.0,998.0,60.0,292.7,1649237231.4280462,1649237232.5393536,4ee8b6c3-5fe3-4dbd-8843-9a63a8340166
-0.2042044284178283,-0.22476191143128,0.0056184322821278,-0.0121828798900166,-0.0816433988423,0.4383369501445409,-0.160004576289072,-0.1784506815795175,-13.9566281504912,22.94279432074569,28.597939638181643,1.1623868286119052,-0.9954298096727008,0.3252106261937403,3556.6083984375,11.94,0.18,178.7806796383257,-8.709213484270986,103.04338253601972,1364.0,1435.0,1200.0,1528.0,1312.0,998.0,60.0,292.7,1649237232.6480224,1649237233.7728758,4ee8b6c3-5fe3-4dbd-8843-9a63a8340166
-0.2947787278460877,-0.4214740243662461,-0.0140413975719479,0.06946546726978,-0.060845700491853,0.5468768993088636,-0.1413688265236015,-0.1578805559839649,-14.37130317696371,23.99408431249271,27.302289635633063,1.2276868487891863,-1.730082710283676,0.2715134376163571,3556.6083984375,11.907374999999998,0.17375,178.84741570915855,-8.705381748146609,103.03929808289608,1262.0,1435.0,1200.0,1528.0,1222.0,998.0,60.0,292.7,1649237235.9112587,1649237237.051666,e98da841-9915-4f23-83e7-407bbf543681
-0.3150833521475041,-0.4212590937105608,-0.0136621082509318,0.0694781102516788,-0.0613261336404444,0.5461056777743581,-0.1414193984432161,-0.1642020450385133,-14.31624270277577,24.051440434019,27.22457527717048,1.2263397262138798,-1.7289540527295575,0.2716542688079867,3553.986870659722,11.903555555555554,0.1711111111111111,178.86211826052943,-8.708125017735753,102.9405153336599,1262.0,1435.0,1200.0,1528.0,1222.0,998.0,60.0,292.7,1649237237.1651497,1649237238.2739718,e98da841-9915-4f23-83e7-407bbf543681
-0.315083352147921,-0.4222452461401135,-0.0109817970355324,0.0706033352167552,-0.057217165901354,0.5452080264820255,-0.1381575100949337,-0.16086429879571,-14.379050484506196,23.955613304620808,27.131326338646293,1.2212360837919145,-1.731351969891608,0.2575143413556576,3553.6591796875,11.90488888888889,0.17,178.8905424722154,-8.71330628540364,102.86328183125512,1262.0,1435.0,1200.0,1528.0,1222.0,998.0,60.0,292.7,1649237238.3820803,1649237239.509278,e98da841-9915-4f23-83e7-407bbf543681
-0.337170636779524,-0.521404139990156,-0.0244718540013219,0.1183179303791008,-0.054562140607682,0.6002934727059634,-0.1364886370051314,-0.160763154975795,-14.42061117161711,24.97354995193936,27.338721449028142,1.2434764496778337,-2.111514713320948,0.258176211502265,3547.1237521701387,11.857,0.1655555555555555,178.92972499075404,-8.73532624610533,102.73455629160752,1153.0,1435.0,1200.0,1528.0,1121.0,998.0,60.0,292.7,1649237241.8449838,1649237242.986394,9f221d29-573b-4957-91db-4ff4377e220c
-0.3749225732157904,-0.5271314101961181,-0.0244339250583431,0.1261818620203636,-0.0516795417072764,0.595792573272898,-0.1354645557831291,-0.1573495508772423,-14.37901060308537,24.85442855855121,26.93610125431616,1.2147922037517866,-2.130689318746525,0.2516263058340331,3536.553765190972,11.864222222222224,0.1688888888888889,178.96614355940855,-8.74148214382228,102.54666917118908,1153.0,1435.0,1200.0,1528.0,1121.0,998.0,60.0,292.7,1649237243.095111,1649237244.212578,9f221d29-573b-4957-91db-4ff4377e220c
-0.3449516319550843,-0.5237607915739906,-0.0163393851720088,0.1269551064756928,-0.0451350307875478,0.5948777275328134,-0.1291815014315264,-0.1536249295778862,-14.412188071686964,24.96845894102833,27.430625239776774,1.2122132776943242,-2.121775699630704,0.2237750714106638,3534.7706705729165,11.85988888888889,0.1611111111111111,178.99931095801813,-8.740252330316727,102.42887496985313,1153.0,1435.0,1200.0,1528.0,1121.0,998.0,60.0,292.7,1649237244.3206518,1649237245.441636,9f221d29-573b-4957-91db-4ff4377e220c
0.0681000257588731,0.187942803589347,0.0673667330840206,-0.1820918592580157,-0.1122773341436157,0.1929241363943376,-0.1888305667069038,-0.2127257959139992,-13.075364850578651,21.500995517648803,29.09339407360616,0.9882238760532396,0.5666447219921381,0.3741618504842227,3539.96337890625,11.963,0.1833333333333333,178.727622728853,-8.74952412238754,102.29821800449024,1553.0,1435.0,1200.0,1528.0,1471.0,998.0,60.0,292.7,1649237247.375465,1649237248.929496,4f5da7e5-674c-4e91-b80b-a56252763e53
0.0651036401786618,0.1867290778289198,0.0638014135355572,-0.1805241299522663,-0.1154001496976342,0.1939229315485819,-0.1932935380711273,-0.2180990618064106,-13.166937382746443,21.56503264864372,29.240263988831543,0.9871561863094088,0.5610209787165721,0.3896131926698904,3556.609700520833,11.962666666666664,0.1866666666666666,178.68041246130986,-8.739678689290182,102.62348299641486,1553.0,1435.0,1200.0,1528.0,1471.0,998.0,60.0,292.7,1649237249.059342,1649237250.1578777,4f5da7e5-674c-4e91-b80b-a56252763e53
0.0299561636170611,0.1857302826711813,0.0675058058273581,-0.1809792771739079,-0.1110762512461041,0.1943527927568195,-0.1887294228871445,-0.2053675825689844,-13.18312954952906,21.50786038337433,29.135341634516053,0.9889294186569194,0.5586093254467147,0.3719153768385047,3559.562255859375,11.96322222222222,0.19,178.64333667667523,-8.741512215627376,102.85173198136862,1553.0,1435.0,1200.0,1528.0,1471.0,998.0,60.0,292.7,1649237250.2661912,1649237251.3978891,4f5da7e5-674c-4e91-b80b-a56252763e53
0.0737767224647711,0.1853130644406251,0.0517652992980452,-0.3979075101110919,-0.148120176824661,0.406615723069461,-0.1425825524176653,-0.1726981265640065,-12.975830271301676,20.88923685668497,30.97743514102671,1.9507627979634512,0.5649510147792064,0.3791677187795551,3560.0552571614585,11.958666666666668,0.18,178.6272553757294,-8.683130983969214,103.11195535855694,1553.0,1537.0,1200.0,1528.0,1471.0,998.0,60.0,292.7,1649237252.291393,1649237253.4286754,418c8e16-ff27-4e9d-b6aa-686ca0296653
0.0667340784741328,0.1869131595688876,0.0481155246413952,-0.3969547351632401,-0.150916297868905,0.4037745934719396,-0.1463142538391419,-0.1717701318241348,-12.982708398863648,20.78653686817986,30.894049582042463,1.941349874095248,0.5713896451962737,0.393386026693981,3563.34459092882,11.96288888888889,0.1877777777777777,178.6344877871505,-8.670848880885455,103.24424246240174,1553.0,1537.0,1200.0,1528.0,1471.0,998.0,60.0,292.7,1649237253.537918,1649237254.6543,418c8e16-ff27-4e9d-b6aa-686ca0296653
0.0449886635332525,0.1869313654542189,0.0570879926796557,-0.3971995032461839,-0.1435307757767684,0.4050353510512711,-0.1377529347979609,-0.1526210771185625,-12.940964696572696,20.91184646391279,31.10941696565959,1.946067906520396,0.5698547489730044,0.3591882993462189,3563.015055338541,11.961,0.18,178.6361938166232,-8.665872234301453,103.397691769025,1553.0,1537.0,1200.0,1528.0,1471.0,998.0,60.0,292.7,1649237254.7630384,1649237255.8862145,418c8e16-ff27-4e9d-b6aa-686ca0296653
0.0603751667374365,0.1803570175787052,0.0398556147783037,-0.6112830916342017,-0.1821930031000748,0.6189545051879957,-0.0960437505590751,-0.1089775170171027,-12.94842837144637,20.604639851933428,32.67644236425534,2.907044402212219,0.5566218878273683,0.3756107006049243,3562.3567979600693,11.952,0.18,178.6499407106927,-8.611155019678051,103.5244107508764,1553.0,1645.0,1200.0,1528.0,1471.0,998.0,60.0,292.7,1649237256.7961595,1649237257.9358628,8d1facbd-ea37-4ada-9872-390435e90319
0.0783914090898709,0.1835556906825499,0.0339007725068555,-0.6133312546069957,-0.1878570573804333,0.6181579977048395,-0.1020870939628105,-0.129787858644383,-12.98052791794659,20.513043942278628,32.6957090082491,2.908957898789578,0.568548403710653,0.4004582860062661,3562.521240234375,11.948666666666668,0.18,178.67424252375963,-8.605996898762353,103.5834493882422,1553.0,1645.0,1200.0,1528.0,1471.0,998.0,60.0,292.7,1649237258.0444095,1649237259.1681223,8d1facbd-ea37-4ada-9872-390435e90319
0.0660897923591097,0.184794702397483,0.0382752426353579,-0.6111313758597482,-0.1846078119448897,0.6164259100015828,-0.0983321295352546,-0.1126945524465534,-12.88381430920185,20.575752172272107,32.93991633680195,2.900824410035858,0.5703540618257282,0.3852790824068167,3563.2622680664062,11.950499999999998,0.18,178.705025047984,-8.60544348742804,103.64046230533664,1553.0,1645.0,1200.0,1528.0,1471.0,998.0,60.0,292.7,1649237259.2761085,1649237260.4057734,8d1facbd-ea37-4ada-9872-390435e90319
0.066241508111573,0.1886760962316297,0.030069950397605,-0.7048032276947698,-0.2079088211110804,0.7039785183097265,-0.089039540846496,-0.105298410518338,-12.989408477347812,21.00094387896653,33.663954585423134,3.311339900017188,0.5902619345129084,0.4153911159984196,3570.9322916666665,11.937,0.1733333333333333,178.71314728127203,-8.581054945188235,103.67942113517994,1553.0,1761.0,1200.0,1528.0,1471.0,998.0,60.0,292.7,1649237262.3254,1649237263.4705791,80ed270b-d1e5-43f7-a360-2149e52d23cf
0.0705527633104857,0.1914575511026041,0.0337490567770402,-0.710770715622174,-0.205734228825985,0.7053818886477695,-0.0837674190983732,-0.0957656051522328,-12.855763794426688,20.93718654815731,33.504324083225384,3.327757018459596,0.6021298582264134,0.40008655390787,3569.114664713541,11.938111111111112,0.1722222222222222,178.73352856575534,-8.595404318860789,103.68154684183165,1553.0,1761.0,1200.0,1528.0,1471.0,998.0,60.0,292.7,1649237263.6054957,1649237264.6943464,80ed270b-d1e5-43f7-a360-2149e52d23cf
0.0598441616917713,0.1897254632966724,0.0324468301085972,-0.7059031671102561,-0.2058985875468225,0.7019809281100898,-0.0859167253455749,-0.1090660178061581,-12.886839958356935,20.933953507637924,33.40375028535527,3.309016659736297,0.5960628998718096,0.4048164892920223,3565.4853515625,11.934888888888889,0.1755555555555555,178.76217741477402,-8.58987727286617,103.68006924424115,1553.0,1761.0,1200.0,1528.0,1471.0,998.0,60.0,292.7,1649237264.8025277,1649237265.9218895,80ed270b-d1e5-43f7-a360-2149e52d23cf
0.0555455494731604,0.1887772400492164,0.0258219100362511,-0.7258664361856814,-0.2178588451805042,0.722411977227065,-0.0924025729473421,-0.116310444123936,-13.031435582642915,21.38536789808684,33.507618939972964,3.4025665743598457,0.5946548899988295,0.4389420875210928,3558.0849609375,11.890666666666666,0.1666666666666666,178.78514202858338,-8.591293114162871,103.6344056350901,1553.0,1887.0,1200.0,1528.0,1471.0,998.0,60.0,292.7,1649237267.8314283,1649237268.9993808,33f6ffa6-291e-435d-9384-64a1af188b25
0.0540031062579679,0.1862486447136341,0.0251644752184803,-0.7245262800096712,-0.2182128485719451,0.7226395507916739,-0.0924531448532137,-0.1129979839078285,-12.97817843334382,21.39218149538677,33.36019187599344,3.400070638413671,0.5858942572377063,0.4399247176022184,3556.6083984375,11.885777777777776,0.1577777777777777,178.81512504121991,-8.600692118506977,103.51400609604076,1553.0,1887.0,1200.0,1528.0,1471.0,998.0,60.0,292.7,1649237269.1150331,1649237270.22251,33f6ffa6-291e-435d-9384-64a1af188b25
0.0589465103123899,0.1849337751390282,0.0244185395602633,-0.7220103264876528,-0.2179852749592344,0.7225889788861937,-0.0933128673428155,-0.1152990060495878,-13.030039995546922,21.37986909461808,33.49336768879903,3.3941579820531484,0.5797921615348804,0.4418751868722381,3553.6591796875,11.896666666666668,0.1666666666666666,178.82574977992886,-8.602688715610606,103.41290487703633,1553.0,1887.0,1200.0,1528.0,1471.0,998.0,60.0,292.7,1649237270.3314507,1649237271.4591558,33f6ffa6-291e-435d-9384-64a1af188b25
0.062992263002252,0.1911541196618784,0.0795419199908352,-0.0072774046392444,-0.0861190129806374,0.0238243196385907,-0.231108686702074,-0.2576083700320779,-13.384219668055362,22.38818819435173,28.26144247679952,0.220094892313963,0.5675121612625877,0.3823000407302644,3551.369330512153,11.965666666666667,0.18,178.82544621596577,-8.820357452948803,103.33248547083868,1553.0,1335.0,1200.0,1528.0,1471.0,998.0,60.0,292.7,1649237272.3618343,1649237273.4995103,064f16ea-d945-4bca-8065-e322d558b41f
0.0266816325034112,0.1935815711813786,0.0794913480965391,-0.0084532015461487,-0.0851328606966133,0.0211440084492416,-0.2300846054180695,-0.2540051210186183,-13.366037343427738,22.191520808715328,28.07075023264862,0.2153966900098969,0.5783162152911621,0.3796756162546859,3558.2491048177085,11.966888888888889,0.18,178.81139575793313,-8.809407236753195,103.52554835682815,1553.0,1335.0,1200.0,1528.0,1471.0,998.0,60.0,292.7,1649237273.6073463,1649237274.9331603,064f16ea-d945-4bca-8065-e322d558b41f
0.0280976459557577,0.1935689282028293,0.0812740078539235,-0.0066958276819759,-0.0850949317762275,0.0201452132461567,-0.2297179590502803,-0.2525891074093244,-13.286468162508449,22.36011910154714,28.162816709635056,0.2104492109842491,0.5767891425719803,0.376802147347964,3563.6734754774307,11.965333333333332,0.1877777777777777,178.79333521994778,-8.803480529828395,103.65666522159518,1553.0,1335.0,1200.0,1528.0,1471.0,998.0,60.0,292.7,1649237275.041834,1649237276.161337,064f16ea-d945-4bca-8065-e322d558b41f
0.0146581610960797,0.1923172735167879,0.0948272792333175,0.1975514658464331,-0.0536392032237628,-0.1768955951814135,-0.2767371968925761,-0.2967004606539783,-13.52070683364902,23.24757580510191,26.577189318524194,-0.6868723960176479,0.5635329780790623,0.3813040672071608,3569.940185546875,11.959,0.18,178.76020273119397,-8.86168379711318,103.90247689963478,1553.0,1236.0,1200.0,1528.0,1471.0,998.0,60.0,292.7,1649237278.3013866,1649237279.236839,12f3a3c0-779a-435c-8934-5e04c62db726
0.0463414620635437,0.1965273847392632,0.0987971740071936,0.19607223757978,-0.0506428175251838,-0.1772369555965916,-0.2724638700346131,-0.2907709035325709,-13.447412873676583,23.19656336814888,26.95318346727097,-0.6843463652910622,0.5759052012878241,0.3668261242332776,3564.373809814453,11.955625,0.18,178.7651119296599,-8.867815172553737,104.0065126335251,1553.0,1236.0,1200.0,1528.0,1471.0,998.0,60.0,292.7,1649237279.3466218,1649237280.46751,12f3a3c0-779a-435c-8934-5e04c62db726
0.0152018091222941,0.1926586338847129,0.0935376955767316,0.1961733813949883,-0.0537909189550686,-0.1765289488133243,-0.2759533322052415,-0.2946396550872868,-13.467473361999536,23.065564296828423,26.496469135673976,-0.6841967316088564,0.5652367666913694,0.3821797988133902,3565.320610894097,11.955222222222222,0.18,178.76105422811048,-8.872887109763033,104.07588098337315,1553.0,1236.0,1200.0,1528.0,1471.0,998.0,60.0,292.7,1649237280.576259,1649237281.6887674,12f3a3c0-779a-435c-8934-5e04c62db726
0.0419922779150738,0.1960975235346981,0.1042842260040674,0.32575124714209,-0.0356861750575701,-0.30190936807477,-0.3069792025782174,-0.3331248836019312,-13.54374216641417,23.94412309847344,26.026054669724548,-1.2519933937726837,0.5675861408521752,0.3875208731014951,3561.04248046875,11.944,0.1766666666666666,178.77103085775815,-8.931682421639627,104.21417258240832,1553.0,1133.0,1200.0,1528.0,1471.0,998.0,60.0,292.7,1649237283.829038,1649237284.883529,68c7939d-1a31-41a1-8815-dff890bfed49
0.0335846980737282,0.1962365962777895,0.1053841649845094,0.3233111527139171,-0.034712665806515,-0.3009485016535368,-0.3050321838158568,-0.3216324154578032,-13.52161695148598,23.90383341315016,25.87479000056157,-1.2445552341911004,0.5696612811396784,0.381737536230274,3555.625,11.947,0.1666666666666666,178.77644492104025,-8.916263554179537,104.25006522649672,1553.0,1133.0,1200.0,1528.0,1471.0,998.0,60.0,292.7,1649237284.9924843,1649237286.1964183,68c7939d-1a31-41a1-8815-dff890bfed49
0.0151133082719159,0.1966538145071538,0.1011487677114091,0.3273821910774434,-0.03826534249046,-0.3058034056105309,-0.3107341673809872,-0.3377522139828489,-13.5418231833935,23.896913122562868,25.73767352238108,-1.264936915169928,0.5718145268702408,0.4003496301694373,3552.1865234375,11.945666666666666,0.1733333333333333,178.78067963832564,-8.924150145941178,104.27929388268494,1553.0,1133.0,1200.0,1528.0,1471.0,998.0,60.0,292.7,1649237286.3047645,1649237287.426677,68c7939d-1a31-41a1-8815-dff890bfed49
0.0272126375156058,0.1918115544425195,0.1065599618008758,0.382176850058597,-0.0313749198002297,-0.3539225845992348,-0.3239081516537533,-0.3538720125499586,-13.578996977458631,24.583138559826885,25.357837132318654,-1.4919312090151269,0.5508909783180651,0.4013966875642693,3551.20556640625,11.942,0.17,178.80042799194587,-8.95204207719057,104.31730843887549,1553.0,1026.0,1200.0,1528.0,1471.0,998.0,60.0,292.7,1649237289.3601189,1649237290.7114458,ab3b4be3-e235-44f2-bacc-ef3b6670cad2
0.0199049966672559,0.1965905996236996,0.1086586960159354,0.3770058728324553,-0.0312611329412522,-0.3533915793705225,-0.322302493273114,-0.3472850204216754,-13.552943699780103,24.61264075625492,25.435812214944185,-1.478747890827326,0.5687100203697658,0.3967437983424779,3547.1234266493057,11.92988888888889,0.17,178.80682104900905,-8.964903228533966,104.31306157903155,1553.0,1026.0,1200.0,1528.0,1471.0,998.0,60.0,292.7,1649237290.820739,1649237291.9330883,ab3b4be3-e235-44f2-bacc-ef3b6670cad2
0.0046702089926819,0.1942895778730291,0.1051186624597638,0.3748818528494434,-0.0337012276144942,-0.3490929663691276,-0.3246288014493572,-0.3469563027660549,-13.638461582800277,24.570196914722768,25.426727346126345,-1.4647991958545243,0.5608019565633806,0.4078526722287628,3547.77587890625,11.935444444444446,0.1688888888888889,178.8014828767177,-8.97295934179626,104.31856974714222,1553.0,1026.0,1200.0,1528.0,1471.0,998.0,60.0,292.7,1649237292.0417616,1649237293.3682663,ab3b4be3-e235-44f2-bacc-ef3b6670cad2
0.0553179758812373,0.1895611046034817,0.0684919580370674,-0.1928004619074917,-0.111961259706874,0.2033166631926193,-0.1846836698295616,-0.2132694440387004,-13.102633692281184,21.42774888231164,29.41551090333548,1.0353413440965868,0.5714409727766373,0.3668604726116973,3542.88818359375,11.966,0.18,178.83084510104968,-8.815002300048299,104.27948512798169,1553.0,1435.0,1200.0,1528.0,1471.0,998.0,60.0,292.7,1649237294.2792175,1649237295.4202032,8e985483-e36d-4c06-aa80-efd77113d0ff
0.0700091152987598,0.1896622484147823,0.0667725131556136,-0.1917258087540371,-0.112618694552614,0.204947607177127,-0.1854043195818896,-0.2094386214954625,-13.113529287016092,21.33755779193965,29.793648902868306,1.0359534270825732,0.5683031663318575,0.3717101549039429,3551.2059733072915,11.96566666666667,0.1833333333333333,178.84136359237152,-8.789051280888051,104.30426050083103,1553.0,1435.0,1200.0,1528.0,1471.0,998.0,60.0,292.7,1649237295.5523558,1649237296.6414158,8e985483-e36d-4c06-aa80-efd77113d0ff
0.0666966552983693,0.1875002994072583,0.0645220632287042,-0.1913085904643381,-0.1151220041837916,0.2045936038286728,-0.1883248475776109,-0.2101972002243705,-13.121186737351062,21.424813554306816,29.4760760977855,1.0346286861509646,0.5628708251836679,0.3815985609633339,3555.7892252604165,11.964222222222222,0.18,178.82115533934714,-8.789880769417252,104.34044456632404,1553.0,1435.0,1200.0,1528.0,1471.0,998.0,60.0,292.7,1649237296.7507122,1649237297.8763516,8e985483-e36d-4c06-aa80-efd77113d0ff
0.0747502317002726,0.2008007108452602,0.1481047838830563,-0.1983128004761561,-0.0395296402250161,0.1941505051304027,-0.1016066608041099,-0.1159058688360462,-12.485477823863214,21.318872890435163,29.58073156510452,1.0307576811070205,0.6134877747615619,0.0434219505154167,3559.562255859375,11.967,0.1766666666666666,178.82274449669407,-8.77871663549139,104.31810301754894,1553.0,1435.0,1200.0,1435.0,1471.0,998.0,60.0,292.7,1649237299.8033905,1649237300.9553082,092cb5c4-2543-41ca-a957-ece98299d780
0.0675058058325822,0.2053395394538058,0.1514172438011003,-0.201536759968658,-0.0381768416298323,0.1919379842142738,-0.0996217132810649,-0.1205079129571697,-12.461835113249332,21.37301133931773,29.496054660998496,1.033580545786346,0.6317021424666164,0.0346338160329111,3558.0849609375,11.964,0.1733333333333333,178.81234439531784,-8.779273580499963,104.32341235126376,1553.0,1435.0,1200.0,1435.0,1471.0,998.0,60.0,292.7,1649237301.0864222,1649237302.04622,092cb5c4-2543-41ca-a957-ece98299d780
0.0598188757424645,0.1997513437829395,0.1521378934771234,-0.1981737277215894,-0.0353448146553761,0.1938850026197725,-0.0979149112713476,-0.1184850363397117,-12.544486361659184,21.34713543573542,29.44482583008585,1.0301841576579844,0.6114132214168582,0.0265979270140832,3561.699896918403,11.964,0.1711111111111111,178.80484940106862,-8.793170264412522,104.33768592880926,1553.0,1435.0,1200.0,1435.0,1471.0,998.0,60.0,292.7,1649237302.154492,1649237303.2172573,092cb5c4-2543-41ca-a957-ece98299d780
0.1046255863949797,0.2240764307610026,0.2762160657991334,-0.2120304320863135,0.0743456564273392,0.1760331195417274,0.0291217271021555,0.0059471496993079,-11.539930806197264,21.2904091032588,29.443511192974537,1.0276335999069188,0.7051197307879593,-0.4692639936288109,3565.4853515625,11.960222222222225,0.1722222222222222,178.80012291016294,-8.790990390566163,104.324537814657,1553.0,1435.0,1200.0,1330.0,1471.0,998.0,60.0,292.7,1649237304.3108146,1649237305.4551797,7311b406-f815-4de8-b874-8bc44a84ae50
0.1232486913782429,0.2222179132082424,0.2729668208570037,-0.2079846789686409,0.0717159171943832,0.1755400434535511,0.0244311825358374,-0.0017397805755685,-11.628300616845374,21.379599998500616,29.61287927523798,1.017811345936865,0.6965709237638167,-0.4546237124281321,3571.097086588541,11.96322222222222,0.17,178.79740753051294,-8.792559911119191,104.33560651566196,1553.0,1435.0,1200.0,1330.0,1471.0,998.0,60.0,292.7,1649237305.584397,1649237306.678332,7311b406-f815-4de8-b874-8bc44a84ae50
0.1073943983345622,0.2192088847830917,0.2730426787192138,-0.2100707704233722,0.0715768444483456,0.1785996438152144,0.0259989117200418,-0.0001594084145983,-11.558441327576936,21.39465723842363,29.361544269151093,1.0294910823119336,0.68728027349097,-0.4574640004051424,3569.940185546875,11.959,0.17,178.76752014052477,-8.792726207252732,104.33890549703108,1553.0,1435.0,1200.0,1330.0,1471.0,998.0,60.0,292.7,1649237306.786897,1649237307.912281,7311b406-f815-4de8-b874-8bc44a84ae50
0.1399500638406812,0.2386032108085168,0.3955657619115695,-0.2007149663753329,0.1826453963517266,0.1448049669410404,0.144716466095453,0.129266748371983,-10.742494464169456,21.54739175799292,29.40609999456311,0.9399766857298676,0.7604688208383238,-0.9417848184941078,3566.968994140625,11.954666666666668,0.17,178.77200074462027,-8.804405830733453,104.30650080287882,1553.0,1435.0,1200.0,1210.0,1471.0,998.0,60.0,292.7,1649237308.8142488,1649237309.970895,6cf7a0c6-05a5-48f4-930b-97177a19a04c
0.1482312136299956,0.2372251263676987,0.3991690101147936,-0.1997920289579986,0.184428056062265,0.145689975316818,0.1472703474065308,0.1177869253444803,-10.677466667306948,21.745049717393968,29.481708477571235,0.9414179989902356,0.7542879450004292,-0.9528483360754708,3563.015055338541,11.957333333333334,0.1733333333333333,178.7748967448284,-8.807638502349377,104.2930157327275,1553.0,1435.0,1200.0,1210.0,1471.0,998.0,60.0,292.7,1649237310.0839856,1649237311.1829555,6cf7a0c6-05a5-48f4-930b-97177a19a04c
0.1367766766543391,0.2388813562925907,0.3986759340408592,-0.2013597582773635,0.1837832642453814,0.1461704084335077,0.1466887704663388,0.1276484473353586,-10.7071172381888,21.725493167126768,29.571680663963978,0.945879231714028,0.7600736834065412,-0.950169100856626,3561.534912109375,11.955333333333334,0.17,178.76233830367445,-8.81353608610647,104.27481783204884,1553.0,1435.0,1200.0,1210.0,1471.0,998.0,60.0,292.7,1649237311.2912886,1649237312.4174757,6cf7a0c6-05a5-48f4-930b-97177a19a04c
0.1766526253808278,0.2501336053817152,0.4970130019963974,-0.1761117305336434,0.2746862656465526,0.1057634543180565,0.2372630552802878,0.2093473630171582,-10.095071984689064,22.007776080032816,29.42068119535831,0.805177880603275,0.8024131178869125,-1.3353029131533012,3561.041259765625,11.94025,0.16,178.7777972984959,-8.8247525373841,104.23513784806566,1553.0,1435.0,1200.0,1071.0,1471.0,998.0,60.0,292.7,1649237314.3461545,1649237315.4842577,35291b48-2422-4179-9db0-42ba92508360
0.1994605553174731,0.2483003737898719,0.4988968054095629,-0.1765163058435437,0.2754827731363142,0.1068254643823526,0.2379963478871274,0.2162251422654468,-10.12740972096964,22.17457396724285,29.271673997615537,0.8096364753755085,0.7972589741583923,-1.340526270576329,3560.712782118056,11.938,0.151111111111111,178.77825871571983,-8.826034573377683,104.20489870333525,1553.0,1435.0,1200.0,1071.0,1471.0,998.0,60.0,292.7,1649237315.5923543,1649237316.9200947,35291b48-2422-4179-9db0-42ba92508360
0.2041763856053671,0.2514611179136253,0.4993645955300755,-0.178488610455355,0.2748759102844501,0.106307102326038,0.2388560703077898,0.2155803504883288,-10.021962311389318,22.138713501672324,29.384971774218943,0.8127773919360698,0.8076350803023863,-1.3409479991561288,3553.6591796875,11.944,0.16,178.77050265646233,-8.835504535798169,104.17005639055918,1553.0,1435.0,1200.0,1071.0,1471.0,998.0,60.0,292.7,1649237317.0288408,1649237318.177659,35291b48-2422-4179-9db0-42ba92508360
0.001509464653173,0.1749331805706269,-0.0323990008904392,-0.1740003531623529,-0.2035596365275895,0.2044166021577601,-0.2931351405481078,-0.308698647857078,-13.796780293009384,21.66163163014861,29.190412228753644,0.9915460576039964,0.514778728727018,0.7810539979469504,3562.0284016927085,11.967666666666666,0.1733333333333333,178.8533027630407,-8.823510723615627,104.19797137369704,1553.0,1435.0,1200.0,1613.0,1471.0,998.0,60.0,292.7,1649237319.2616494,1649237320.3994095,9cfb5aba-8409-4c5c-bc84-64f1eb3445cc
0.0393625386781007,0.1743642466178372,-0.0326012885224011,-0.1743796425139827,-0.203863068000284,0.2058579014924986,-0.2933247852245659,-0.3224542092142434,-13.815313839309312,21.69231379163976,29.26458272679523,0.9958362505785564,0.5121530801565348,0.7820199272562951,3567.46435546875,11.966333333333331,0.1666666666666666,178.84192366788344,-8.827626766364205,104.21213035584648,1553.0,1435.0,1200.0,1613.0,1471.0,998.0,60.0,292.7,1649237320.5081816,1649237321.628205,9cfb5aba-8409-4c5c-bc84-64f1eb3445cc
-0.0001973372968277,0.1749711095015101,-0.0345862360005281,-0.1762255173364567,-0.2050135790413915,0.2061613329320368,-0.2938052184316246,-0.3160821475067792,-13.788410604515269,21.54933359637681,29.14277260207194,0.9996293979389176,0.5154173772832984,0.7869396403472392,3565.4853515625,11.964444444444444,0.17,178.82516541929985,-8.825083374672023,104.22292660819454,1553.0,1435.0,1200.0,1613.0,1471.0,998.0,60.0,292.7,1649237321.7361114,1649237322.853628,9cfb5aba-8409-4c5c-bc84-64f1eb3445cc
0.0139754403015893,0.165868166257176,-0.1115313984546678,-0.1601562920168272,-0.2768889126385704,0.2055544700544812,-0.3800050509927135,-0.4088436877844189,-14.385913007917164,21.97733467714912,29.261932627305505,0.9607416034810302,0.4775995484394376,1.1110653608127,3565.1558702256943,11.96,0.17,178.83899882909887,-8.81707877241972,104.23678202638084,1553.0,1435.0,1200.0,1694.0,1471.0,998.0,60.0,292.7,1649237323.7665117,1649237324.9033177,1aaeecc4-9479-4f91-a40e-e734a176fa91
-0.019187089396158,0.1618982715568185,-0.1123026200987977,-0.161774593225167,-0.2747522492067408,0.2089680737384059,-0.3769580929134888,-0.3956191308625698,-14.398513987756216,21.720374210201644,28.99447664010597,0.9702721170769568,0.4653156702373734,1.1040930678928371,3561.041259765625,11.959222222222222,0.17,178.84744701419228,-8.82010625376933,104.22122133763176,1553.0,1435.0,1200.0,1694.0,1471.0,998.0,60.0,292.7,1649237325.0153034,1649237326.1338642,1aaeecc4-9479-4f91-a40e-e734a176fa91
0.0061873662678412,0.1654130190941148,-0.1120750464944364,-0.1606746541256015,-0.2762441207104193,0.2058199725631436,-0.3796510475490529,-0.402560126772875,-14.4297797676866,21.8731541751342,29.1692362547118,0.9617529680612196,0.4770521038549936,1.1102458801125434,3562.521240234375,11.957444444444445,0.17,178.83785894641738,-8.818571358480845,104.22088589945253,1553.0,1435.0,1200.0,1694.0,1471.0,998.0,60.0,292.7,1649237326.2425473,1649237327.3588295,1aaeecc4-9479-4f91-a40e-e734a176fa91
-0.0511611796040023,0.1517459612070728,-0.1928257479025913,-0.139118376423378,-0.3488906786250145,0.2035063078418643,-0.4678105461532577,-0.4854222176408272,-14.997463538306878,22.12478794998325,29.108182332535662,0.905279948307001,0.4225824373149726,1.4427344654318073,3559.06982421875,11.953666666666663,0.1633333333333333,178.83427840947246,-8.820870855501417,104.20794800334473,1553.0,1435.0,1200.0,1774.0,1471.0,998.0,60.0,292.7,1649237328.272382,1649237329.411476,3ae9986c-8a81-4036-be5e-774984894c01
-0.0137758950418416,0.1538067664184005,-0.1944314061620568,-0.1370828569539496,-0.3511032000251771,0.1998019156875707,-0.4720965164733481,-0.4961687509361017,-15.076138013859214,22.227915810093933,29.111575831760977,0.8929286854991053,0.4304878147103519,1.4542136439882811,3555.13330078125,11.953222222222225,0.17,178.84675944181578,-8.815249040632064,104.17127444096116,1553.0,1435.0,1200.0,1774.0,1471.0,998.0,60.0,292.7,1649237329.5198631,1649237330.64157,3ae9986c-8a81-4036-be5e-774984894c01
-0.0448523337968343,0.1510000255761118,-0.1914603062096799,-0.136159919559257,-0.3482458866485309,0.2020902944595303,-0.4680760487009748,-0.4888611084463163,-15.004163747780977,22.26265231561772,29.19282000515807,0.8964164517447354,0.4188066565012965,1.4403667951766803,3551.206000434028,11.95688888888889,0.17,178.83746431326531,-8.804631132112327,104.15229030961808,1553.0,1435.0,1200.0,1774.0,1471.0,998.0,60.0,292.7,1649237330.748992,1649237331.8648405,3ae9986c-8a81-4036-be5e-774984894c01
-0.0416536604665773,0.1441728181005573,-0.2471273406452053,-0.1115693273794173,-0.3983626574241086,0.1880945193084246,-0.5336931172220644,-0.5634673370276715,-15.447246658143174,22.54653539043446,29.003380338830773,0.8083525391091917,0.3914637015511129,1.6766286311204637,3555.686462402344,11.93525,0.16375,178.83475936862652,-8.811914449787121,104.06952966635494,1553.0,1435.0,1200.0,1856.0,1471.0,998.0,60.0,292.7,1649237333.802128,1649237334.9512558,27d1e4ed-061c-4436-9833-7782081beb30
-0.0713520149436912,0.1402282093304079,-0.248745641913669,-0.1085982275711519,-0.3993235238715993,0.1888025260006226,-0.5346034118198864,-0.5570699886900237,-15.390310600027956,22.56771565477457,28.93326383290518,0.8033187605546076,0.3764194433138759,1.6809203379164652,3553.8229709201387,11.937555555555557,0.1688888888888889,178.85232073362002,-8.800200331479495,104.0184550295614,1553.0,1435.0,1200.0,1856.0,1471.0,998.0,60.0,292.7,1649237335.064615,1649237336.1696584,27d1e4ed-061c-4436-9833-7782081beb30
-0.0688739913171701,0.1414798640365995,-0.2458377568309151,-0.1109371784838065,-0.3973006471384935,0.1902691112939383,-0.5325805349326226,-0.5585997893904906,-15.469938992749327,22.647716512506257,29.028302669240347,0.8125406691933169,0.3813088489325022,1.6714976597730034,3547.286539713541,11.937666666666669,0.16,178.84661828457294,-8.803101264601981,103.95737112999416,1553.0,1435.0,1200.0,1856.0,1471.0,998.0,60.0,292.7,1649237336.2781951,1649237337.3974895,27d1e4ed-061c-4436-9833-7782081beb30
0.0162385332536806,0.1782709264174392,-0.0280751026782544,-0.1870605498523208,-0.1698913853471254,0.2128368245739353,-0.2410713538848792,-0.262804634292029,-12.712110078530127,17.476829540008765,29.40422866282577,1.0129818471624028,0.5195363565302367,0.6582419148371083,7198.175401475694,11.637999999999998,7.992222222222223,-179.27921059238545,-8.974977947287215,90.69889629893038,1553.0,1435.0,1350.0,1528.0,1471.0,998.0,60.0,292.7,1649237341.3349984,1649237342.3201563,77bc5a2a-5d10-4d6f-928f-6677eb8a52d0
0.0148983776619806,0.1762859790729171,-0.0272406661643072,-0.1804862011283557,-0.1685385866825287,0.2160734265824083,-0.2415012151759927,-0.263285067456518,-12.813551593176072,17.620893681090198,30.44820332174412,1.006536724524147,0.5028027532049705,0.657033789009929,7204.8984375,11.638,7.96,-178.7582174228752,-8.924732134976708,85.1845848125655,1553.0,1435.0,1350.0,1528.0,1471.0,998.0,60.0,292.7,1649237342.433988,1649237343.5420277,77bc5a2a-5d10-4d6f-928f-6677eb8a52d0
0.0249495446047723,0.1735298101541009,-0.0240293498626709,-0.1747715749611685,-0.1639365425931435,0.2190192401262493,-0.2383657564495577,-0.2653332301547091,-12.914123297242716,17.661380936576805,31.255137980007127,1.0007718661836988,0.4855260984734275,0.6426918067453727,7215.00537109375,11.637,7.989999999999999,-178.47217365389452,-8.792505079878353,79.70135448147373,1553.0,1435.0,1350.0,1528.0,1471.0,998.0,60.0,292.7,1649237343.651126,1649237344.7726524,77bc5a2a-5d10-4d6f-928f-6677eb8a52d0
0.1606466168521628,0.3704062393059205,0.0010922462574582,-0.27322244889466,-0.1860870405441285,0.1169651318733593,-0.253929263237748,-0.2848919184070654,-12.50358678241906,17.111395501576702,31.323744200702286,0.991346267171553,1.2341233335901654,0.6843456294971688,7223.789388020833,11.62,8.031111111111109,-178.64519145248985,-8.676815715171632,72.90988337713605,1647.0,1435.0,1350.0,1528.0,1543.0,998.0,60.0,292.7,1649237345.8842285,1649237347.0240843,84d635a3-91b6-4b5f-9988-ad4f026f7a07
0.1244750601580571,0.3730612643104716,0.0035070549378665,-0.2736902391305791,-0.1849871014461357,0.1143227497012344,-0.2520581023956429,-0.2688226922744017,-12.406229309116782,17.130643585901716,31.27247188699016,0.9867523751732132,1.2440576519783144,0.6771967145345944,7227.17236328125,11.624555555555554,7.973333333333333,-178.79828331254652,-8.646946254430041,69.92403658397858,1647.0,1435.0,1350.0,1528.0,1543.0,998.0,60.0,292.7,1649237347.132513,1649237348.2519453,84d635a3-91b6-4b5f-9988-ad4f026f7a07
0.1520493926339733,0.3698246623980284,-0.0012593475123192,-0.2756119718883915,-0.1886914940746824,0.1192282247335967,-0.2563946440912514,-0.2722615824346588,-12.557867612558775,17.15732693400398,31.23289892310771,1.0019675039341545,1.233277314252286,0.6943323848702777,7233.2705078125,11.625444444444444,8.011111111111111,-178.9950140101203,-8.642283037637956,67.0674898252689,1647.0,1435.0,1350.0,1528.0,1543.0,998.0,60.0,292.7,1649237348.3607209,1649237349.4069824,84d635a3-91b6-4b5f-9988-ad4f026f7a07
0.2170722217270375,0.5352453614126003,0.0234956021492096,-0.3738352771381932,-0.2076686045989982,0.036265009243297,-0.266091808762383,-0.2825908962357909,-12.199032975150574,16.894062497538588,29.68272555715758,1.0365267341810973,1.8785631728380887,0.7175701683793665,7236.664876302083,11.605888888888892,8.025555555555556,-179.49762789948392,-8.649507101050103,63.5242434365052,1745.0,1435.0,1350.0,1528.0,1614.0,998.0,60.0,292.7,1649237350.3946218,1649237351.5330925,0d2d3c2b-cbba-49d3-a53d-a5368464975d
0.2538885693946331,0.5321099033698679,0.0206130032929777,-0.367172427021065,-0.2096535522627218,0.0348363528115158,-0.269644485844166,-0.2938431473917409,-12.181024378395907,16.951662592234257,29.8894011909287,1.0185669091338077,1.863841973489457,0.7292207747899193,7239.38037109375,11.607,8.02,-179.7411818205479,-8.659329197667798,61.79079530775942,1745.0,1435.0,1350.0,1528.0,1614.0,998.0,60.0,292.7,1649237351.6412427,1649237352.7577925,0d2d3c2b-cbba-49d3-a53d-a5368464975d
0.2278440377619335,0.5360545118761215,0.0216370843999663,-0.3687401564273094,-0.2093754067786501,0.0334961972113612,-0.2699732033517295,-0.2972314658036932,-12.248365503512057,16.968519502600206,30.045848117786942,1.019245593639544,1.8779849206624144,0.7285442139771827,7242.780164930556,11.60688888888889,8.034444444444444,-19.94540154214544,-8.685949575366708,60.33082719447104,1745.0,1435.0,1350.0,1528.0,1614.0,998.0,60.0,292.7,1649237352.866429,1649237353.9910088,0d2d3c2b-cbba-49d3-a53d-a5368464975d
0.3207952004450379,0.6702470585271738,0.0409049817822256,-0.4282633048162409,-0.2264054987702739,-0.0524381203950559,-0.2901766835487543,-0.3208359077005599,-12.235398083427857,17.287579700238904,28.722701703558226,0.9632794588833968,2.4014792586646188,0.767968347143131,7242.100206163194,11.586444444444446,8.018888888888888,179.4333057313402,-8.73028869700123,57.56337873566435,1849.0,1435.0,1350.0,1528.0,1686.0,998.0,60.0,292.7,1649237355.9193575,1649237357.058982,e68aa83b-30c5-4b6d-ac95-c51734e49bf0
0.2935243004913092,0.6702217725753047,0.041941705884097,-0.4240911215170584,-0.2245849099180372,-0.0568884485496059,-0.2892158171823929,-0.3077251384138317,-12.172174903083723,17.215927620877906,28.640954004122868,0.9434629795008032,2.401212293182833,0.7626992466697536,7239.38037109375,11.583555555555556,8.02,179.2330703878123,-8.752289115772793,56.68591495773151,1849.0,1435.0,1350.0,1528.0,1686.0,998.0,60.0,292.7,1649237357.1681468,1649237358.2926428,e68aa83b-30c5-4b6d-ac95-c51734e49bf0
0.3267247563457537,0.6628256316583939,0.0409429107732508,-0.4257347088031021,-0.2243573361907103,-0.049580807435787,-0.2880905919693419,-0.3132880491520178,-12.23643323172104,17.251631619368542,28.43495590687376,0.9637135245493554,2.375892476527019,0.7608891916860454,7239.38037109375,11.583333333333334,8.025555555555554,179.0609222999713,-8.756037751262271,55.989232626750585,1849.0,1435.0,1350.0,1528.0,1686.0,998.0,60.0,292.7,1649237358.4007509,1649237359.5161648,e68aa83b-30c5-4b6d-ac95-c51734e49bf0
0.3655513364293789,0.8018351522201201,0.0582385034432648,-0.488228959502333,-0.2455090395212992,-0.1353001971061471,-0.3104180930611178,-0.3327203081993934,-12.083098644330873,17.595311883604147,27.40739228535921,0.9151152171034156,2.914081358477976,0.8127014846146298,7239.38037109375,11.522666666666668,8.01,178.5948787612437,-8.793490050074913,54.633924640479165,1962.0,1435.0,1350.0,1528.0,1760.0,998.0,60.0,292.7,1649237361.2249537,1649237362.3975182,e21fb8f2-2f18-4624-beb4-81f5d229a611
0.3640847511918352,0.7983583338231088,0.0632956943272308,-0.4919459956049784,-0.2410081390744868,-0.1282327724490552,-0.302895520481786,-0.3211140533265134,-12.015857356962018,17.6270835723641,27.48886188935585,0.939890653718203,2.900621979720303,0.7886626498906198,7239.38037109375,11.526,8.01,178.43638042700402,-8.790995702935518,54.18876668186864,1962.0,1435.0,1350.0,1528.0,1760.0,998.0,60.0,292.7,1649237362.5056446,1649237363.6200333,e21fb8f2-2f18-4624-beb4-81f5d229a611
0.3874110422724178,0.8015443637728604,0.0639784150629395,-0.4924264291759735,-0.2415138582837301,-0.1307360820630682,-0.3046023226343978,-0.3209623375109309,-12.092064278930565,17.72901673038932,27.509112658682763,0.936023712818344,2.9130355821535234,0.7911656876119181,7239.38037109375,11.527666666666669,8.014444444444443,178.29390723437703,-8.812500743264781,53.79690241262199,1962.0,1435.0,1350.0,1528.0,1760.0,998.0,60.0,292.7,1649237363.7285702,1649237364.8377988,e21fb8f2-2f18-4624-beb4-81f5d229a611
-0.1106211040334906,-0.0482280088016744,-0.0494670207174909,-0.0855500790620401,-0.1384103697463977,0.341466466694762,-0.2145969567778388,-0.2308178982066566,-13.387161614847331,18.216957904903943,29.44337002097057,1.07655473728124,-0.3393831139067067,0.5795922940644244,7225.819173177083,11.631666666666666,8.072222222222221,178.51779324627094,-8.804182711220566,52.9655625226993,1459.0,1435.0,1350.0,1528.0,1394.0,998.0,60.0,292.7,1649237366.743662,1649237367.9094784,7fe55ff8-9093-4a04-8c4a-d9ecaef475f4
-0.0981930568236745,-0.044283399794022,-0.0477475757299074,-0.0881039606086298,-0.1390045896844202,0.3386217970382749,-0.2137625201662765,-0.2434103049178454,-13.256824849423673,18.273224316008,29.262675440272304,1.076418733966514,-0.3234850365344364,0.5771378968787403,7216.35595703125,11.625111111111112,8.087777777777779,178.44136494727832,-8.77190731634384,52.705587309050834,1459.0,1435.0,1350.0,1528.0,1394.0,998.0,60.0,292.7,1649237368.0180805,1649237369.1424134,7fe55ff8-9093-4a04-8c4a-d9ecaef475f4
-0.0751322652873442,-0.0454212677795253,-0.050250885294451,-0.0877878861075357,-0.139775811344614,0.3387355838224524,-0.2151153188826569,-0.2419310764905975,-13.30099917864624,18.139823299974328,29.148796848883947,1.074912072733256,-0.3266306495808543,0.5832550438769337,7215.00537109375,11.627,8.072222222222221,178.39371147634904,-8.784676734452132,52.49217880734368,1459.0,1435.0,1350.0,1528.0,1394.0,998.0,60.0,292.7,1649237369.250908,1649237370.3900545,7fe55ff8-9093-4a04-8c4a-d9ecaef475f4
-0.1814976392777459,-0.2381255398045093,-0.0684567731364568,-0.0101979324816902,-0.1167908773289435,0.4559612587918987,-0.188666208057227,-0.2127384389219992,-13.444056454093982,18.82014479191324,29.15279069769852,1.166841917835152,-1.0591073084699123,0.5160969159447547,7215.00537109375,11.6,8.09,178.37223887941835,-8.748724136481002,52.06432361517556,1364.0,1435.0,1350.0,1528.0,1312.0,998.0,60.0,292.7,1649237372.3064892,1649237373.4452732,ac594b77-6e4b-4d43-922a-729bbbe6d6c4
-0.2014103302304395,-0.2423862236052222,-0.0764092062086662,-0.0005007688488891,-0.1211527048012265,0.4508282105097037,-0.197870296350802,-0.227897370197556,-13.592113674250209,18.75042177109349,29.034668276747546,1.132481309598069,-1.0746918872617914,0.5453105417348317,7220.40771484375,11.607555555555557,8.08,178.34809491961224,-8.737524333789473,51.94298796075496,1364.0,1435.0,1350.0,1528.0,1312.0,998.0,60.0,292.7,1649237373.5539124,1649237374.6134224,ac594b77-6e4b-4d43-922a-729bbbe6d6c4
-0.1961129222671201,-0.2410334248929137,-0.0690130641563694,-0.0006019126359632,-0.1153369348674422,0.4513971444311259,-0.191397091368441,-0.2126246522371598,-13.57635432066893,18.869743504633018,29.34243049763694,1.1352042043067092,-1.0719739466746012,0.5186499549123357,7221.0830078125,11.607,8.04,178.34290549366287,-8.73564973145352,51.87091542517803,1364.0,1435.0,1350.0,1528.0,1312.0,998.0,60.0,292.7,1649237374.722412,1649237375.6971786,ac594b77-6e4b-4d43-922a-729bbbe6d6c4
-0.3217335592163298,-0.4437509550085037,-0.0967896863402354,0.0775696155098812,-0.1024663833765339,0.5686481039137676,-0.1765289488748377,-0.204280286393377,-13.773811950159851,19.87498436317024,27.947191058932844,1.2273059188895872,-1.829892837130282,0.491451379803549,7227.17236328125,11.57033333333333,8.056666666666667,178.40031551036657,-8.743298404959074,51.81220084234288,1262.0,1435.0,1350.0,1528.0,1222.0,998.0,60.0,292.7,1649237376.8117898,1649237377.9488385,bd589af0-4619-47f7-be91-11650a7a56f6
-0.3275493296054153,-0.443396951550295,-0.0932117236374201,0.0736755785529875,-0.0979528402942747,0.5698112577018007,-0.1726096256258355,-0.1903730101743375,-13.943862488371243,19.7957713442129,27.682989881740944,1.2382290057652,-1.824315005003324,0.4743959815093537,7227.17236328125,11.567222222222222,8.051111111111112,178.39526268820055,-8.709165957538012,51.75282373115824,1262.0,1435.0,1350.0,1528.0,1222.0,998.0,60.0,292.7,1649237378.0572765,1649237379.3839695,bd589af0-4619-47f7-be91-11650a7a56f6
-0.3377774997788066,-0.4464691957017613,-0.0930220789544851,0.0790109148739671,-0.0979275543319464,0.5685596030793377,-0.1730774158383684,-0.1958221337728719,-13.86597286956622,19.90695634292835,27.77266647168151,1.2241811635757496,-1.8378268594205904,0.4745794256130773,7227.17236328125,11.573222222222222,8.044444444444444,178.40156467607477,-8.705920953636088,51.69997855754985,1262.0,1435.0,1350.0,1528.0,1222.0,998.0,60.0,292.7,1649237379.4924605,1649237380.613785,bd589af0-4619-47f7-be91-11650a7a56f6
-0.3976420075914317,-0.582178948893094,-0.1085476558196306,0.1300000408598896,-0.0890268979656293,0.652369890566688,-0.1619895239198678,-0.1933061811251506,-14.035541189080734,20.893693432976587,27.43082683414749,1.3031233759976513,-2.34983642291231,0.450853174781861,7227.17236328125,11.520333333333332,8.036666666666667,178.5048629392622,-8.704607944631888,51.67734103391071,1153.0,1435.0,1350.0,1528.0,1121.0,998.0,60.0,292.7,1649237382.7642338,1649237383.885254,50022117-ede4-479e-a48f-2a3f724b54f7
-0.3760098694675198,-0.5865407773887855,-0.108560298793989,0.1312643386161157,-0.0889004681843955,0.6542789799311787,-0.1616860924759143,-0.1850629592103643,-14.023645361127764,20.97899957476865,27.2602949574754,1.3051050881965134,-2.364923724641752,0.4494822763132219,7227.17236328125,11.52533333333333,8.04,178.5191198207897,-8.714438009803615,51.67910436108142,1153.0,1435.0,1350.0,1528.0,1121.0,998.0,60.0,292.7,1649237383.9942417,1649237385.1221323,50022117-ede4-479e-a48f-2a3f724b54f7
-0.4033313484578089,-0.5835570338533171,-0.1056018418919461,0.1274714456123682,-0.0873200959068401,0.6537985468468092,-0.1612183022384126,-0.180549416094279,-14.197414650513773,21.1100059155754,27.123720373822188,1.3134878547107272,-2.350635760395588,0.4425908780513114,7227.17236328125,11.53,8.04,178.5276894314684,-8.707252366205545,51.68805077052929,1153.0,1435.0,1350.0,1528.0,1121.0,998.0,60.0,292.7,1649237385.230625,1649237386.3458369,50022117-ede4-479e-a48f-2a3f724b54f7
0.042700284656289,0.1740355292189212,-0.0276705273755228,-0.1706120351549964,-0.1645307625704125,0.2035063078324075,-0.2431321593885528,-0.2741833152216982,-12.953250051138546,17.380056198469784,29.636997987231613,0.9542054549966006,0.5012935852149659,0.6531543419053452,7228.698364257812,11.633,8.08,178.29311341461346,-8.709892234319756,51.83639821043373,1553.0,1435.0,1350.0,1528.0,1471.0,998.0,60.0,292.7,1649237388.2804887,1649237389.2225106,1768244e-e5e8-48e7-bd7a-ba77bb538ae5
0.0369477299919835,0.1727080166639387,-0.0253821484430946,-0.1646951213006224,-0.1619263090534585,0.2056556138561524,-0.2420195772750171,-0.2608955445489394,-13.029452158524007,17.50292327686259,30.54365722987584,0.9467227398352136,0.4882369038297319,0.6459698867352965,7242.780164930556,11.630777777777777,8.06,178.29192647951768,-8.714490848905946,51.92683418391292,1553.0,1435.0,1350.0,1528.0,1471.0,998.0,60.0,292.7,1649237389.3354723,1649237390.6467292,1768244e-e5e8-48e7-bd7a-ba77bb538ae5
0.0488574145483748,0.1762227641924608,-0.0263050858311512,-0.1690948777564328,-0.1629883192537638,0.2046441757279709,-0.2414127143092055,-0.2623874159613956,-12.940141251098186,17.33103803357311,30.31400658148594,0.9531976209593386,0.5033028910872237,0.6480062122224532,7246.862196180556,11.632444444444443,8.052222222222222,178.31529786903764,-8.705817267569936,52.065353455920416,1553.0,1435.0,1350.0,1528.0,1471.0,998.0,60.0,292.7,1649237390.7557192,1649237391.874367,1768244e-e5e8-48e7-bd7a-ba77bb538ae5
0.0469356819953294,0.1747688218695236,-0.0401744322265208,-0.4568870114541464,-0.2059997315240038,0.4894904312634664,-0.1746451451469399,-0.1888305667569539,-12.8048086530853,16.694065984892504,33.14017329300188,2.2380791993661093,0.50638695458071,0.6320747743210045,7251.6298828125,11.620375,8.05125,178.36531192923508,-8.585112148703027,52.32779360894936,1553.0,1537.0,1350.0,1528.0,1471.0,998.0,60.0,292.7,1649237393.8096857,1649237394.943051,20e54dd3-a0d9-4610-bc34-656e8ff86805
0.058377576349162,0.167764612758528,-0.041426086982776,-0.4524872543467374,-0.2058985876563188,0.4934223968085586,-0.1759473718843982,-0.1992610239005801,-12.910269691824414,16.819182750852654,33.28860159835943,2.237727740899748,0.478928892261159,0.6347725601441158,7251.6298828125,11.622222222222224,8.062222222222225,178.38956631043277,-8.569228188049145,52.392947162897066,1553.0,1537.0,1350.0,1528.0,1471.0,998.0,60.0,292.7,1649237395.0508862,1649237396.1783516,20e54dd3-a0d9-4610-bc34-656e8ff86805
0.0497550659276767,0.1687001930419736,-0.0443213288313036,-0.4530435454611761,-0.2092869058608665,0.4884157783039066,-0.1797402653612349,-0.198932306501648,-12.855031391490185,16.814605412203715,32.60878712013074,2.2274769888361914,0.4879569734301389,0.6479243949282897,7251.6298828125,11.619,8.046666666666667,178.42834205326082,-8.579583039422097,52.4476213093832,1553.0,1537.0,1350.0,1528.0,1471.0,998.0,60.0,292.7,1649237396.287536,1649237397.411153,20e54dd3-a0d9-4610-bc34-656e8ff86805
0.0618796810114809,0.1608362615053409,-0.0589618969142245,-0.7501662485502395,-0.2552441330596062,0.7812523873159412,-0.1130106269223989,-0.144504285138796,-12.735716540347454,16.429611846474423,34.451113738359496,3.552828538329049,0.4769369745815281,0.6347508701678557,7239.38037109375,11.612222222222222,8.06777777777778,178.46518561146368,-8.499606836610603,52.577884021049,1553.0,1645.0,1350.0,1528.0,1471.0,998.0,60.0,292.7,1649237398.3152847,1649237399.456126,bcc307a0-d6ac-4765-93d9-339a52020db8
0.0387683187433458,0.1654003761095354,-0.0588860390631906,-0.7538579994547837,-0.2553579199021247,0.7793306549674649,-0.1126060516307195,-0.1307360820372461,-12.728936926250794,16.297784473231676,34.333862611067616,3.555952434512013,0.4955034954784946,0.6346397822400078,7233.2705078125,11.61625,8.0625,178.51213709072826,-8.491989349559073,52.62293205940114,1553.0,1645.0,1350.0,1528.0,1471.0,998.0,60.0,292.7,1649237399.5645018,1649237400.6783934,bcc307a0-d6ac-4765-93d9-339a52020db8
0.0649519244459296,0.1666773167644023,-0.0604411253246877,-0.7504191081443783,-0.2567612905312946,0.7747412546894871,-0.115754153149767,-0.1307866539605264,-12.740960803374444,16.311787214571094,34.2912889139613,3.537884696981007,0.5002334831318686,0.6432636637652576,7233.2705078125,11.612333333333334,8.07,178.54546158368873,-8.501361151726174,52.69166396842776,1553.0,1645.0,1350.0,1528.0,1471.0,998.0,60.0,292.7,1649237400.786584,1649237401.9123466,bcc307a0-d6ac-4765-93d9-339a52020db8
0.0688080324474534,0.1641234354620769,-0.0672051183918528,-1.0266809509289487,-0.2968648194883693,1.0476146090859624,-0.0513381813771902,-0.0736656799091788,-12.681543992641686,16.345043299971145,36.782416428606126,4.774557257694851,0.5017410464619669,0.6162016774608735,7239.38037109375,11.594111111111111,8.054444444444446,178.62159542563714,-8.45287876145013,52.80481971240736,1553.0,1761.0,1350.0,1528.0,1471.0,998.0,60.0,292.7,1649237403.849569,1649237404.9116316,99e278f8-1ca7-4ac8-8f99-a73e3dc945bd
0.0478459763744186,0.1623534187142158,-0.0694555683678991,-1.0190698736704482,-0.2986980514033295,1.047690466945563,-0.0551563605816856,-0.0756759133653721,-12.711917748419848,16.47353119395884,37.517788261140296,4.758400632399722,0.4877222294990325,0.6280182549243082,7242.780164930556,11.595,8.04,178.6587182626861,-8.451539664917853,52.84763778885922,1553.0,1761.0,1350.0,1528.0,1471.0,998.0,60.0,292.7,1649237405.0198886,1649237405.9696915,99e278f8-1ca7-4ac8-8f99-a73e3dc945bd
0.0545846831961969,0.1630234964823589,-0.0672809762664493,-1.0227869114618546,-0.2977877569825796,1.047576680161585,-0.0519956161999,-0.0749046917153417,-12.578825790704874,16.460435277108793,37.128593051582655,4.76655608576929,0.4933381460544784,0.6189119779080597,7245.5,11.592,8.038888888888888,178.67222534122476,-8.459610576923348,52.87359554334489,1553.0,1761.0,1350.0,1528.0,1471.0,998.0,60.0,292.7,1649237406.078043,1649237407.2365065,99e278f8-1ca7-4ac8-8f99-a73e3dc945bd
