raw_voltage_G-,raw_voltage_G0,raw_voltage_G1,raw_voltage_G2,raw_voltage_G3,raw_voltage_G4,raw_voltage_G5,raw_voltage_G6,load_x,load_y,load_z,load_l,load_m,load_n,rpm,voltage,current,roll,pitch,yaw,aileron1_pwm,elevator_pwm,throttle_pwm,rudder_pwm,aileron2_pwm,pbaro,pdiff,Tt,sample_start_time,sample_end_time,uid
0.0530725831109817,0.190897214335306,0.088245345270427,-0.2780905035161891,-0.0954419450000958,0.2804529793024988,-0.1274984683974348,-0.1484048968006877,-12.365469129189954,20.10783727415696,29.710274856469468,1.3937221737234335,0.5803531458269616,0.2369017954330958,3175.27490234375,11.958666666666668,0.2211111111111111,179.8912486657121,-11.357217966465956,113.68521037823184,1553.0,1435.0,1200.0,1528.0,1471.0,995.0,60.0,293.1,1649249344.1657822,1649249345.3546865,6c862fb7-e4e2-4ea2-8b88-1563dd96f4b4
0.040791700800896,0.1769727455388647,0.0900993112646039,-0.2707272320278339,-0.0911291726262397,0.2843975881654637,-0.1251448516823176,-0.1517052198714875,-12.4816067433078,20.286861137066413,29.310287542257075,1.3871333650031716,0.5317089841532059,0.2228102954197335,3450.3740234375,11.958666666666666,0.2122222222222222,-179.9450766276511,-11.32533170264444,112.63552262146722,1553.0,1435.0,1200.0,1528.0,1471.0,995.0,60.0,293.1,1649249345.4629166,1649249346.7857406,6c862fb7-e4e2-4ea2-8b88-1563dd96f4b4
0.0366761588372343,0.1708980480935342,0.0820260118611548,-0.2842440935452294,-0.0985844837485821,0.302490193070189,-0.128142754660049,-0.1507979597717952,-12.582054064806153,20.244467667246056,29.225200901471496,1.457533438151415,0.5115419294164156,0.2472114600365378,3480.861029730903,11.95722222222222,0.21,-179.86621678131394,-11.370967801311355,111.79883734960907,1553.0,1435.0,1200.0,1528.0,1471.0,995.0,60.0,293.1,1649249346.8943603,1649249348.0168698,6c862fb7-e4e2-4ea2-8b88-1563dd96f4b4
0.1523320894999314,0.3399376779435876,0.1227080774731531,-0.3444125371290319,-0.0987291194542812,0.1947892276887478,-0.1286424052233054,-0.148141923288965,-12.092362558096765,19.99927700219288,29.738576012919275,1.3519688857603709,1.147510260828021,0.2137591257499545,3485.736572265625,11.951333333333332,0.21,-179.90805244889015,-11.348789228438944,110.90607167120572,1647.0,1435.0,1200.0,1528.0,1543.0,995.0,60.0,293.1,1649249348.577306,1649249349.665025,5654cc01-1d01-4800-9789-c9f0c54f8695
0.1527528477955412,0.3330346129267345,0.1175669373228868,-0.3460166807150073,-0.1028315130251004,0.2020078607453667,-0.1338492891054247,-0.158319014636356,-12.313117049900056,20.15085401702144,29.55286963582272,1.372416776028603,1.1247020811324828,0.2324403189716184,3485.736572265625,11.947666666666668,0.2044444444444444,-179.90742103584688,-11.305979784587286,110.42143028627812,1647.0,1435.0,1200.0,1528.0,1543.0,995.0,60.0,293.1,1649249349.7975075,1649249350.8867352,5654cc01-1d01-4800-9789-c9f0c54f8695
0.1490580642957055,0.3312069442302088,0.1104403440538652,-0.3532747611634083,-0.110234229416367,0.2110936098821662,-0.1376624114665808,-0.1631840327646103,-12.231108004725034,20.0950535925973,29.597874782369896,1.4085298095639291,1.1173087836718123,0.2575254317690841,3484.3193359375,11.951,0.21,-179.9251188148963,-11.326058738336094,109.9495780511164,1647.0,1435.0,1200.0,1528.0,1543.0,995.0,60.0,293.1,1649249350.9946814,1649249352.1106942,5654cc01-1d01-4800-9789-c9f0c54f8695
0.2280422795070318,0.4740938150037984,0.1445875070942569,-0.4153497715247941,-0.1142314341137027,0.1234838481511095,-0.140318448329034,-0.1674705082067895,-11.90801192769274,20.18365067401289,29.039034885376537,1.354046169546582,1.6656966258907986,0.2363514967826967,3518.0062391493057,11.931111111111113,0.2,179.80158346010802,-11.22833125332669,109.02768692827227,1745.0,1435.0,1200.0,1528.0,1614.0,995.0,60.0,293.1,1649249354.252363,1649249355.3984134,6b8dac5d-824d-4863-9e7b-6443c76d8bd9
0.2192589508443899,0.457789433105629,0.139867125155034,-0.4187815805628075,-0.1165324561919719,0.140419369119441,-0.1387800508829457,-0.1576484312166576,-11.87608293274238,20.20363259091452,28.71381053673468,1.3997055154580764,1.6073253713938422,0.2412821272341982,3518.4875217013887,11.93311111111111,0.2,179.7229209303469,-11.231523892444978,108.72222796712089,1745.0,1435.0,1200.0,1528.0,1614.0,995.0,60.0,293.1,1649249355.5115097,1649249356.6188333,6b8dac5d-824d-4863-9e7b-6443c76d8bd9
0.2259121908616762,0.4698467864840581,0.1472435436270106,-0.4231863932670541,-0.1110494493083063,0.1347128359069702,-0.1325607172975629,-0.1536906734425989,-11.837858002318356,20.05904615489021,29.05911180176959,1.3963014515710528,1.6502243345421066,0.2168976061909587,3517.2041015625,11.938555555555556,0.2,179.67100845701512,-11.165921158695603,108.4746624482844,1745.0,1435.0,1200.0,1528.0,1614.0,995.0,60.0,293.1,1649249356.7275689,1649249357.847801,6b8dac5d-824d-4863-9e7b-6443c76d8bd9
0.3064348021314565,0.5983621316882991,0.1815221937754037,-0.4613307705211036,-0.1097871741422032,0.0318637341959308,-0.1391745119775445,-0.1686144450258858,-11.668218321363078,20.282446707327736,27.44980341939639,1.2542468134609082,2.152170869006093,0.1908424771110696,3515.761474609375,11.915666666666668,0.2,179.41724416205193,-11.028230900898627,108.11831554217676,1849.0,1435.0,1200.0,1528.0,1686.0,995.0,60.0,293.1,1649249358.7557163,1649249359.89697,16ca4823-7817-4200-9a8f-e196c1f8eafb
0.3107738716056913,0.6120236257641578,0.1754211987492494,-0.4771355126372574,-0.1222915855918484,0.0355585153664144,-0.1483391540732979,-0.1703895190888999,-11.663323866148891,20.51249225723977,27.74728976320001,1.29947220182816,2.202301555107393,0.231081813802429,3515.44127061632,11.914222222222222,0.2,179.33123690220333,-11.01512272438025,107.86520390973423,1849.0,1435.0,1200.0,1528.0,1686.0,995.0,60.0,293.1,1649249360.0060604,1649249361.1246707,16ca4823-7817-4200-9a8f-e196c1f8eafb
0.2909193415657987,0.573497949465916,0.1685312822949187,-0.4610941040813129,-0.1192410879363152,0.0536642686727886,-0.1481813691319718,-0.1721514442436178,-11.909825849838455,20.59390293344525,27.02967301348667,1.303930893780205,2.0635013011294783,0.2303550975192655,3510.641655815972,11.907777777777778,0.2,179.28716396821898,-11.013196041851876,107.69507376333804,1849.0,1435.0,1200.0,1528.0,1686.0,995.0,60.0,293.1,1649249361.2325122,1649249362.353382,16ca4823-7817-4200-9a8f-e196c1f8eafb
0.3431854056734472,0.6958202588136787,0.1868868594903445,-0.5246154878654434,-0.1373468484165637,-0.012447385766428,-0.1608961606577179,-0.1868385397715757,-11.506713090946628,20.910065310340364,26.37055269771339,1.3017655707726652,2.5342628158193543,0.2615648466222733,3511.440673828125,11.861,0.19,179.0466608649843,-10.977066807599709,107.23976879980552,1962.0,1435.0,1200.0,1528.0,1760.0,995.0,60.0,293.1,1649249364.078962,1649249365.2261815,8ac68111-7962-4030-a4ea-08cc34c46497
0.362093229531812,0.6909420929701995,0.1883463665224042,-0.523747646938945,-0.1347959967402447,-0.0102778374833505,-0.1587266250222211,-0.1826441053034206,-11.57005279160352,20.933319125215416,26.12727353663164,1.3048393612969065,2.5185572774429734,0.2520324573654926,3505.8551974826387,11.860111111111111,0.19,179.0209732824258,-10.974067500780423,106.94239754154133,1962.0,1435.0,1200.0,1528.0,1760.0,995.0,60.0,293.1,1649249365.338692,1649249366.6564963,8ac68111-7962-4030-a4ea-08cc34c46497
0.3898238277833203,0.7451147162823003,0.1903581175875766,-0.5116902908259229,-0.1378990882461627,-0.067119654891589,-0.1718358756063604,-0.2005657793840115,-11.348508519893311,20.39527081024904,27.13278658147159,1.146714955438343,2.7098915696325623,0.280636078409938,3499.6524793836807,11.858222222222222,0.1855555555555555,178.9558239024826,-10.975203304321155,106.714367122641,1962.0,1435.0,1200.0,1528.0,1760.0,995.0,60.0,293.1,1649249366.7648304,1649249368.0853536,8ac68111-7962-4030-a4ea-08cc34c46497
-0.0397703627012162,0.0177946307679962,0.0530331368368719,-0.1785285648878324,-0.0853831920430762,0.3633555036514202,-0.128602958965838,-0.1537038219590772,-12.81198204841828,20.45094827579194,30.275296952703567,1.355814370476122,-0.0852189089250491,0.2530434610575135,3500.764105902778,11.964,0.22,179.3625889883135,-10.878163866006892,106.35933237176393,1459.0,1435.0,1200.0,1528.0,1394.0,995.0,60.0,293.1,1649249369.1991532,1649249370.341858,4cf54f65-7822-412b-a363-89c662e6b0c1
-0.0523536653111218,-0.0040190565333269,0.0470899261512226,-0.1900994166223274,-0.0896433696775744,0.3945573579532817,-0.1229621678582544,-0.1467744584301789,-12.601855056050118,20.460601902911115,30.155449750165403,1.451884840955996,-0.16641050801649,0.2561489809371429,3519.9339735243057,11.961888888888886,0.21,179.27856703678364,-10.816669206452069,106.34343245028604,1459.0,1435.0,1200.0,1528.0,1394.0,995.0,60.0,293.1,1649249370.4496796,1649249371.77189,4cf54f65-7822-412b-a363-89c662e6b0c1
-0.0378506528781806,0.0064473058707276,0.0551237794699055,-0.1840378676908006,-0.0836870100259377,0.3789630053143263,-0.1212922838173969,-0.1488125067232531,-12.661188215918166,20.565421466259423,30.226307109353943,1.4042452011629518,-0.1275985722556785,0.2360426224985458,3525.522521972656,11.96,0.21,179.22309831162408,-10.88402682449944,106.34431563169125,1459.0,1435.0,1200.0,1528.0,1394.0,995.0,60.0,293.1,1649249371.880064,1649249372.959212,4cf54f65-7822-412b-a363-89c662e6b0c1
-0.137452032005061,-0.1595944380881561,0.021791834469328,-0.1101027428971573,-0.0781514084936509,0.4713588863056404,-0.1193988711756347,-0.1472083655456463,-13.035274127805287,21.065098046422385,29.78683315617544,1.446485903405089,-0.755020919708735,0.2507129058892863,3533.151611328125,11.93577777777778,0.2055555555555555,179.17537198534365,-10.765682508344092,106.25026639327734,1364.0,1435.0,1200.0,1528.0,1312.0,995.0,60.0,293.1,1649249375.139034,1649249376.484956,ecbb0d47-f0f1-496d-b721-0b457189309e
-0.1491806699329885,-0.1671023442563694,0.0246056553655102,-0.1037519217694747,-0.0739306769164824,0.4713851837877733,-0.1171635928007576,-0.137031273943077,-13.113469131751062,21.189086328358577,29.59462935425764,1.4331111438797888,-0.7815246281587889,0.23671657906889,3522.2631225585938,11.9385,0.2075,179.17617491202608,-10.753788350518814,106.12457137061898,1364.0,1435.0,1200.0,1528.0,1312.0,995.0,60.0,293.1,1649249376.5933578,1649249377.7082455,ecbb0d47-f0f1-496d-b721-0b457189309e
-0.1434872840085091,-0.153953646960267,0.0220153622916365,-0.108538047534486,-0.0784406798502877,0.464784538843529,-0.1213185808878324,-0.1434741355984032,-13.049040690838956,21.03205701126681,29.83667990499596,1.4279760107528616,-0.7343879149072319,0.2543059620126596,3513.201904296875,11.938666666666668,0.21,179.1721208152987,-10.737597624250643,106.0393827848334,1364.0,1435.0,1200.0,1528.0,1312.0,995.0,60.0,293.1,1649249377.8166988,1649249378.9417582,ecbb0d47-f0f1-496d-b721-0b457189309e
-0.2357911403002065,-0.3345247141270552,-0.003046053291431,-0.0329198922939921,-0.0641611952135374,0.5658191115475302,-0.1105892444813703,-0.1423433480060648,-13.55837471573236,21.85916507520039,28.884744755544407,1.488265132668482,-1.410482231179665,0.2305176055938947,3504.2626953125,11.9,0.2,179.20551740470046,-10.72910276619792,105.9119936855334,1262.0,1435.0,1200.0,1528.0,1222.0,995.0,60.0,293.1,1649249379.5750017,1649249380.590737,efe33aa7-4cfe-438e-9744-547e51d5b40a
-0.2279808138571575,-0.3285420563644162,0.002857711607153,-0.0338008545466997,-0.0606241956402257,0.5605333361735952,-0.1057373747625064,-0.1305884123328851,-13.39156752763347,21.869253189961874,28.891726015795594,1.4788204473919089,-1.3888032185381634,0.211583110434091,3499.4947916666665,11.911555555555555,0.1955555555555555,179.18511031728022,-10.718782634953245,105.74935549774676,1262.0,1435.0,1200.0,1528.0,1222.0,995.0,60.0,293.1,1649249380.70523,1649249381.808082,efe33aa7-4cfe-438e-9744-547e51d5b40a
-0.2327537911559739,-0.322546249895608,-0.0016128451536147,-0.0384028986739191,-0.065633849094815,0.5580482327952367,-0.11249580500734,-0.1395821210562383,-13.572727014286476,21.85742704095448,28.729149884218145,1.4831990648304445,-1.3633091882855228,0.2344568723785171,3499.652642144097,11.909444444444444,0.1988888888888889,179.19530095952192,-10.704736161197635,105.5963106901044,1262.0,1435.0,1200.0,1528.0,1222.0,995.0,60.0,293.1,1649249381.9159842,1649249383.0437176,efe33aa7-4cfe-438e-9744-547e51d5b40a
-0.2827188431627873,-0.4102217731148145,-0.0517488253636241,0.0132714789731251,-0.1053429138462707,0.5995192168276959,-0.1570304422389501,-0.1759645663465781,-13.44286010118371,23.33227787119325,28.793705972526222,1.4671813571308587,-1.7031525949200903,0.4097116502085288,3493.7880045572915,11.869333333333334,0.1866666666666666,179.23288369597498,-10.678876970136228,105.33846270092742,1153.0,1435.0,1200.0,1528.0,1121.0,995.0,60.0,293.1,1649249384.153184,1649249385.2871058,0d0d7cb1-d63c-4626-bd64-5b3184f7a019
-0.2537785589926323,-0.2990758239846399,-0.056797924965335,-0.0447800165373781,-0.1395689723545344,0.5371155103586511,-0.1903360929091657,-0.212189228124198,-13.310037085735342,23.367973665375583,27.656698789467544,1.457772682076033,-1.2703226311699125,0.5220456658780925,3489.99462890625,11.865777777777778,0.19,179.2018245490892,-10.664126512577418,105.1167152971536,1153.0,1435.0,1200.0,1528.0,1121.0,995.0,60.0,293.1,1649249385.3976488,1649249386.7223709,0d0d7cb1-d63c-4626-bd64-5b3184f7a019
-0.2460471245663255,-0.2992336080363121,-0.0572055344549687,-0.0451218826332747,-0.1405419758508234,0.5368788338418597,-0.190862040675723,-0.2155158486604379,-13.265932656432756,23.403919124439373,27.55212437501465,1.4582355263357092,-1.2702828768300962,0.5245218941848195,3489.205376519097,11.865333333333334,0.19,179.17383898732993,-10.651108551474328,104.97225224274838,1153.0,1435.0,1200.0,1528.0,1121.0,995.0,60.0,293.1,1649249386.8311627,1649249387.9548583,0d0d7cb1-d63c-4626-bd64-5b3184f7a019
0.0763983700807236,0.226477584765275,0.0442892537778882,-0.3081352794266029,-0.152678223653695,0.2737339956837057,-0.1835776624346946,-0.210677127967066,-12.425681821787895,20.59139057887583,29.38765091945749,1.4473324495697406,0.7180075200013935,0.4579676837497605,3502.353841145833,11.961333333333334,0.2133333333333333,178.89526744530122,-10.646292414335823,104.77081478592656,1553.0,1435.0,1200.0,1528.0,1471.0,995.0,60.0,293.1,1649249388.577247,1649249389.7948506,28a44bcb-6c51-4f4b-8b59-613a877f7bcf
0.0744260655523016,0.2234139385399741,0.0458145022456339,-0.3151303862458925,-0.1514685438336163,0.2814128337287367,-0.1803167858046909,-0.208415552229245,-12.499508520193007,20.632435593799386,29.15529801370589,1.4806409098028508,0.7100574852278632,0.4487699580638079,3507.1315104166665,11.959666666666667,0.21,178.8450610014422,-10.63728111809085,104.96037985615108,1553.0,1435.0,1200.0,1528.0,1471.0,995.0,60.0,293.1,1649249389.9027088,1649249391.026551,28a44bcb-6c51-4f4b-8b59-613a877f7bcf
0.0867200965501909,0.2524988533240047,0.0369654297155462,-0.3265829015016848,-0.1682988763482372,0.2631229986660631,-0.1989484898094095,-0.2235760003776664,-12.50579830598504,20.779966319870983,28.99984851241025,1.4658847054606017,0.8214174294833713,0.5134179811136041,3512.879638671875,11.962333333333332,0.21,178.82687448441217,-10.627830982191709,105.13011461048536,1553.0,1435.0,1200.0,1528.0,1471.0,995.0,60.0,293.1,1649249391.134227,1649249392.2488315,28a44bcb-6c51-4f4b-8b59-613a877f7bcf
0.0845242642968084,0.2146174613424734,0.0422512056890285,-0.5293884367188975,-0.1738081805107931,0.4989842946232174,-0.1186230980929076,-0.1380831696352416,-12.32664245163748,19.929857867201008,31.042342013362,2.448419622484216,0.685258963351238,0.3963435904855648,3515.761474609375,11.96022222222222,0.21,178.71276327285867,-10.575796229501089,105.495859097981,1553.0,1537.0,1200.0,1528.0,1471.0,995.0,60.0,293.1,1649249394.1864574,1649249395.3221445,10cdf2b2-8ed6-4ecf-b9c9-97554f438cc6
0.0625659417476953,0.1689388924005889,0.0659583051370619,-0.4861292145951049,-0.1340465197759602,0.5069524038313733,-0.0863167494031003,-0.110444608241953,-12.511157700938474,19.73923084018231,31.693889334764823,2.368670567069901,0.5056413982046909,0.2595943683803463,3517.2041015625,11.96,0.2177777777777778,178.71986970523514,-10.512819134305156,105.61597935818428,1553.0,1537.0,1200.0,1528.0,1471.0,995.0,60.0,293.1,1649249395.4332447,1649249396.5553353,10cdf2b2-8ed6-4ecf-b9c9-97554f438cc6
0.0583270043931274,0.1832396161554239,0.0669115853906313,-0.4924643596119173,-0.1360208475939604,0.4992760944076003,-0.0865362317782922,-0.1058167726305589,-12.344528142751876,19.576607470555825,31.76913489891136,2.364776698556374,0.5582692113133665,0.2632607853046348,3517.6853841145835,11.96,0.2166666666666666,178.71191329376197,-10.556604631161957,105.70194260125828,1553.0,1537.0,1200.0,1528.0,1471.0,995.0,60.0,293.1,1649249396.664038,1649249397.7813218,10cdf2b2-8ed6-4ecf-b9c9-97554f438cc6
0.0871408548660606,0.195394068248795,0.0560836341182895,-0.6978232947444927,-0.1711915898984219,0.6881677184223343,-0.0459633990398814,-0.0707749896782689,-12.231309928147812,19.22909290204271,33.54912631839419,3.2499786997210105,0.6118701991927669,0.2705596356625455,3520.73583984375,11.94,0.2,178.65667679503414,-10.481651842757527,105.94033441712948,1553.0,1645.0,1200.0,1528.0,1471.0,995.0,60.0,293.1,1649249399.7156372,1649249400.8532505,01d49c44-ce46-434c-841f-51ec91293b3b
0.08406406000466,0.1826792794536108,0.0553867534359723,-0.7045159813689251,-0.1702317345736127,0.7057343749053224,-0.0418347082043879,-0.071826885569951,-12.352411256326114,19.29416776872388,33.41237732867332,3.304864314927908,0.5670320770415637,0.262422384799756,3525.885009765625,11.947888888888889,0.21,178.67935909435786,-10.528861446254483,105.9545882630174,1553.0,1645.0,1200.0,1528.0,1471.0,995.0,60.0,293.1,1649249400.9614818,1649249402.2840698,01d49c44-ce46-434c-841f-51ec91293b3b
0.0776474962598347,0.1758945524639923,0.0524545939775506,-0.7174148577408097,-0.174675994593178,0.7220124592758431,-0.0409011509282291,-0.0725763614255592,-12.341545626260864,19.42992736272741,33.08367848649426,3.3712470866173145,0.545826117925549,0.269697525455523,3524.43505859375,11.945,0.2011111111111111,178.6943156908204,-10.535652361836773,105.96749276708928,1553.0,1645.0,1200.0,1528.0,1471.0,995.0,60.0,293.1,1649249402.3919475,1649249403.7251122,01d49c44-ce46-434c-841f-51ec91293b3b
0.0901782035458444,0.1918044742491398,0.0477868067748163,-0.8276404265004733,-0.1961215201515552,0.8165647251698345,-0.0242943470456086,-0.0485010973708855,-12.397784984064533,19.52905639669553,34.35637599277395,3.832959810196016,0.6078930553550431,0.2842989118329964,3524.43505859375,11.928666666666668,0.2,178.7171740572427,-10.479032085755872,106.03540002563736,1553.0,1761.0,1200.0,1528.0,1471.0,995.0,60.0,293.1,1649249404.63414,1649249405.7719452,e3afad22-158d-417e-b3e4-5c8d5eb851db
0.1015123796436771,0.1978397255659206,0.0492200147856936,-0.8347275775790871,-0.1986329210639247,0.8201806163343534,-0.0218749869527264,-0.0417821133523955,-12.13339382345972,19.59121818592856,34.79571929717761,3.857758640757224,0.6257282248926966,0.2837684200785389,3524.43505859375,11.93225,0.2,178.74050446562765,-10.457332100444049,106.00193190897684,1553.0,1761.0,1200.0,1528.0,1471.0,995.0,60.0,293.1,1649249405.8812785,1649249406.9949389,e3afad22-158d-417e-b3e4-5c8d5eb851db
0.0877325461785173,0.1959463134791392,0.046156368411498,-0.8312694719223137,-0.1999083451484802,0.815013179383532,-0.0263192464106436,-0.0530636952719397,-12.261805489191934,19.556089758705635,34.222624462706,3.837804667323683,0.6239943882215742,0.2949268937447722,3524.43505859375,11.933666666666666,0.1966666666666666,178.76600383852903,-10.506467627559475,105.98589177889347,1553.0,1761.0,1200.0,1528.0,1471.0,995.0,60.0,293.1,1649249407.1035388,1649249408.2233038,e3afad22-158d-417e-b3e4-5c8d5eb851db
0.0890474158127751,0.1898321699733631,0.0409757819758267,-0.8741999859898829,-0.2123338644166922,0.8638868791370213,-0.021519972205082,-0.0430180911147274,-12.230625256662345,19.914341946675503,34.692729532077784,4.046678689315619,0.6016387366485273,0.3115010486239694,3525.885009765625,11.878888888888888,0.1777777777777777,178.7743700613524,-10.467699948149177,105.9526758100498,1553.0,1887.0,1200.0,1528.0,1471.0,995.0,60.0,293.1,1649249409.13862,1649249410.284228,bba19dae-119c-499d-8fbf-bb639ee621fd
0.0930972142090906,0.1955124064881873,0.0450650269679074,-0.8621294747406841,-0.2091913250651123,0.8453998134806612,-0.0241628598533168,-0.0500263460734263,-12.246300978392751,20.05830447637848,34.44000658639802,3.9790174541109606,0.6240694426762136,0.3057762680884403,3519.6144205729165,11.892333333333331,0.19,178.78066597794728,-10.4594005093977,105.84572946693564,1553.0,1887.0,1200.0,1528.0,1471.0,995.0,60.0,293.1,1649249410.393409,1649249411.5060089,bba19dae-119c-499d-8fbf-bb639ee621fd
0.0924134820235736,0.1994438665176212,0.0423037997362153,-0.8486389150018211,-0.2095594905125709,0.8313833054289487,-0.0306188701349933,-0.0533266691356865,-12.319677037417351,19.945895882610905,34.72712471800557,3.9162152632594807,0.6349514949315502,0.3202273317383274,3514.31982421875,11.896888888888888,0.1811111111111111,178.8404164728066,-10.502015767176704,105.70722840876594,1553.0,1887.0,1200.0,1528.0,1471.0,995.0,60.0,293.1,1649249411.6134958,1649249412.7483194,bba19dae-119c-499d-8fbf-bb639ee621fd
0.0551237796175674,0.1773803550499925,0.0910328685773553,-0.0912475114568712,-0.0731286067123451,0.1160942831421804,-0.1748469275413558,-0.1954377875172815,-12.606085600772287,20.88012608917869,28.74227283455956,0.6078971952154594,0.5171245471825826,0.2682768414606722,3512.879638671875,11.961,0.21,178.88036093689263,-10.690275796951072,105.4720164254083,1553.0,1335.0,1200.0,1528.0,1471.0,995.0,60.0,293.1,1649249414.669379,1649249415.8118165,f5c6a8fa-c03e-4829-bcc1-0e204f4f48b7
0.0387799502542807,0.1817983168795083,0.1012099593355928,-0.0816095200957937,-0.0634643146282146,0.1031296662032535,-0.1675888465952251,-0.1922952489481674,-12.48695473901214,20.875915909508112,28.842768102209885,0.5575778510540048,0.5314191830228687,0.2317531299083305,3520.575249565972,11.958666666666668,0.21,178.8702583282003,-10.719050625014429,105.64316578781067,1553.0,1335.0,1200.0,1528.0,1471.0,995.0,60.0,293.1,1649249415.9313986,1649249417.236233,f5c6a8fa-c03e-4829-bcc1-0e204f4f48b7
0.0475501305895165,0.1797734176724646,0.0995663714184626,-0.088091825076318,-0.0644504682121737,0.1126098780928644,-0.1662345315612758,-0.1921111673995585,-12.545727629040597,20.799059128832884,29.05983654440277,0.5929173294496826,0.5230093001486419,0.2334031895359632,3540.61279296875,11.96288888888889,0.21,178.8237007231778,-10.697261467788444,105.822709452703,1553.0,1335.0,1200.0,1528.0,1471.0,995.0,60.0,293.1,1649249417.3449895,1649249418.4652224,f5c6a8fa-c03e-4829-bcc1-0e204f4f48b7
0.0421197190612721,0.1851117881618094,0.1057462595517655,0.1099275422920917,-0.0421108311141123,-0.0823852923805803,-0.2198286213130185,-0.2389205305594069,-12.656285382703109,21.609949484649743,27.814025519361604,-0.2865170666761807,0.5308806290738626,0.2710734617106447,3564.8263888888887,11.961222222222222,0.2055555555555555,178.81644250881988,-10.772206572230054,106.04040124192964,1553.0,1236.0,1200.0,1528.0,1471.0,995.0,60.0,293.1,1649249419.7859402,1649249420.925059,6f2c016b-939f-492f-bd19-6f6db613ad07
0.0391349649734266,0.1735803819614296,0.1108216561130687,0.1032611552499835,-0.0367198653803532,-0.0656207018663278,-0.2100328421035817,-0.2414582296982054,-12.676041545040462,21.724712521261,27.77437766870723,-0.2328098233992622,0.4892665462626362,0.2412947554363159,3565.4853515625,11.95611111111111,0.2,178.8008848557104,-10.804503216584196,106.14547687212112,1553.0,1236.0,1200.0,1528.0,1471.0,995.0,60.0,293.1,1649249421.0332632,1649249422.15862,6f2c016b-939f-492f-bd19-6f6db613ad07
0.0472345619221722,0.1980764021355543,0.1087573108285553,0.1069033430535963,-0.0415980319930337,-0.0909056470235782,-0.2190659970680942,-0.2446270655955717,-12.5633612332195,21.51183033925815,28.027832866377302,-0.2992612443071171,0.5775147147005042,0.2671338155908915,3565.4853515625,11.951666666666666,0.1944444444444444,178.794526708503,-10.78982001741596,106.22388440815322,1553.0,1236.0,1200.0,1528.0,1471.0,995.0,60.0,293.1,1649249422.269842,1649249423.3809252,6f2c016b-939f-492f-bd19-6f6db613ad07
0.0487335133225862,0.1895691960190799,0.1293613177255685,0.2667388895444155,-0.0098307805851453,-0.2368561870271681,-0.2468360467175511,-0.2688995618034299,-12.743266278940112,22.65563920001429,26.97831494747989,-0.979430898007106,0.5378290994818564,0.2336153503736356,3566.968994140625,11.949666666666666,0.2,178.7799419778953,-10.815006339980386,106.3938931289642,1553.0,1133.0,1200.0,1528.0,1471.0,995.0,60.0,293.1,1649249425.1130145,1649249426.2492168,744a5f99-7296-4a02-9bb5-b9e74beeca4f
0.022383525882211,0.1960909490803865,0.1226291853244705,0.2614268167678676,-0.0169968202117731,-0.2373952833022178,-0.2526609201805254,-0.27960260198155,-12.679160715189434,22.47653982615204,27.06813021642672,-0.9701354850546418,0.5612640959245517,0.2618333404366327,3565.4853515625,11.943,0.2,178.79364333737036,-10.863158889037758,106.44793130894762,1553.0,1133.0,1200.0,1528.0,1471.0,995.0,60.0,293.1,1649249426.357399,1649249427.687167,744a5f99-7296-4a02-9bb5-b9e74beeca4f
0.0061185884055544,0.1636136705373689,0.116620231059689,0.2567458815049512,-0.0183642848917031,-0.207403103493986,-0.2494526379434513,-0.2750663012214615,-12.808838315575212,22.66647116987097,26.183397802175968,-0.8914264451311776,0.4484123513850638,0.2619315605600413,3561.534912109375,11.944333333333333,0.1933333333333333,178.83547596930694,-10.836578354109008,106.46106348599182,1553.0,1133.0,1200.0,1528.0,1471.0,995.0,60.0,293.1,1649249427.795784,1649249428.9115658,744a5f99-7296-4a02-9bb5-b9e74beeca4f
0.0331654568544742,0.1842965690240991,0.130518402887708,0.3057773667964544,-0.007845327482308,-0.2697542286597665,-0.2587750644580343,-0.2824032745428279,-12.741201414543056,23.1987988241477,26.629647846582905,-1.1378146846364363,0.5164052481693386,0.2453235360286665,3555.13330078125,11.934444444444445,0.19,178.85598171501513,-10.839222206500237,106.48519302650963,1553.0,1026.0,1200.0,1528.0,1471.0,995.0,60.0,293.1,1649249429.5816944,1649249430.7609692,0bdd202a-b9d4-4891-a3c0-c1cf1ce29041
0.021134399743314,0.1650994732270369,0.1252063291259184,0.2943117019658317,-0.0105013651925878,-0.2432333103989476,-0.2564608937107849,-0.2775119588832025,-12.909871660156002,23.26292011895573,26.21377085421961,-1.0523455449208388,0.4503601800747012,0.2497329984753809,3555.13330078125,11.922777777777778,0.19,178.8364185354124,-10.869001641554012,106.48617885047987,1553.0,1026.0,1200.0,1528.0,1471.0,995.0,60.0,293.1,1649249430.8719838,1649249431.9847791,0bdd202a-b9d4-4891-a3c0-c1cf1ce29041
0.0155462037451685,0.16198323226167,0.1275073508503967,0.2925892233828128,-0.0082003433487428,-0.2409059901486973,-0.2529633399352353,-0.2782614346129269,-12.880441561641309,23.27764666271196,25.90725181789718,-1.0430521028833917,0.4415389495203783,0.2376726570200658,3550.715087890625,11.932666666666668,0.1955555555555555,178.86345849542658,-10.85045634986509,106.46759466465818,1553.0,1026.0,1200.0,1528.0,1471.0,995.0,60.0,293.1,1649249432.0931122,1649249433.216129,0bdd202a-b9d4-4891-a3c0-c1cf1ce29041
0.0507189664288265,0.1797602690334514,0.0801325997855455,-0.2821534523706803,-0.1013062637926135,0.3020431368591059,-0.1298652341426272,-0.1542429187352217,-12.442387587538173,20.11848927518481,30.655727303589263,1.4511818023394516,0.5307338303074628,0.2592096636426417,3550.715087890625,11.960666666666668,0.2066666666666666,178.87093375801817,-10.677504671295488,106.40393350704412,1553.0,1435.0,1200.0,1528.0,1471.0,995.0,60.0,293.1,1649249435.1499546,1649249436.2858398,5f7e811a-e418-4487-8472-09c0bf16a5cc
0.0493383533504665,0.170345802852443,0.0807111423938636,-0.2893720877356583,-0.100688275160946,0.3166513374260074,-0.125144851507977,-0.1479841385022308,-12.440015690099148,20.210528766559683,30.495481913883985,1.5009064507186602,0.4977543272868213,0.2493939314081942,3557.429036458333,11.96177777777778,0.2077777777777777,178.85512718245897,-10.678030026679147,106.42690343322286,1553.0,1435.0,1200.0,1528.0,1471.0,995.0,60.0,293.1,1649249436.3942502,1649249437.4643574,5f7e811a-e418-4487-8472-09c0bf16a5cc
0.0494566915861964,0.1839415542320584,0.0855893084079216,-0.2768282284920779,-0.0970066402754902,0.2908535973645896,-0.1262887885161168,-0.1526124802679517,-12.249650198757443,20.09864134569777,30.37870950548912,1.4142180068507673,0.5471971864819494,0.2411280806084786,3566.4753146701387,11.961,0.2,178.89570002394868,-10.656089182335345,106.44311298994312,1553.0,1435.0,1200.0,1528.0,1471.0,995.0,60.0,293.1,1649249437.5723546,1649249438.6168416,5f7e811a-e418-4487-8472-09c0bf16a5cc
0.085260591295065,0.1897401290890789,0.1619569345586946,-0.2920938659615508,-0.0282915509443074,0.2966258750782672,-0.0437544181002605,-0.059151541924839,-11.74776530322172,20.1035661863886,30.61753045709,1.4657505744400152,0.5699973962371594,-0.0728196211133491,3566.970133463541,11.961999999999998,0.2,178.89227126898535,-10.674909484002098,106.4630715616078,1553.0,1435.0,1200.0,1435.0,1471.0,995.0,60.0,293.1,1649249439.6532223,1649249440.7897022,4268ab84-8d8a-4528-8e3a-969c2cbb7d16
0.0716122447119423,0.1793263620640833,0.1662565579030434,-0.2962751520369744,-0.0231767081629541,0.3087226749366227,-0.0356548214233652,-0.0655286602105478,-11.772254761973102,20.175271325029115,30.38644840494973,1.5030059272574785,0.5339494382199113,-0.0988483864965928,3560.67236328125,11.964,0.2,178.8656301161277,-10.68018815301346,106.50232864304488,1553.0,1435.0,1200.0,1435.0,1471.0,995.0,60.0,293.1,1649249440.8976145,1649249442.0187333,4268ab84-8d8a-4528-8e3a-969c2cbb7d16
0.0905595158594419,0.1934875074090048,0.1692807582615036,-0.2904897255847469,-0.0215462694139078,0.2907352593102009,-0.0384554932804482,-0.0578366722242146,-11.791171241811336,20.113633824685145,30.560838491262267,1.4492955572520418,0.5851289774442656,-0.0991816035476107,3556.11669921875,11.961666666666666,0.2,178.87882945669875,-10.636756047298409,106.52031082358224,1553.0,1435.0,1200.0,1435.0,1471.0,995.0,60.0,293.1,1649249442.1271408,1649249443.244346,4268ab84-8d8a-4528-8e3a-969c2cbb7d16
0.1231814306250928,0.1925276525676157,0.2758772329423352,-0.296643315200123,0.0768191269527715,0.2884473865049445,0.0743734690237965,0.0522573631227235,-11.079197026139855,20.22922608899866,30.136243203222083,1.4644001667130586,0.5877701841001466,-0.5394244522412412,3551.6980794270835,11.957,0.1966666666666666,178.86824721694467,-10.661017448412723,106.5308042708771,1553.0,1435.0,1200.0,1330.0,1471.0,995.0,60.0,293.1,1649249445.18361,1649249446.322936,a30a77cd-96b8-40dc-98b4-0893771b9924
0.131728083106532,0.1968930195640966,0.279164407727771,-0.3021789176203386,0.0773319274063096,0.2902882037798615,0.0780551055871753,0.0538483560638736,-10.931031572336703,20.27661392096869,30.30671128903813,1.4816032670856958,0.6024741756169338,-0.5490412818790796,3549.7349446614585,11.957,0.1966666666666666,178.85316160579782,-10.695543770075922,106.50367703622356,1553.0,1435.0,1200.0,1330.0,1471.0,995.0,60.0,293.1,1649249446.4344163,1649249447.5555985,a30a77cd-96b8-40dc-98b4-0893771b9924
0.127244377782463,0.2045192630295993,0.2759035309499607,-0.2901610083453894,0.074965161530888,0.2737208471743706,0.0691402893066544,0.039766102209578,-11.023151597150331,20.245324453915465,30.540840749058827,1.416885904928768,0.6279672300114658,-0.5273731389363057,3549.244873046875,11.952777777777776,0.2,178.81473647934715,-10.662612866766352,106.48971992410958,1553.0,1435.0,1200.0,1330.0,1471.0,995.0,60.0,293.1,1649249447.6686392,1649249448.7843466,a30a77cd-96b8-40dc-98b4-0893771b9924
0.1475591129382805,0.2122506961488455,0.3859581111782105,-0.2813776777759721,0.1749083998485983,0.2511050909908598,0.1768675554619769,0.1449425219696223,-10.319536171890036,20.58856259728741,30.38321514535107,1.3543366453595962,0.6592830982585653,-0.9657552389872224,3552.8410373263887,11.94288888888889,0.1911111111111111,178.81309875176618,-10.689576935789749,106.45463096561348,1553.0,1435.0,1200.0,1210.0,1471.0,995.0,60.0,293.1,1649249449.6869535,1649249450.8248663,8eb98a72-186b-4ef2-b994-a5fe12f145e2
0.146336284176521,0.2144465282804754,0.3821975840414434,-0.2929090857101086,0.1698461513535789,0.2589548622206452,0.1764204995777119,0.1560531700535916,-10.219047887223224,20.481018886193727,30.28008345794442,1.3971221345763465,0.6689011678700849,-0.9529642076649496,3552.350151909722,11.948888888888888,0.1988888888888889,178.79628889730884,-10.685046148776568,106.427033965727,1553.0,1435.0,1200.0,1210.0,1471.0,995.0,60.0,293.1,1649249450.9336026,1649249452.056414,8eb98a72-186b-4ef2-b994-a5fe12f145e2
0.1543701374206182,0.2167738473996453,0.3859449624684602,-0.2853222866392054,0.1745007901932578,0.2499874520612652,0.1770910834389257,0.1481639527762237,-10.318992091789529,20.481948993828947,30.340111531892227,1.3600092263505514,0.6771088650017204,-0.9650043350615288,3546.307861328125,11.947666666666668,0.1944444444444444,178.8119391374271,-10.678795956503572,106.43574245691876,1553.0,1435.0,1200.0,1210.0,1471.0,995.0,60.0,293.1,1649249452.1652467,1649249453.486905,8eb98a72-186b-4ef2-b994-a5fe12f145e2
0.1714371444624106,0.2349584933982676,0.4606295509343956,-0.2386970046783157,0.2415591381302365,0.1867422253534531,0.2334069464886815,0.2121586547639693,-9.755037476667429,21.032681985852943,30.48035548353317,1.1203894499746954,0.739081207494744,-1.2353500173142369,3542.0743001302085,11.939666666666666,0.19,178.8277426773467,-10.75079554186562,106.39822878126732,1553.0,1435.0,1200.0,1071.0,1471.0,995.0,60.0,293.1,1649249454.6028416,1649249455.7451737,7662b8c5-31ca-47da-8823-efc39d32ba5a
0.1656517183945955,0.2292388108677146,0.4450220499146587,-0.2375662163931902,0.228581375632387,0.1900425478077064,0.2193641401419807,0.1951968376145625,-9.810450382136946,20.95075087786279,30.18815482594796,1.123860181384425,0.7194808403669706,-1.177504545737249,3543.375732421875,11.94175,0.19,178.79186065799698,-10.762566424262747,106.36476351051894,1553.0,1435.0,1200.0,1071.0,1471.0,995.0,60.0,293.1,1649249455.8533337,1649249456.9687529,7662b8c5-31ca-47da-8823-efc39d32ba5a
0.1637188601609859,0.2287917552107795,0.4430234481806399,-0.2450215315190725,0.2274505875337717,0.1983919684638896,0.2190748688237259,0.1993518253433878,-10.0052416540389,20.8837749995611,30.32983648891856,1.1588208324920553,0.7187171458841655,-1.1728565638461057,3538.804473876953,11.940125000000002,0.19,178.8115828292254,-10.699717478119524,106.34036948989824,1553.0,1435.0,1200.0,1071.0,1471.0,995.0,60.0,293.1,1649249457.0769408,1649249458.199528,7662b8c5-31ca-47da-8823-efc39d32ba5a
0.0354401813854374,0.1752765637599544,-0.0056231976322029,-0.2661383371151281,-0.1809216254154327,0.2915241807998351,-0.226652795653358,-0.2551197261984652,-13.096317664120988,20.37674477705105,29.930302922351466,1.3884152594233572,0.5175710998703884,0.6203595649535301,3521.38427734375,11.96377777777778,0.1988888888888889,178.9125205031447,-10.741080736136135,106.3529780191061,1553.0,1435.0,1200.0,1613.0,1471.0,995.0,60.0,293.1,1649249459.1098168,1649249460.2445376,ea07464b-832c-4409-a003-0c7f0ceb431b
0.0310616654737191,0.168781108005363,-0.0040979492163731,-0.2581702261589305,-0.1772531394043893,0.2881055199244148,-0.2257586842996035,-0.260260867241887,-13.157030679483936,20.410563506439004,29.59206133697429,1.3629746224312365,0.4957529511738332,0.6107613653305417,3491.576714409722,11.963555555555557,0.2,178.88742638813406,-10.65815550428675,106.37606178177104,1553.0,1435.0,1200.0,1613.0,1471.0,995.0,60.0,293.1,1649249460.3525589,1649249461.4789765,ea07464b-832c-4409-a003-0c7f0ceb431b
0.0294969706151298,0.1688337028536667,-0.0047553840242579,-0.2694123623686021,-0.1788835778676667,0.2977040679082796,-0.2221690899987696,-0.2472042102323201,-13.041880189418436,20.29800360147985,29.50432933736027,1.4091684160822426,0.497253334260401,0.6086781978435662,3478.821723090278,11.962666666666667,0.1977777777777778,178.8580763063606,-10.67779884374849,106.38139160605336,1553.0,1435.0,1200.0,1613.0,1471.0,995.0,60.0,293.1,1649249461.5870943,1649249462.6900263,ea07464b-832c-4409-a003-0c7f0ceb431b
0.0240665590425218,0.1590510730900434,-0.0698940269402247,-0.2510699281583479,-0.2376714042272188,0.2916162220161983,-0.2945395228864353,-0.3247289340844894,-13.508458113018964,20.50978910670741,29.14811577840039,1.3519810120665,0.4606377633610056,0.878642070669169,3465.380560980903,11.96,0.2,178.87550087784322,-10.65971961760668,106.39193590031203,1553.0,1435.0,1200.0,1694.0,1471.0,995.0,60.0,293.1,1649249463.8184824,1649249464.9584758,71cc1e8c-f3ef-4532-9d1e-535b3a106c9f
0.0130272169389463,0.1482059276519162,-0.0795825941874846,-0.264511439398323,-0.24756984575938,0.3157380088153584,-0.2971176799693617,-0.3255138107588609,-13.42984232184155,20.56427661789416,29.2586701524874,1.436442618489015,0.4194672686097196,0.9077598581509572,3464.291259765625,11.960222222222225,0.2,178.88892599411184,-10.63823829321204,106.38923797558988,1553.0,1435.0,1200.0,1694.0,1471.0,995.0,60.0,293.1,1649249465.0662477,1649249466.396209,71cc1e8c-f3ef-4532-9d1e-535b3a106c9f
0.0140892270452756,0.1439958163388522,-0.0789757314942593,-0.2634999994715483,-0.245205609050774,0.323564011765647,-0.295246519072794,-0.3187751025760531,-13.596683760012237,20.57550338586996,29.927067700533755,1.4518743354081804,0.3988477958930584,0.9013692036117912,3488.573974609375,11.962,0.2,178.9062185152705,-10.655547605252403,106.3785980586828,1553.0,1435.0,1200.0,1694.0,1471.0,995.0,60.0,293.1,1649249466.5062134,1649249467.6209202,71cc1e8c-f3ef-4532-9d1e-535b3a106c9f
-0.0124342224099265,0.163245507042831,-0.1593972081926368,-0.2291773469463971,-0.3214023138868498,0.2817021054082886,-0.3959291371885564,-0.4155075496578986,-14.0986523507053,20.70382364098305,30.453900908706903,1.2770590472368932,0.4606073708750731,1.2610952977748393,3538.6658528645835,11.95077777777778,0.1944444444444444,178.92092618928325,-10.692180945410817,106.36309125253716,1553.0,1435.0,1200.0,1774.0,1471.0,995.0,60.0,293.1,1649249468.733453,1649249469.7766058,dbb7f870-29c5-4de0-80c6-ab29e27825dc
-0.020744198647649,0.1437854371791759,-0.1650905942675729,-0.2376845540670632,-0.3253863695387589,0.3083939573889029,-0.3960606246056531,-0.4253822227640422,-14.309534435156746,20.95042289907904,30.39989685955439,1.3574658600102123,0.3902821564690908,1.2717155333746537,3549.4098036024307,11.949444444444444,0.1977777777777778,178.92502582060507,-10.621921255876094,106.33157220624727,1553.0,1435.0,1200.0,1774.0,1471.0,995.0,60.0,293.1,1649249469.8857565,1649249471.1005657,dbb7f870-29c5-4de0-80c6-ab29e27825dc
-0.0205995629108321,0.1495577146931168,-0.1569646991405765,-0.2237863812868042,-0.3157615222160868,0.2903933931472659,-0.3906565089074562,-0.4129567022558169,-14.194731179852388,20.759162379536964,30.51804137481503,1.2848786641523084,0.4088727778073507,1.240981065175985,3555.9527994791665,11.953666666666669,0.19,178.91495053266942,-10.667724883905152,106.28491442511702,1553.0,1435.0,1200.0,1774.0,1471.0,995.0,60.0,293.1,1649249471.2091534,1649249472.3271449,dbb7f870-29c5-4de0-80c6-ab29e27825dc
-0.0456478300400416,0.1366851414169129,-0.2130438943841415,-0.2121497848463875,-0.3684878038105064,0.2909193404629973,-0.4527052203053227,-0.4816192100425052,-14.536200905845863,21.17643936955034,29.8654638903232,1.2595091256795254,0.3638126588294604,1.4747964159358071,3548.3267517089844,11.92625,0.18375,178.93100527176844,-10.656156132418772,106.19598270593876,1553.0,1435.0,1200.0,1856.0,1471.0,995.0,60.0,293.1,1649249474.2630537,1649249475.398298,ffc424ef-fa1e-489c-83d4-50f749b36ce5
-0.0332354603746386,0.1455736598203894,-0.2197365811094792,-0.206614181551198,-0.3729978069574796,0.279203853477973,-0.4635134508196196,-0.4794759716878773,-14.796876640076668,20.99505864821944,30.09878662137008,1.2190662269776895,0.3958181643046191,1.506795963966486,3549.0816514756943,11.929666666666668,0.1811111111111111,178.91034091388954,-10.648612496787642,106.1364807540743,1553.0,1435.0,1200.0,1856.0,1471.0,995.0,60.0,293.1,1649249475.509084,1649249476.6265328,ffc424ef-fa1e-489c-83d4-50f749b36ce5
-0.0316576168182194,0.1446795484750055,-0.2114791991071779,-0.2148452660073003,-0.366370862849796,0.2877242080775721,-0.4512720118990386,-0.4803832322215509,-14.615794193822996,20.95408462683635,30.18638956117578,1.2570245687888026,0.3919428252292621,1.4691715547498243,3545.493109809028,11.93222222222222,0.1855555555555555,178.9174822561218,-10.67989609127864,106.06888920204784,1553.0,1435.0,1200.0,1856.0,1471.0,995.0,60.0,293.1,1649249476.735934,1649249477.789058,ffc424ef-fa1e-489c-83d4-50f749b36ce5
0.0856550522254415,0.2241502657077192,0.0236458006201744,-0.2591695253831661,-0.1268673309052929,0.2500794932980639,-0.1573460109859228,-0.17908080776901,-11.256056995366714,15.51381673404094,32.18534625647062,1.2500698513909545,0.6687809087952045,0.4205988416968139,7221.0830078125,11.633,8.027777777777779,-179.0126450050978,-10.752204363245673,93.04631392671811,1553.0,1435.0,1350.0,1528.0,1471.0,995.0,60.0,293.1,1649249481.804632,1649249482.7917378,11dcdc2a-99c4-4705-ae73-cbb6b811a5e2
0.0935442698928661,0.2249523361432099,0.0375176752453019,-0.2552906596926576,-0.1158881688518134,0.2565486514474881,-0.1486152760279342,-0.1714677118773114,-11.557548398396053,16.029973746581007,33.805913500632045,1.2600761014972246,0.6599705811965606,0.3762992751626532,7231.915364583333,11.631444444444444,8.032222222222222,-178.41260681523295,-10.621754011105168,87.56511443853958,1553.0,1435.0,1350.0,1528.0,1471.0,995.0,60.0,293.1,1649249482.9061415,1649249484.0033743,11dcdc2a-99c4-4705-ae73-cbb6b811a5e2
0.0757540839950801,0.2233087491892923,0.0235669083340506,-0.2586961721961485,-0.1253683795477902,0.2508026716398751,-0.1564781970390313,-0.1794621201983717,-11.324762145628188,15.402814916230453,32.23760988890756,1.2498611347994606,0.6655826133441011,0.4174027225840822,7235.986002604167,11.630666666666666,8.038888888888888,-178.12544896650763,-10.50994001984252,82.44527749204917,1553.0,1435.0,1350.0,1528.0,1471.0,995.0,60.0,293.1,1649249484.111962,1649249485.4343617,11dcdc2a-99c4-4705-ae73-cbb6b811a5e2
0.1783665072816697,0.3990673605801716,0.0639597033103458,-0.3430582204449086,-0.1298783826876471,0.1636531164263009,-0.1552422195268615,-0.1796462018179684,-11.054125412259946,15.2796027659141,33.4462096844055,1.2458479525886466,1.3251023486746158,0.3891974859877835,7239.38037109375,11.626111111111111,8.034444444444444,-178.1698254644551,-10.401167929217728,76.23978197698524,1647.0,1435.0,1350.0,1528.0,1543.0,995.0,60.0,293.1,1649249486.0779998,1649249487.2825584,f845cefb-28fb-43f5-9b7e-eeb8026477f2
0.171121575867198,0.3962798371711218,0.0273274355417368,-0.3657923194817812,-0.1658795156225077,0.1606026191515958,-0.1865098218161268,-0.2112556705353112,-10.789878396937452,14.861280949503406,29.392927819446943,1.2851653858630658,1.3491709698682757,0.5267876065417252,7241.420247395833,11.623666666666663,8.046666666666665,-178.2549372106125,-10.368268710396809,72.91802496262672,1647.0,1435.0,1350.0,1528.0,1543.0,995.0,60.0,293.1,1649249487.3913376,1649249488.5113976,f845cefb-28fb-43f5-9b7e-eeb8026477f2
0.1976556439151389,0.4232478109745185,0.0636967291017333,-0.3577716139020687,-0.1487336148527258,0.1695831781965476,-0.1754780655417313,-0.1931630631920431,-11.468221885246887,16.91884768879456,35.633495476629065,1.3033572826921025,1.4011614165082775,0.4489684278282299,7239.38037109375,11.627999999999998,8.056666666666667,-178.4743684213478,-10.361050338808964,69.82197989740025,1647.0,1435.0,1350.0,1528.0,1543.0,995.0,60.0,293.1,1649249488.6234398,1649249489.7439404,f845cefb-28fb-43f5-9b7e-eeb8026477f2
0.2662523888682998,0.5552607095234895,0.0749914594289089,-0.4613307680112002,-0.1712047381899987,0.0996978589115876,-0.1808690307411242,-0.2058384073301336,-10.662519237502876,15.909985960212166,30.56405568592861,1.373391726602467,1.9489670654137727,0.4807475981810754,7233.2705078125,11.612111111111112,8.07,-179.054711381286,-10.357189574380616,66.04607601602851,1745.0,1435.0,1350.0,1528.0,1614.0,995.0,60.0,293.1,1649249490.6565063,1649249491.7924795,880efad6-d44b-43e7-8673-be8f9aa70f7a
0.2704205252967692,0.5556683190463907,0.0698503190866977,-0.4553086654717168,-0.1756621466301136,0.0909539754964889,-0.1908094466350897,-0.2080868346469264,-10.878760328484312,16.044029563450696,30.10789234710151,1.3406096966046113,1.955004217084748,0.5072322324283945,7227.17236328125,11.615333333333334,8.066666666666666,-179.30093514740554,-10.374899401124813,64.41388847736779,1745.0,1435.0,1350.0,1528.0,1614.0,995.0,60.0,293.1,1649249491.9007847,1649249492.9098103,880efad6-d44b-43e7-8673-be8f9aa70f7a
0.2541818863946632,0.5526704165815504,0.0417252578844563,-0.4699300160219746,-0.1989484899058256,0.0849976169497455,-0.2089152028907234,-0.2342790404876054,-10.447594153153618,15.154740561213748,26.76199155870636,1.3525951858542156,1.9703653467486808,0.5985218268418344,7227.17236328125,11.616777777777775,8.07,-179.54370739126446,-10.401322367383962,62.7667580026229,1745.0,1435.0,1350.0,1528.0,1614.0,995.0,60.0,293.1,1649249493.0228932,1649249494.24588,880efad6-d44b-43e7-8673-be8f9aa70f7a
0.3208589210056741,0.6673796315882669,0.090322839180752,-0.4721784435420451,-0.1790413617108669,-0.0109878659903134,-0.2062591655625839,-0.2354098282004144,-10.674174417355118,15.915248091453543,28.988453730575067,1.1496770787269943,2.385835801773916,0.5179118761666528,7221.0830078125,11.596374999999998,8.07875,179.95554218500683,-10.505317381014564,60.66813589690464,1849.0,1435.0,1350.0,1528.0,1686.0,995.0,60.0,293.1,1649249495.076909,1649249496.2960536,0243477f-3d77-4836-9e31-a0e1bc39293e
0.3247772322342063,0.6566897425816423,0.0966999568242173,-0.4730988528229979,-0.1734400165505752,0.0013061651974704,-0.1986197722686037,-0.2272970817404707,-10.729738823601648,16.232813576581506,29.17699355393837,1.1818044286517162,2.344987449150437,0.4895082385377135,7221.0830078125,11.59,8.06,179.67268868355097,-10.531228770848063,59.42169638281629,1849.0,1435.0,1350.0,1528.0,1686.0,995.0,60.0,293.1,1649249496.4040382,1649249497.7325256,0243477f-3d77-4836-9e31-a0e1bc39293e
0.3253163287473274,0.6627512909592587,0.1109925891582416,-0.4414367845026987,-0.158687178480522,-0.0077401379609173,-0.1956744642658837,-0.2198943650424471,-11.157986136745476,16.740847598360872,32.94028889238195,1.09451812752122,2.334415392823321,0.4515492875537775,7221.0830078125,11.587555555555555,8.06,179.45402093618293,-10.55657199803592,58.49882702510104,1849.0,1435.0,1350.0,1528.0,1686.0,995.0,60.0,293.1,1649249497.84502,1649249498.9514887,0243477f-3d77-4836-9e31-a0e1bc39293e
0.4090558174410699,0.7848303495320508,0.1171168471190446,-0.5151964373851141,-0.1872249091461286,-0.0942610911854005,-0.2168726933477113,-0.2373416753731546,-10.363804715678338,16.473206095059094,27.933511324555823,1.0646100795466205,2.8405051066078686,0.5199808961371392,7221.0830078125,11.533444444444443,8.034444444444443,179.1044639970202,-10.632089889730429,57.36911221856111,1962.0,1435.0,1350.0,1528.0,1760.0,995.0,60.0,293.1,1649249499.5746033,1649249500.8003,d9f61151-3f48-40be-96a3-c0a5c80a1e06
0.4031960508247124,0.7751989304463343,0.1135434361552453,-0.4949914372074937,-0.1851818037297121,-0.0990183906749321,-0.2219324135302029,-0.244942634498434,-10.56009020772295,16.4583440843375,28.52822431105436,1.0080618037388742,2.797785308208504,0.5289924079819246,7221.0830078125,11.538,8.0425,178.88807753283493,-10.67204571374916,56.69597535206025,1962.0,1435.0,1350.0,1528.0,1760.0,995.0,60.0,293.1,1649249500.9082315,1649249501.9790964,d9f61151-3f48-40be-96a3-c0a5c80a1e06
0.3967415586467726,0.7881428092441258,0.1168639876663932,-0.5052969837277215,-0.1860617549111524,-0.098167771347928,-0.2206023720312118,-0.2460021158439246,-10.57233447764768,16.51763047525078,29.11995381524381,1.0338665666155846,2.842655245852691,0.5260484983996458,7221.0830078125,11.537666666666668,8.055555555555555,178.68488699412617,-10.656139934435426,56.13266166640645,1962.0,1435.0,1350.0,1528.0,1760.0,995.0,60.0,293.1,1649249502.0873191,1649249503.2544143,d9f61151-3f48-40be-96a3-c0a5c80a1e06
-0.033274906547527,0.043737008685558,-0.0468312129381289,-0.2447059582952789,-0.167799225572629,0.3911912919327879,-0.1829728223712587,-0.2102695183452559,-11.545524102216335,16.573609767542372,28.6300250447261,1.5373444029021557,0.0194503357007576,0.5815495464190322,7221.0830078125,11.624333333333333,8.086666666666666,179.01411729031892,-10.680510523712725,55.33353674315908,1459.0,1435.0,1350.0,1528.0,1394.0,995.0,60.0,293.1,1649249504.1646986,1649249505.3031528,d957870b-064e-46d1-bc05-bdc0eed9abb6
-0.0386527234195676,0.0339806760563664,-0.0315524277103249,-0.1878246925917152,-0.1316271595919068,0.3514953808983863,-0.162868464825175,-0.1819340755151967,-11.487321690395142,15.145000945151276,29.22675940066483,1.3112469726148126,-0.0289015634141561,0.4836177914476549,7221.0830078125,11.628333333333334,8.088888888888889,178.80380058757606,-10.708537920380657,54.992202972302096,1459.0,1435.0,1350.0,1528.0,1394.0,995.0,60.0,293.1,1649249505.413377,1649249506.5360923,d957870b-064e-46d1-bc05-bdc0eed9abb6
-0.0330908246553539,0.0236720981805188,-0.0164314261285493,-0.1715334554478971,-0.1173739715157673,0.3538095515191578,-0.1537958626448788,-0.17810780411383,-11.761895870345922,15.814066472731763,30.33834785145924,1.2849254044958374,-0.0765094720648915,0.4306720803853215,7229.205078125,11.626666666666663,8.076666666666666,178.68311721622118,-10.695779127011072,54.62150090583387,1459.0,1435.0,1350.0,1528.0,1394.0,995.0,60.0,293.1,1649249506.6442015,1649249507.76377,d957870b-064e-46d1-bc05-bdc0eed9abb6
-0.1453938450992654,-0.1568989551377042,-0.0550359994607786,-0.0910897261752459,-0.1108785151310595,0.4541735419781548,-0.1502720117424466,-0.1731770426665123,-12.080447831024824,15.995790869948182,29.84936131171309,1.32803947220239,-0.7595207875135708,0.4472992995821426,7233.2705078125,11.595,8.076666666666666,178.470129150603,-10.721196537642411,53.99929002464835,1364.0,1435.0,1350.0,1528.0,1312.0,995.0,60.0,293.1,1649249509.695649,1649249510.8296163,bad273be-7808-4f0b-9a32-c57457fc7ed5
-0.1421066708133289,-0.1657348797269565,-0.0531294384265819,-0.1102999725282637,-0.1124300613696296,0.4746460602323606,-0.1455516294436436,-0.1686144447900813,-12.18646132874606,16.355369848125985,29.036466621431465,1.419673245382758,-0.7822137177856229,0.4374870735013915,7233.2705078125,11.595777777777776,8.061111111111112,178.3800769009459,-10.706247625142716,53.772504976906696,1364.0,1435.0,1350.0,1528.0,1312.0,995.0,60.0,293.1,1649249510.9368734,1649249512.2685022,bad273be-7808-4f0b-9a32-c57457fc7ed5
-0.1407918010625064,-0.163460155099719,-0.0352340623468473,-0.0823852889042926,-0.0955997293158053,0.4655340145315297,-0.1353613892067625,-0.1581217842421324,-12.218617053793931,16.807253137248054,31.81331968623672,1.3405416941510615,-0.8003604657245029,0.3798900128386354,7233.2705078125,11.592444444444444,8.06,178.30690736109727,-10.720811580591691,53.59743318864597,1364.0,1435.0,1350.0,1528.0,1312.0,995.0,60.0,293.1,1649249512.376831,1649249513.4929223,bad273be-7808-4f0b-9a32-c57457fc7ed5
-0.2715818959014373,-0.3809264713688993,-0.0873029014408817,-0.0358257536579723,-0.1022529698722549,0.601136506332403,-0.1340859654771367,-0.1593051668271278,-12.642845555526954,17.32046051970318,26.697892855161783,1.5400121535431948,-1.5766755445926304,0.4244842247237059,7239.38037109375,11.562666666666663,8.063333333333334,178.2905816911611,-10.678005836425838,53.27077521758562,1262.0,1435.0,1350.0,1528.0,1222.0,995.0,60.0,293.1,1649249515.633527,1649249516.7718897,8b59f4a9-a905-445f-9132-c0f165451b1a
-0.2665459445914558,-0.3633072151841183,-0.0833451437427353,-0.0065962012071444,-0.0980059408166484,0.5822286829325989,-0.1364001362073463,-0.1599626016748716,-12.431300904881448,17.22063682623068,30.29469936254433,1.431804205233054,-1.547317863588484,0.4242497497168992,7233.2705078125,11.56611111111111,8.05777777777778,178.27142832290858,-10.664452179791594,53.17714736389805,1262.0,1435.0,1350.0,1528.0,1222.0,995.0,60.0,293.1,1649249516.8799813,1649249518.01412,8b59f4a9-a905-445f-9132-c0f165451b1a
-0.2700172009143056,-0.3760746015569868,-0.0779541781516577,-0.0196134107595876,-0.0916551202353057,0.59268189546242,-0.1269593717437652,-0.1511266773475961,-12.583284796273574,17.256296165221002,28.35697797920448,1.4847770403870175,-1.5750085842926609,0.3902966883665275,7233.2705078125,11.565444444444443,8.05777777777778,178.29527023657135,-10.66331409952114,53.12187367858476,1262.0,1435.0,1350.0,1528.0,1222.0,995.0,60.0,293.1,1649249518.1260166,1649249519.127969,8b59f4a9-a905-445f-9132-c0f165451b1a
-0.3663314159058853,-0.5107698765891193,-0.1001754758648571,0.0644856511207418,-0.097598331252007,0.6602793363092451,-0.1438422988934666,-0.1659452590281886,-12.981394744928313,19.765528354592,30.034117923499235,1.4625651149857777,-2.1039650357866604,0.4382157833826452,7233.2705078125,11.516666666666667,8.026666666666666,178.3260212660346,-10.627972993208202,53.024249784777766,1153.0,1435.0,1350.0,1528.0,1121.0,995.0,60.0,293.1,1649249521.1635845,1649249522.3048346,5ce21778-090c-4849-a8cf-640ae0104049
-0.2988128496926501,-0.4087885646904982,-0.1282610927906092,-0.0075034613111236,-0.1513107589122814,0.6118526927136752,-0.1897312526373594,-0.2085996335681269,-12.597635645622637,19.31363441032264,27.651157782901933,1.5115529621699506,-1.6959938905930638,0.6237953559472087,7227.17236328125,11.516111111111112,8.037777777777778,178.3181028000568,-10.6331348138097,53.00859119665056,1153.0,1435.0,1350.0,1528.0,1121.0,995.0,60.0,293.1,1649249522.4127998,1649249523.5305889,5ce21778-090c-4849-a8cf-640ae0104049
-0.2996589178536842,-0.3797142629576068,-0.1088384443390458,-0.0100841463265721,-0.1410021803585292,0.5891297248856817,-0.1813079948008312,-0.2013724017095028,-12.520795588457997,19.585216215821628,28.236020629885594,1.4692121892348555,-1.5911214260038913,0.5755491042661035,7225.142578125,11.517666666666669,8.05,178.3463433555451,-10.640314575855983,53.010466463032685,1153.0,1435.0,1350.0,1528.0,1121.0,995.0,60.0,293.1,1649249523.6391404,1649249524.7594612,5ce21778-090c-4849-a8cf-640ae0104049
0.1144112504060647,0.3082887682286858,0.0031601316263906,-0.2794185200640666,-0.172677392076352,0.1986154986547305,-0.2159366067993703,-0.2389205304343107,-11.764521036873614,16.663735158621492,33.62184686586991,1.1866760920885566,0.976432468201713,0.6055402981695328,7223.789388020833,11.624555555555556,8.09,178.07010773821256,-10.621850866982149,53.00880558869952,1553.0,1435.0,1350.0,1528.0,1471.0,995.0,60.0,293.1,1649249525.669655,1649249526.8085606,7b96f3ab-f2a6-41a8-8baf-d7e72cbcd32f
0.1080998763569179,0.2947456119286139,0.0002279723368072,-0.2930274226531054,-0.176253837747365,0.2129607256245319,-0.2131227855291355,-0.2325697095513991,-11.638198574681512,16.7521354850845,31.992027576357778,1.2498538819150478,0.940679528956738,0.6063974157547867,7227.17236328125,11.622888888888887,8.100000000000001,178.0781901287304,-10.647576584763524,53.10254386377868,1553.0,1435.0,1350.0,1528.0,1471.0,995.0,60.0,293.1,1649249526.916582,1649249528.0349033,7b96f3ab-f2a6-41a8-8baf-d7e72cbcd32f
0.1004341865597456,0.2889864833418136,0.0158091776851997,-0.260721071550286,-0.1561100333672757,0.2100285665672895,-0.200973388900164,-0.2265344571494273,-11.827937070768051,16.90837100998775,35.10608496389171,1.1726021494197416,0.8898352172909498,0.5442054785394705,7227.17236328125,11.626666666666663,8.086666666666666,178.09394054495647,-10.643652546221611,53.21466976701342,1553.0,1435.0,1350.0,1528.0,1471.0,995.0,60.0,293.1,1649249528.1433208,1649249529.2666695,7b96f3ab-f2a6-41a8-8baf-d7e72cbcd32f
0.0894813228019383,0.2512365785843883,-0.014682649513977,-0.5507156271323993,-0.2012626603496993,0.5027842676441582,-0.1290763119220499,-0.1547294204634866,-11.15507565353642,15.071284674089028,33.682559216810134,2.47103519380787,0.7898448095705681,0.537008910637719,7233.2705078125,11.61411111111111,8.072222222222223,178.11260365740856,-10.580458687383269,53.43445083521619,1553.0,1537.0,1350.0,1528.0,1471.0,995.0,60.0,293.1,1649249531.1994903,1649249532.340155,ef9f084c-23c9-4ca9-8e8d-5ed4b57363b1
0.1325958970212786,0.3035552378944881,-0.0201788046277499,-0.5760926181609097,-0.2195656473515541,0.476052970600745,-0.1474713392330994,-0.1702317344260394,-11.138025188376332,15.05446016690668,33.75607163248904,2.467845772045238,0.9880751122799022,0.6018512714513261,7239.38037109375,11.612111111111112,8.072222222222221,178.10610587077815,-10.545031160204582,53.54654296696003,1553.0,1537.0,1350.0,1528.0,1471.0,995.0,60.0,293.1,1649249532.4481514,1649249533.769406,ef9f084c-23c9-4ca9-8e8d-5ed4b57363b1
0.1180008444925265,0.29470616584208,-0.0242680493704503,-0.5800372282853749,-0.2248908699562562,0.4849283397738279,-0.1511266771145002,-0.1807506923924646,-11.167406864151143,15.3501835762336,33.235914497097504,2.498347048721451,0.9599352526389008,0.6179020513499903,7244.140082465277,11.619333333333334,8.07,178.1589047508822,-10.58127774090124,53.617959424921686,1553.0,1537.0,1350.0,1528.0,1471.0,995.0,60.0,293.1,1649249533.8778172,1649249534.9993002,ef9f084c-23c9-4ca9-8e8d-5ed4b57363b1
0.1282831247488378,0.270210146209118,-0.0046370454454981,-0.8370943427640346,-0.2359489248627065,0.7821019953235921,-0.0587570806931252,-0.0899194923526802,-11.397051996677671,15.945203320118962,38.84134539073009,3.751693694224973,0.8529086897143355,0.4769729196324542,7239.38037109375,11.608,8.03,178.2061377857225,-10.499682688392712,53.7062248212009,1553.0,1645.0,1350.0,1528.0,1471.0,995.0,60.0,293.1,1649249535.5735004,1649249536.6391342,de5bd78f-4611-4822-a734-045d27d10926
0.1372768327267493,0.2984666927417512,-0.0127497910893593,-0.8417489832316289,-0.245126715766245,0.7536350706482186,-0.0734967697580672,-0.0992156209465603,-11.492273446584065,15.470763519457252,38.03980286557347,3.694499660118439,0.966716659107267,0.5238940004788173,7239.38037109375,11.608777777777778,8.075555555555557,178.25545023371018,-10.494504076909504,53.73693411061918,1553.0,1645.0,1350.0,1528.0,1471.0,995.0,60.0,293.1,1649249536.7483032,1649249537.8669002,de5bd78f-4611-4822-a734-045d27d10926
0.1202492714926804,0.2537348306796324,-0.0291988106657844,-0.8450756055141069,-0.2500574777141836,0.776185082580019,-0.0690525103774847,-0.0947319153550897,-11.004138800982703,14.80430370706903,34.54060134331045,3.7471274203136944,0.825858912968649,0.5369418709190147,7239.38037109375,11.610666666666669,8.075555555555557,178.28302446629945,-10.503823395713296,53.81175048496769,1553.0,1645.0,1350.0,1528.0,1471.0,995.0,60.0,293.1,1649249537.975623,1649249539.305394,de5bd78f-4611-4822-a734-045d27d10926
0.132263133811497,0.2646730282139813,-0.030338195729647,-1.047782094252315,-0.2834126899495486,0.974487634083726,-0.0279992448367116,-0.0501118127007433,-11.126689578823802,15.529649826416714,37.862804698043306,4.655215469332195,0.8632041617976256,0.5293233305874243,7228.527506510417,11.589555555555556,8.06777777777778,178.34676986291328,-10.41507068440955,53.90929203704968,1553.0,1761.0,1350.0,1528.0,1471.0,995.0,60.0,293.1,1649249540.4164102,1649249541.5532062,235dc437-b7d4-4c17-be02-347382668311
0.1510505974297606,0.2720312404775041,-0.0321461416906338,-1.0394882961972658,-0.2852838511055821,0.9488856072498014,-0.0351172415429576,-0.0613767058740296,-11.01763515249244,15.41536430953565,36.30126620730598,4.5779338609952855,0.902732250965268,0.5433546818982643,7233.2705078125,11.584888888888887,8.07,178.35154644187284,-10.404978510728425,53.92704559597732,1553.0,1761.0,1350.0,1528.0,1471.0,995.0,60.0,293.1,1649249541.6645482,1649249542.7823718,235dc437-b7d4-4c17-be02-347382668311
0.1493473355145142,0.2772972929736539,-0.0395073889228792,-1.0563489819419276,-0.2932640992494096,0.9598460561957776,-0.0373115564233881,-0.0605584523630476,-10.949561514005204,15.125106980500584,36.352053792980286,4.638348699889599,0.9231555368943756,0.5681102162505156,7233.2705078125,11.590666666666666,8.053333333333335,178.43869662004258,-10.41925607255095,53.98920525033883,1553.0,1761.0,1350.0,1528.0,1471.0,995.0,60.0,293.1,1649249542.8921237,1649249544.0098305,235dc437-b7d4-4c17-be02-347382668311
