raw_voltage_G-,raw_voltage_G0,raw_voltage_G1,raw_voltage_G2,raw_voltage_G3,raw_voltage_G4,raw_voltage_G5,raw_voltage_G6,load_x,load_y,load_z,load_l,load_m,load_n,rpm,voltage,current,roll,pitch,yaw,aileron1_pwm,elevator_pwm,throttle_pwm,rudder_pwm,aileron2_pwm,pbaro,pdiff,Tt,sample_start_time,sample_end_time,uid
0.1323723692285251,0.2827802991521386,0.2354712926479405,-0.3031519200718208,0.0099448591233383,0.2007455874121967,0.0022134256059502,-0.0165234670004854,-9.937476131083542,20.61957544943237,28.944550767314905,1.2829648095503052,0.927000049591964,-0.2807000503996211,3126.960639105903,11.964,0.22,179.66117905588962,-9.402684677704627,104.7354237812872,1553.0,1435.0,1200.0,1528.0,1471.0,998.0,60.0,292.7,1649240193.6756773,1649240194.821276,df44acab-ae31-4217-8541-16862be34652
0.1451791990034335,0.275877234026184,0.2364705934150711,-0.3144466526658735,0.0094057624497862,0.218088716680203,0.0082881230975595,-0.0135650103492591,-9.82421544030138,20.71533847510761,28.995399400583665,1.348164987502082,0.9013126546133924,-0.290799697408597,3425.938883463541,11.963,0.21,179.55162585724224,-9.359687972833228,104.58845101181694,1553.0,1435.0,1200.0,1528.0,1471.0,998.0,60.0,292.7,1649240194.929827,1649240195.9878552,df44acab-ae31-4217-8541-16862be34652
0.1315298412554088,0.2804641058726733,0.2335207341770426,-0.3085975043413077,0.0081470276679809,0.2079313494496244,0.0030139788135678,-0.014496544936095,-9.91004510497092,20.566806355348767,28.926659978896392,1.310960098938382,0.9188232501525082,-0.2770447300538016,3456.996039496528,11.961777777777776,0.2077777777777777,179.47768981838675,-9.280593623334571,104.41748985907172,1553.0,1435.0,1200.0,1528.0,1471.0,998.0,60.0,292.7,1649240196.0962732,1649240197.1459742,df44acab-ae31-4217-8541-16862be34652
0.245063771769841,0.4467698151872842,0.2601341997165987,-0.3699412404277754,-0.0054947448921817,0.099745396761936,-0.013952896938106,-0.0337644426790972,-9.626612725852162,20.454228091420458,28.71880531586873,1.2069166747344382,1.5516448884982106,-0.2510476148411433,3470.0571017795137,11.947777777777778,0.21,179.229723595119,-9.240785573304445,104.12026051696026,1647.0,1435.0,1200.0,1528.0,1543.0,998.0,60.0,292.7,1649240199.2217896,1649240200.350377,d4f2f435-c919-46da-9d43-0a0353c69ea1
0.2237032100795772,0.4349107036144897,0.2497244785303666,-0.3658975105192215,-0.0130127651026313,0.1071794669107887,-0.0230189233962616,-0.0470152946973756,-9.764093584190949,20.547921867781824,28.57781332073283,1.2145114524624545,1.5082324725015146,-0.2154430657679254,3464.9136013454863,11.949444444444444,0.21,179.20092144629896,-9.211728335891658,103.99000349711876,1647.0,1435.0,1200.0,1528.0,1543.0,998.0,60.0,292.7,1649240200.45802,1649240201.592508,d4f2f435-c919-46da-9d43-0a0353c69ea1
0.223676912677123,0.4334117523634569,0.2477390255190209,-0.3687507768692675,-0.0154321252625823,0.1112424145490931,-0.0236369119992301,-0.0483696103973121,-9.706201372565957,20.561057196854645,28.562616809704288,1.2300926405628143,1.5025610871986657,-0.2087542645351803,3464.602294921875,11.946333333333332,0.21,179.13521806212304,-9.160305644041664,103.86289823012426,1647.0,1435.0,1200.0,1528.0,1543.0,998.0,60.0,292.7,1649240201.7007396,1649240202.8136904,d4f2f435-c919-46da-9d43-0a0353c69ea1
0.3384255780210177,0.5961005561644239,0.2789277312604305,-0.4221344954746218,-0.0248465920658568,-0.0053865217887735,-0.0392312661932836,-0.0606241956559868,-9.41138279747877,20.64467765859787,27.71359523552842,1.0905528228307615,2.1267325129751504,-0.198050348976076,3460.40625,11.933222222222222,0.2088888888888888,178.88605276120097,-9.11339998396277,103.6118189584148,1745.0,1435.0,1200.0,1528.0,1614.0,998.0,60.0,292.7,1649240204.7427552,1649240206.0934527,369bc6a6-f0f6-4ed9-95ac-369965c50e85
0.3359414860574112,0.5925939003512524,0.2782642278425485,-0.4165053367557556,-0.02445921123852,-0.0065061848283281,-0.0417548046938118,-0.0628685771801417,-9.551713576119148,20.76394623143792,27.78986554801706,1.0760379142908596,2.1131645567589827,-0.1944950292428962,3453.899739583333,11.936,0.2033333333333333,178.848749303594,-9.083563630665909,103.49422966275394,1745.0,1435.0,1200.0,1528.0,1614.0,998.0,60.0,292.7,1649240206.2268226,1649240207.315093,369bc6a6-f0f6-4ed9-95ac-369965c50e85
0.3036604274788942,0.5780211005561615,0.2773498878265499,-0.4293925764964337,-0.0237158040582328,0.0162825302959165,-0.0352077651581123,-0.0580864972686089,-9.631599091761638,20.75627736407193,27.335095583636512,1.1561085842644905,2.064632322810923,-0.2061532580644302,3453.8993326822915,11.930666666666664,0.2,178.78847060743888,-9.020148739316925,103.4321318595499,1745.0,1435.0,1200.0,1528.0,1614.0,998.0,60.0,292.7,1649240207.4238431,1649240208.540413,369bc6a6-f0f6-4ed9-95ac-369965c50e85
0.3699561493302075,0.6755844172451415,0.2962314145029227,-0.4499439936540967,-0.0330776760761945,-0.0742199487682601,-0.0554567579363073,-0.0794268321558779,-9.52670299875529,21.422612055065965,25.356113241460097,1.0041911196377131,2.451089928246267,-0.1816757232380617,3448.957790798612,11.912999999999998,0.1922222222222222,178.6866203443555,-9.00253937327177,103.32846931960673,1849.0,1435.0,1200.0,1528.0,1686.0,998.0,60.0,292.7,1649240209.1745758,1649240210.3869357,fe965d91-6c1c-43a8-806f-80653695ac20
0.378542247295362,0.6861428193021848,0.2895650258723702,-0.4486554218768082,-0.0408354072777281,-0.0829506838675475,-0.0652656857228159,-0.0940613317398162,-9.513036481209069,21.35399832434829,25.69144836505804,0.9809388332717726,2.487039132521432,-0.1462570238687132,3443.262641059028,11.911111111111111,0.2,178.6807463816693,-8.963103378823929,103.19662162459852,1849.0,1435.0,1200.0,1528.0,1686.0,998.0,60.0,292.7,1649240210.495206,1649240211.6207595,fe965d91-6c1c-43a8-806f-80653695ac20
0.3752156274124095,0.7044721000962134,0.3024113008069946,-0.4339814747484148,-0.0297247592192805,-0.1121670888163952,-0.0610975501772595,-0.088959638262179,-9.464177326737008,21.29678027070712,26.07778186302605,0.8825313723130318,2.551021940456012,-0.1818865034233778,3442.954535590278,11.911888888888887,0.1955555555555555,178.67355950484264,-8.977043889783666,103.11281444457254,1849.0,1435.0,1200.0,1528.0,1686.0,998.0,60.0,292.7,1649240211.7295048,1649240213.0500743,fe965d91-6c1c-43a8-806f-80653695ac20
0.4219460901657202,0.7720037975576695,0.3099060575820455,-0.4738351818176143,-0.0452796668477014,-0.1561363326502068,-0.0765078217124274,-0.0990841343437694,-9.427634441531298,21.8290494611776,23.980841055006923,0.8772126053741074,2.8280243557016926,-0.1443039388599925,3444.6455891927085,11.867,0.19,178.5096121974651,-8.988641645858086,102.95804159907016,1962.0,1435.0,1200.0,1528.0,1760.0,998.0,60.0,292.7,1649240213.6748848,1649240214.894253,38707d86-210c-4010-9586-dbfe1a05da30
0.412005676615317,0.7665470891373694,0.3092091766407422,-0.4605286964528441,-0.0457793175028232,-0.1629342077089194,-0.0804918772164672,-0.1068024196460445,-9.375901189681272,22.076090836168365,23.975019072558904,0.8335487818221723,2.805565524283564,-0.1376180382541339,3439.8839518229165,11.861555555555556,0.19,178.53447560386374,-8.904557368852045,102.82206467525371,1962.0,1435.0,1200.0,1528.0,1760.0,998.0,60.0,292.7,1649240215.0027533,1649240216.1253698,38707d86-210c-4010-9586-dbfe1a05da30
0.4328595071304795,0.7846528421614031,0.3138112200322074,-0.4617646805889591,-0.0430312398961582,-0.1793306370813847,-0.0802289034264551,-0.0981111309123658,-9.384442607871794,21.87396490943953,24.025468937791228,0.7983848694438316,2.873526917694952,-0.1456804308068708,3431.7746310763887,11.854777777777777,0.1855555555555555,178.51868420650263,-8.926519747264482,102.65911078094548,1962.0,1435.0,1200.0,1528.0,1760.0,998.0,60.0,292.7,1649240216.2339928,1649240217.5502377,38707d86-210c-4010-9586-dbfe1a05da30
0.021121251064778,0.0766087493157767,0.201626550029787,-0.2461260169727893,0.0195828535457985,0.353586023647916,0.0236852468553348,-0.0039401643451149,-10.210444262907806,21.177112369774523,29.36622061129026,1.4997217601794417,0.1427689085971999,-0.3025362948092429,3430.097412109375,11.957666666666666,0.2177777777777777,179.05114146907982,-8.877137194974074,102.46108917761856,1459.0,1435.0,1200.0,1528.0,1394.0,998.0,60.0,292.7,1649240218.19129,1649240219.239379,3ac9d079-984f-4974-b294-3a25b6ff0459
0.0501667212482067,0.0783443772200451,0.2052029952716,-0.2496761653422093,0.0219233215295409,0.3562289114247451,0.0287474949466487,0.0063947110813562,-10.087391943205663,21.149322416029044,29.551777553036747,1.5137543272162617,0.1474264034386053,-0.3172686942282643,3452.5091417100693,11.961666666666666,0.2155555555555555,178.98640341830665,-8.841316647326897,102.4918348947124,1459.0,1435.0,1200.0,1528.0,1394.0,998.0,60.0,292.7,1649240219.347514,1649240220.421613,3ac9d079-984f-4974-b294-3a25b6ff0459
0.0251053060630957,0.0754911101621862,0.1998646248360596,-0.2466519646593442,0.0190306083444148,0.3571230227602448,0.0241060051431963,0.0056320866755322,-10.187840870251684,21.05354672074387,29.64054532124933,1.508004521764684,0.1359367311754932,-0.2996679035081263,3463.6695149739585,11.962333333333332,0.2133333333333333,178.98215200500326,-8.824129140326727,102.5241743226126,1459.0,1435.0,1200.0,1528.0,1394.0,998.0,60.0,292.7,1649240220.5304325,1649240221.6505823,3ac9d079-984f-4974-b294-3a25b6ff0459
-0.0583100249090186,-0.1089193592238015,0.1733568541837175,-0.2012889578089216,0.0301149593446979,0.4979586965569449,0.0474186436973518,0.0279322757668508,-10.46837740814916,21.62960022747616,29.895268192291564,1.724551463655554,-0.5632425222886754,-0.3338136945858118,3480.07568359375,11.943444444444443,0.2077777777777777,178.99224095331726,-8.772458569528105,102.60877304567238,1364.0,1435.0,1200.0,1528.0,1312.0,998.0,60.0,292.7,1649240223.792533,1649240224.9372723,91aa0d59-f337-43a4-aabb-9527655e94e2
-0.0923914471148493,-0.1147179346238727,0.1728966498156925,-0.1958059510697217,0.0318768846567856,0.4975510869897093,0.0482601602198154,0.0272222460847984,-10.447908363316404,21.566330915686727,29.749599854277093,1.7108119388769063,-0.5845498486027491,-0.3376030552273951,3481.489013671875,11.943,0.2,179.02216780662062,-8.767837851690851,102.53199944267172,1364.0,1435.0,1200.0,1528.0,1312.0,998.0,60.0,292.7,1649240225.07219,1649240226.158961,91aa0d59-f337-43a4-aabb-9527655e94e2
-0.0860800726026871,-0.1106549872242839,0.1691624202325879,-0.1974363896193423,0.0283530340517856,0.4949607940607974,0.0428691947617189,0.0265516624555666,-10.589661901913557,21.52819700864191,29.69997758906829,1.7081510755356966,-0.5679048631055283,-0.3197138386028052,3484.94921875,11.94122222222222,0.2,179.01573376842248,-8.766744167650005,102.49758819072328,1364.0,1435.0,1200.0,1528.0,1312.0,998.0,60.0,292.7,1649240226.2670534,1649240227.5874386,91aa0d59-f337-43a4-aabb-9527655e94e2
-0.1789098745601361,-0.2911077124387772,0.1364484648650627,-0.1549792453420397,0.0301412566914181,0.6258692015830356,0.0541902221836268,0.0313114906984804,-10.952980674357208,22.377556587898194,28.64222475221069,1.9101969043472289,-1.2400528482925497,-0.3172325388783875,3461.6509874131943,11.905444444444443,0.1922222222222222,179.04547696552817,-8.732659246961918,102.40728398297682,1262.0,1435.0,1200.0,1528.0,1222.0,998.0,60.0,292.7,1649240229.1943803,1649240230.2563229,107b7305-51f2-4c25-ba9b-7cdd07e00d69
-0.1747680348498034,-0.2852565417841232,0.1415896050249147,-0.1572539700739147,0.0344277317555513,0.6202021140490098,0.058700225054107,0.034440880329912,-10.908856723244694,22.27344113577018,28.39216671490042,1.9021415743818653,-1.2155992188143674,-0.3360911456688636,3446.9554578993057,11.904777777777776,0.2,179.07223157541702,-8.723998377366863,102.26549988054607,1262.0,1435.0,1200.0,1528.0,1222.0,998.0,60.0,292.7,1649240230.3679583,1649240231.488591,107b7305-51f2-4c25-ba9b-7cdd07e00d69
-0.192413586781046,-0.2849015269385188,0.143088556389137,-0.1539536469826004,0.0347301517945524,0.61767756461557,0.0583846564023329,0.040305198910949,-10.863403548540203,22.41524540945294,28.51729141148068,1.890081355415545,-1.216007290703221,-0.3378750267639999,3437.738606770833,11.905666666666669,0.1977777777777777,179.0651494281576,-8.739892891611653,102.14525895366744,1262.0,1435.0,1200.0,1528.0,1222.0,998.0,60.0,292.7,1649240231.597417,1649240232.706092,107b7305-51f2-4c25-ba9b-7cdd07e00d69
-0.2539363432401283,-0.4531128288870188,0.1143981017620782,-0.0934827891137758,0.0386090171368185,0.7249709155569708,0.064025447002751,0.0440262800002057,-11.229787157351293,23.465199523189767,28.15646301581665,2.000066134383732,-1.8503570307640875,-0.3331006466084762,3435.9005533854165,11.864,0.18,179.1168524423548,-8.706031469891407,101.89793476818164,1153.0,1435.0,1200.0,1528.0,1121.0,998.0,60.0,292.7,1649240234.8501434,1649240236.00375,3b004fe6-a2a3-43c2-a467-5167637ddb51
-0.2564740419926049,-0.4609363050253112,0.1251800325043056,-0.0971644242092902,0.0492068663933542,0.736686402787725,0.0783969719590087,0.0569251510019223,-11.19972729761759,23.55431683954028,28.34573338444264,2.0358702050226394,-1.8804517613466936,-0.383421775206296,3444.1846516927085,11.855222222222222,0.19,179.14449042337628,-8.69299083635482,101.68987506350452,1153.0,1435.0,1200.0,1528.0,1121.0,998.0,60.0,292.7,1649240236.1124814,1649240237.2155097,3b004fe6-a2a3-43c2-a467-5167637ddb51
-0.2875312665788896,-0.4601999778686418,0.1174091531829177,-0.0999125020487206,0.0420276782200046,0.7373438375583318,0.0711125942294712,0.0464587888590123,-11.23301764184514,23.47495461393076,28.1253208119991,2.042581606815275,-1.8756565859262315,-0.3529160769367838,3455.6011827256943,11.867111111111113,0.18,179.14896647401235,-8.670586298057364,101.51982460264864,1153.0,1435.0,1200.0,1528.0,1121.0,998.0,60.0,292.7,1649240237.323939,1649240238.4490898,3b004fe6-a2a3-43c2-a467-5167637ddb51
0.1248118690506521,0.2735762123165928,0.2326706204183095,-0.3059525934525272,0.0078805137044396,0.2124084802511002,0.002673629822309,-0.0157739913730971,-9.933906381334404,20.70074847507789,28.94385821514168,1.3158908575317398,0.8926286519768024,-0.2758959928304425,3456.994818793403,11.961111111111112,0.21,178.8353059734876,-8.693884073316276,101.24423785328725,1553.0,1435.0,1200.0,1528.0,1471.0,998.0,60.0,292.7,1649240240.3870227,1649240241.5206192,f0ea6b0a-46a2-4e9f-b482-568940adea6f
0.1325433022504721,0.2692765888907138,0.2272665064837208,-0.3109359496849679,0.0039359047249336,0.2211786603758074,-0.000337421717451,-0.0174964705899407,-10.06230968693737,20.651982416094,28.90826389623368,1.3461771802311753,0.8779968673312815,-0.2595537279021373,3455.1370713975693,11.963111111111113,0.21,178.79436581960258,-8.689297316697399,101.51417451838522,1553.0,1435.0,1200.0,1528.0,1471.0,998.0,60.0,292.7,1649240241.629505,1649240242.7548077,f0ea6b0a-46a2-4e9f-b482-568940adea6f
0.1580517722682722,0.2767976426978591,0.2260305291572217,-0.3030993253470511,0.001122083735264,0.2104361760991733,-0.0058072793568675,-0.0277393051548071,-9.972373750072212,20.732925663248857,29.427007963098458,1.3049628805889302,0.8999293940233494,-0.244508439981489,3459.9419759114585,11.962333333333332,0.21,178.74847757311878,-8.66647993141011,101.726359657321,1553.0,1435.0,1200.0,1528.0,1471.0,998.0,60.0,292.7,1649240242.8638656,1649240243.9798355,f0ea6b0a-46a2-4e9f-b482-568940adea6f
0.1717001185498547,0.282109715678854,0.2219544335091111,-0.4885091278264547,-0.0229926257154587,0.3843408219273467,0.0406602137449319,0.0166769916624807,-9.76266060469482,20.23888749542881,30.78503721399816,2.1108329695448207,0.9288935542341362,-0.2709851047860764,3473.651123046875,11.951444444444444,0.21,178.69665161551654,-8.645203607554302,102.0657570695483,1553.0,1537.0,1200.0,1528.0,1471.0,998.0,60.0,292.7,1649240245.7023287,1649240246.8426306,e04c5eca-7524-4b4a-95a5-e30139629061
0.1619235574400042,0.2768735005719313,0.2218765527928748,-0.4895059007854545,-0.0217788998334561,0.3902936407525331,0.0419290629281556,0.019045274036452,-9.87686724457308,20.259329051043128,30.77639740154005,2.1265309895154823,0.9102575984919692,-0.2750814193082917,3478.664469401041,11.955333333333334,0.2033333333333333,178.66951603285395,-8.62934978985332,102.173908561596,1553.0,1537.0,1200.0,1528.0,1471.0,998.0,60.0,292.7,1649240246.9513276,1649240248.066758,e04c5eca-7524-4b4a-95a5-e30139629061
0.1578676905214459,0.2742336470982674,0.2240582248240002,-0.4934135929809982,-0.0202182507198038,0.3957801867075847,0.0460511792616271,0.028997320179465,-9.813268636702556,20.286737429082883,30.7007591306933,2.1479850699480547,0.9011966794731596,-0.2864770938336591,3477.251953125,11.952777777777776,0.2022222222222222,178.6508772055189,-8.613703439148374,102.30145703197664,1553.0,1537.0,1200.0,1528.0,1471.0,998.0,60.0,292.7,1649240248.1758633,1649240249.298114,e04c5eca-7524-4b4a-95a5-e30139629061
0.177735369867891,0.2831090165255155,0.214775245614785,-0.689644798435226,-0.0519986506557131,0.5780868440044379,0.0863387842688846,0.0645645434373969,-9.77039082703807,19.96127998191901,32.28784226693278,2.9979568401628365,0.9436812052026444,-0.2861429358865019,3478.3496365017363,11.947444444444445,0.2011111111111111,178.68661730871588,-8.58263945421194,102.41105045284912,1553.0,1645.0,1200.0,1528.0,1471.0,998.0,60.0,292.7,1649240250.2101724,1649240251.3575084,98ff0020-d8b1-43be-a371-30fcb56d2120
0.1549618287522306,0.2722350453793281,0.2045850065505908,-0.6749839960803575,-0.0591383928485281,0.572064741727924,0.0733347238936332,0.0548476569031092,-9.881338420562194,20.13991797030229,31.74575570492153,2.9518877410773245,0.90603892559596,-0.2461155945082579,3465.3854166666665,11.947777777777778,0.2,178.68042005040894,-8.57380460452053,102.45170222096922,1553.0,1645.0,1200.0,1528.0,1471.0,998.0,60.0,292.7,1649240251.4664218,1649240252.5188606,98ff0020-d8b1-43be-a371-30fcb56d2120
0.1721997689889925,0.2727215471196247,0.2026127021872142,-0.6658062026920453,-0.0600193555576343,0.5602572136187735,0.0676544871032675,0.0473003053855722,-9.945813358223347,20.171065596536245,31.30717484004249,2.904657701957612,0.9109525836682172,-0.234676890181766,3440.96240234375,11.948555555555556,0.2088888888888889,178.67882937524226,-8.572440938279989,102.5084686820711,1553.0,1645.0,1200.0,1528.0,1471.0,998.0,60.0,292.7,1649240252.6308498,1649240253.5744524,98ff0020-d8b1-43be-a371-30fcb56d2120
0.1700302341784915,0.268172098471275,0.1956964881575341,-0.7683266300625431,-0.0805181739795961,0.6610682580047128,0.0838010857662855,0.0634337554984067,-10.074476487199698,20.489821698634497,31.6163584529872,3.3642077570466875,0.9042491583891086,-0.2215526303451017,3398.213677300347,11.929666666666668,0.2,178.72345479563947,-8.578556518908089,102.58814283873932,1553.0,1761.0,1200.0,1528.0,1471.0,998.0,60.0,292.7,1649240254.7135742,1649240255.8531868,fc112e3f-6791-4929-8eca-62ac636187d9
0.1521085617302897,0.2689215741189364,0.1892930734265619,-0.7491032283773594,-0.0843181473116913,0.6445140510210458,0.0713361219619778,0.0468532496143517,-10.211325241001454,20.54684508178498,31.81115801843909,3.283666292752552,0.9035304384755556,-0.1894860358920398,3380.642008463541,11.936222222222222,0.2011111111111111,178.73567324515471,-8.585087982165653,102.58688380720233,1553.0,1761.0,1200.0,1528.0,1471.0,998.0,60.0,292.7,1649240255.9611046,1649240257.286491,fc112e3f-6791-4929-8eca-62ac636187d9
0.1783665072978451,0.2813207939511203,0.1966168968606171,-0.768116250010976,-0.0821223150596416,0.6522454836806247,0.0813159822988477,0.0518629028790964,-10.008750262682376,20.461903454985983,32.214752016531314,3.343896468351581,0.9478279929038306,-0.2145898511541272,3379.900146484375,11.940888888888889,0.2044444444444444,178.74672904469125,-8.569642268267577,102.58122916947944,1553.0,1761.0,1200.0,1528.0,1471.0,998.0,60.0,292.7,1649240257.3952072,1649240258.5204277,fc112e3f-6791-4929-8eca-62ac636187d9
0.1511355582530825,0.2771132114022161,0.1789844959507263,-0.7925333901478858,-0.1059477537691575,0.6806992595939385,0.0651825321798584,0.041317648515877,-10.100232286996066,21.0196720670378,32.34098417507521,3.465708600041664,0.9334736267685216,-0.1359713081177065,3393.2802734375,11.888,0.19,178.75203534276642,-8.58244137872601,102.56206138193866,1553.0,1887.0,1200.0,1528.0,1471.0,998.0,60.0,292.7,1649240259.1705575,1649240260.3675723,ef451a4e-98f3-4f03-9fc4-328fa27f5abc
0.1740537350869611,0.2734578740426675,0.1754211992829774,-0.7949001578618753,-0.1075387462954001,0.6868791462453442,0.0642489746605731,0.0432242094949725,-10.175975698503692,20.899969636252628,32.38503608971477,3.483932423165728,0.919973027163326,-0.1280227241813149,3394.923095703125,11.879777777777775,0.19,178.80769683104256,-8.538862495091605,102.37768194311398,1553.0,1887.0,1200.0,1528.0,1471.0,998.0,60.0,292.7,1649240260.480189,1649240261.526551,ef451a4e-98f3-4f03-9fc4-328fa27f5abc
0.1481806417131356,0.269932506509555,0.178296212299544,-0.7897008560272637,-0.1046915475040971,0.6865059255767054,0.0666840121778657,0.0479597629732163,-10.122831533541692,21.011016713809003,32.5402753586385,3.4722961937912658,0.9045427308885332,-0.139457087020678,3396.118570963541,11.883777777777777,0.19,178.81102996335756,-8.545366447865014,102.2410576691462,1553.0,1887.0,1200.0,1528.0,1471.0,998.0,60.0,292.7,1649240261.6354325,1649240262.813795,ef451a4e-98f3-4f03-9fc4-328fa27f5abc
0.1417210920249536,0.2744703236032728,0.2452407734526876,-0.1133241733249634,0.0358214935813551,0.0270381639276484,-0.0436492281660484,-0.0723002384152503,-10.178182446823564,21.68175590355453,27.792762785823708,0.4716391569766447,0.8850100049956678,-0.2655330390110364,3433.3778076171875,11.95525,0.21,178.86313709708065,-8.760164561045165,102.03101189724045,1553.0,1335.0,1200.0,1528.0,1471.0,998.0,60.0,292.7,1649240264.7519448,1649240265.8887098,f67d780b-0a6d-4759-9a63-555d073206f5
0.1488608338746893,0.2741810523059148,0.2456483829901661,-0.0999125020376604,0.0383197458566134,0.0154015679717688,-0.0454637482991765,-0.0670013136828859,-10.141964854233777,21.614972900692425,27.84904747810092,0.4148415143320615,0.8815433166073748,-0.266693161205421,3443.8780924479165,11.960777777777778,0.2077777777777777,178.83014386829487,-8.757155056373996,102.23059381933776,1553.0,1335.0,1200.0,1528.0,1471.0,998.0,60.0,292.7,1649240265.996556,1649240267.121762,f67d780b-0a6d-4759-9a63-555d073206f5
0.1348043722459598,0.270160080089754,0.2423834607355361,-0.1030479605845491,0.0357719330620621,0.0195509931162221,-0.0464200630902348,-0.0718956632347197,-10.106288807491897,21.56114277478272,27.45283768031652,0.4306740355031572,0.869899467692422,-0.2584367181831357,3454.363606770833,11.960666666666665,0.2066666666666666,178.8003596900542,-8.73713330545949,102.41076130817426,1553.0,1335.0,1200.0,1528.0,1471.0,998.0,60.0,292.7,1649240267.230016,1649240268.3433683,f67d780b-0a6d-4759-9a63-555d073206f5
0.1264423073306603,0.2778232409601137,0.2616503454857152,0.1076002256292061,0.0721381926065475,-0.1864966734156745,-0.0891042729907111,-0.1104446082943306,-10.16154927785534,22.324321785900164,26.705188685304247,-0.5016417103132342,0.8809575546673867,-0.2720906776277209,3471.4629177517363,11.957444444444445,0.21,178.81085389625898,-8.814793789551135,102.69229715230271,1553.0,1236.0,1200.0,1528.0,1471.0,998.0,60.0,292.7,1649240270.280646,1649240271.4262078,97efba84-e16d-4a2f-ae4d-4e17cf183590
0.1151870235842806,0.2799533296171294,0.2622683341591193,0.1000397253952422,0.0708890664283172,-0.1817368449013134,-0.0878814441441053,-0.1112992734793933,-10.15092045392682,22.376727770645463,26.695236220122364,-0.4735091627905761,0.8899305878203392,-0.2728094196256991,3482.4322102864585,11.956333333333331,0.2066666666666666,178.79273719894047,-8.823425630842216,102.7656146795834,1553.0,1236.0,1200.0,1528.0,1471.0,998.0,60.0,292.7,1649240271.534558,1649240272.6623352,97efba84-e16d-4a2f-ae4d-4e17cf183590
0.1241149881599726,0.286751205173909,0.2642669358019635,0.1085469319794336,0.0727430325154613,-0.1978308502634098,-0.0904717376501772,-0.1147573809583213,-10.145449541508828,22.352541716257,26.4659779157274,-0.5289593219619239,0.9164988143154024,-0.2737833371198056,3488.416937934028,11.95122222222222,0.2,178.77608064428452,-8.810713036113269,102.85695024589452,1553.0,1236.0,1200.0,1528.0,1471.0,998.0,60.0,292.7,1649240272.776643,1649240273.8756974,97efba84-e16d-4a2f-ae4d-4e17cf183590
0.1012625544689375,0.2705651610530428,0.2709333244931916,0.2624261183629159,0.092387184614539,-0.3330915063191403,-0.128142754393458,-0.1498249560864776,-10.338557233665052,23.419190600517823,24.99628189627039,-1.172950417845918,0.8516788370382501,-0.2592458827984663,3487.312906901041,11.94411111111111,0.2,178.78035786052476,-8.86544893889315,103.02379886584949,1553.0,1133.0,1200.0,1528.0,1471.0,998.0,60.0,292.7,1649240275.6973438,1649240276.9441748,8ff88dd5-93e3-4def-8b4b-f980ade4ce65
0.1327814959504295,0.270678442090462,0.2728403910389109,0.2659120394247443,0.0953582841730111,-0.3374740694228684,-0.127335121045617,-0.1487270398305273,-10.413816895132388,23.382122592170536,24.856752601918945,-1.1908729008664731,0.853564101506705,-0.2672320065944483,3471.4640028211807,11.940555555555555,0.1944444444444444,178.7810833783966,-8.844176978769314,103.06269906990244,1553.0,1133.0,1200.0,1528.0,1471.0,998.0,60.0,292.7,1649240277.0533817,1649240278.1837618,8ff88dd5-93e3-4def-8b4b-f980ade4ce65
0.1208541115407665,0.2806107643850086,0.2654897645608341,0.2707097964254814,0.0878771818502137,-0.3491986622874777,-0.1382672512142327,-0.1606331853525285,-10.41360290590682,23.276329307901616,25.132246192681496,-1.229065496462056,0.8873146503200826,-0.229781729941123,3460.5620930989585,11.94611111111111,0.2,178.79666531662315,-8.870743379001034,103.10763564336185,1553.0,1133.0,1200.0,1528.0,1471.0,998.0,60.0,292.7,1649240278.2919786,1649240279.4065,8ff88dd5-93e3-4def-8b4b-f980ade4ce65
0.1179088036532026,0.265424021108489,0.2638593263080316,0.2870536248241357,0.0849187252101598,-0.3508291009355273,-0.1456305216728581,-0.1696005969069165,-10.45019448160448,23.99423433926513,24.881670462528994,-1.264977450648054,0.830731501131906,-0.2154139491938594,3450.191731770833,11.924333333333331,0.19,178.79365244428925,-8.879830471373044,103.16171784011992,1553.0,1026.0,1200.0,1528.0,1471.0,998.0,60.0,292.7,1649240281.34014,1649240282.481746,33603091-23f3-4964-9ea0-98e3f8f8efd3
0.1100195860634365,0.2713672314722588,0.2584552124321673,0.2935753780298175,0.0810530085335808,-0.3625708882586381,-0.1534802939798531,-0.1775818561575897,-10.481720266780057,23.818888795553804,24.84531227511908,-1.3075274325144286,0.8524189937332879,-0.1908309473432692,3443.722900390625,11.933,0.2,178.80251802983193,-8.894995293741502,103.12279335094992,1553.0,1026.0,1200.0,1528.0,1471.0,998.0,60.0,292.7,1649240282.589852,1649240283.6718378,33603091-23f3-4964-9ea0-98e3f8f8efd3
0.1118867008671237,0.262846876773624,0.2643721253975897,0.278993474536123,0.0862730408448907,-0.3409675769019049,-0.1420277787252215,-0.1617376758489435,-10.5645854556052,23.91067565391726,24.886940241124467,-1.2252206932298484,0.8228520369109077,-0.2235078926111725,3443.722900390625,11.931666666666665,0.1922222222222222,178.81963144825235,-8.881844333677073,103.09240508042264,1553.0,1026.0,1200.0,1528.0,1471.0,998.0,60.0,292.7,1649240283.7811944,1649240284.746657,33603091-23f3-4964-9ea0-98e3f8f8efd3
0.1540151226583691,0.2684876671556402,0.2267405587233348,-0.2890170696970089,0.0034888491023723,0.2030334604049263,-0.0086736951578237,-0.030382193260126,-10.06735736197636,20.96539256809117,29.05022616667588,1.2580304038255026,0.8710887390163374,-0.2461940270072984,3444.6468370225693,11.962222222222222,0.2055555555555555,178.83946479978223,-8.732067771552542,103.0442765318911,1553.0,1435.0,1200.0,1528.0,1471.0,998.0,60.0,292.7,1649240286.8824356,1649240288.0073862,c8906770-39fa-471e-a990-5d506cdf5cd6
0.1228790107484398,0.2769817244505985,0.2317239143756343,-0.2795500071194731,0.0078410676612534,0.18626887334546,-0.0086211003678243,-0.0329067429121476,-10.035420274961558,20.951809753866588,29.108774676301824,1.1991862695391706,0.9013517511853998,-0.2577683756814928,3453.435302734375,11.960666666666668,0.21,178.82134203118449,-8.716734660912032,103.08067764561774,1553.0,1435.0,1200.0,1528.0,1471.0,998.0,60.0,292.7,1649240288.1158087,1649240289.4566915,c8906770-39fa-471e-a990-5d506cdf5cd6
0.1590510731774005,0.2735499149359329,0.2318554013326043,-0.2817852861040094,0.0088798146815596,0.1929484106002675,-0.005925617658826,-0.0298693941419589,-10.040518397173376,20.897599780187324,29.299147395405225,1.2189132863146055,0.8871118205251818,-0.2633478718794257,3453.435302734375,11.961555555555556,0.21,178.84699470388722,-8.74196395674998,103.10830651972032,1553.0,1435.0,1200.0,1528.0,1471.0,998.0,60.0,292.7,1649240289.5652273,1649240290.667793,c8906770-39fa-471e-a990-5d506cdf5cd6
0.1784848455200054,0.2880134799448878,0.3455390220925655,-0.2879257277403249,0.1116631728853101,0.1765125410976983,0.1110451841022167,0.087850884324834,-9.156980308038625,20.864544946199523,29.057346535857555,1.2016787918641492,0.945210987167052,-0.7228606490481279,3454.827392578125,11.963222222222225,0.2,178.86763857119865,-8.721496535992133,103.10297290088846,1553.0,1435.0,1200.0,1435.0,1471.0,998.0,60.0,292.7,1649240292.8074188,1649240293.8511095,840d93b1-0d75-49d2-916c-574524f7c63a
0.1917387308925409,0.288473684284606,0.3458019960935251,-0.2887672446185261,0.1103088573340282,0.1767360688806612,0.109769760785867,0.0872986391315256,-9.161352886916967,21.02594473219873,29.03726098758648,1.205156974776689,0.9472690161124084,-0.7196078757113731,3454.827392578125,11.960888888888888,0.2022222222222222,178.8853606353651,-8.701689461717784,103.1095215344827,1553.0,1435.0,1200.0,1435.0,1471.0,998.0,60.0,292.7,1649240293.9842072,1649240295.1792748,840d93b1-0d75-49d2-916c-574524f7c63a
0.1945788491619941,0.295718615464606,0.3441058143832853,-0.2870973598427637,0.1077185641951504,0.1703195053579111,0.1064825867427294,0.0853526321700982,-9.080686080637015,20.95609615174807,29.33388219902042,1.1865116444056882,0.970927714760884,-0.7076927684212785,3454.827392578125,11.962555555555555,0.2,178.89722998632274,-8.674791607583845,103.1246541980438,1553.0,1435.0,1200.0,1435.0,1471.0,998.0,60.0,292.7,1649240295.292369,1649240296.4038837,840d93b1-0d75-49d2-916c-574524f7c63a
0.2008113309379889,0.3013594057876041,0.4894251934712574,-0.2869132779171303,0.2417695177521966,0.1532787956622433,0.2552732280540875,0.2295543795670079,-8.178547792484101,21.12976704524594,28.84695691446696,1.1565673656389617,0.999207356184139,-1.2996504988840538,3461.0274522569443,11.952333333333334,0.2,178.8789417753651,-8.716519035634484,103.09032870291496,1553.0,1435.0,1200.0,1330.0,1471.0,998.0,60.0,292.7,1649240298.338876,1649240299.4763443,bb1b20d4-ff32-4ea0-b122-e1669026a43a
0.2399549978408946,0.3160333498607408,0.4941850211014456,-0.2791555462860207,0.2444255542970639,0.1329640603698952,0.2537742767790056,0.2311190742597782,-8.102882507714568,21.1028898030696,29.03087696216336,1.093544142113405,1.0514240981747267,-1.3054551807080406,3457.614501953125,11.955,0.21,178.9060819114871,-8.696052563514018,103.08148133121009,1553.0,1435.0,1200.0,1330.0,1471.0,998.0,60.0,292.7,1649240299.5852325,1649240300.7087233,bb1b20d4-ff32-4ea0-b122-e1669026a43a
0.2149856248631111,0.3191232932653303,0.4946715227951439,-0.2786033008092774,0.244228323813075,0.1301765368593771,0.2538005741756443,0.2328941482277979,-8.028046578663089,21.07712810848073,29.1391175563246,1.0859428459221023,1.06148667212099,-1.3052928458422122,3454.208685980903,11.955555555555556,0.2,178.90154059459894,-8.678431434365292,103.0953086697298,1553.0,1435.0,1200.0,1330.0,1471.0,998.0,60.0,292.7,1649240300.8172925,1649240301.862819,bb1b20d4-ff32-4ea0-b122-e1669026a43a
0.2568116255193385,0.3203987167183985,0.594009913635976,-0.2637321239149169,0.3358615823375073,0.1079420917192439,0.3491680619386589,0.3276699451162883,-7.534841326733285,21.525423580448724,28.84446591409163,1.0105528385742577,1.0698651569552189,-1.7012627409120171,3461.803955078125,11.948,0.19,178.87038734288458,-8.726818296856695,103.0685085252465,1553.0,1435.0,1200.0,1210.0,1471.0,998.0,60.0,292.7,1649240303.8694668,1649240305.016504,da3a53ba-f5c9-4894-8798-4e3369afff4a
0.2527380584881768,0.3257133182450399,0.5941616293594975,-0.2512489529945381,0.3357518413704937,0.0919193937286365,0.3443743510112585,0.3179884596059011,-7.467090706714749,21.57273292331415,28.92223965631356,0.946756396902309,1.0871027897561183,-1.6936046750757403,3456.6854654947915,11.942333333333332,0.1966666666666666,178.87891597242822,-8.697324117064502,103.04411336626092,1553.0,1435.0,1200.0,1210.0,1471.0,998.0,60.0,292.7,1649240305.128978,1649240306.4389458,da3a53ba-f5c9-4894-8798-4e3369afff4a
0.2471473342943399,0.3182423306829102,0.6000977594226928,-0.2636137851053272,0.340516220510457,0.1116105781707912,0.356544480081675,0.3342048467427571,-7.369401040576332,21.62129833741436,29.130727428428795,1.0195970836846746,1.058442316888904,-1.7261831691420346,3457.304660373264,11.94988888888889,0.1922222222222222,178.86876631132156,-8.739546259511274,103.05123573574544,1553.0,1435.0,1200.0,1210.0,1471.0,998.0,60.0,292.7,1649240306.548836,1649240307.6650736,da3a53ba-f5c9-4894-8798-4e3369afff4a
0.2441625804241936,0.3221737905972911,0.6446849840712787,-0.205562284822098,0.3835387514129122,0.0463010042333258,0.3796730349404748,0.362066932096334,-7.246284765185967,22.288870269820688,28.24584203845171,0.7484542676862997,1.0758495436837578,-1.8789400713317013,3453.8993326822915,11.945,0.19,178.87255934304065,-8.73673032429846,102.98693557598904,1553.0,1435.0,1200.0,1071.0,1471.0,998.0,60.0,292.7,1649240309.8073397,1649240311.1632185,c96b41dc-9e05-46e2-b4cf-270a71ae8d92
0.2467073587346232,0.3301636458916314,0.6414337163863723,-0.201802263683356,0.3803436185457854,0.0372132318680774,0.3757668611192656,0.3593562779929882,-7.081809109524934,22.080444537657435,28.532954583967783,0.7181361327549118,1.101434982444256,-1.8629895378634287,3454.827392578125,11.940777777777775,0.19,178.87284924662544,-8.727693414844103,102.98369199504316,1553.0,1435.0,1200.0,1071.0,1471.0,998.0,60.0,292.7,1649240311.296711,1649240312.377217,c96b41dc-9e05-46e2-b4cf-270a71ae8d92
0.2759298287943943,0.3274858635171179,0.6421341372473997,-0.2079816451560482,0.3810930940473194,0.0461037738399589,0.3778848123529967,0.353520280117934,-7.2214093148693985,22.12882228556569,28.625874935550147,0.7523536573677505,1.0923622131907431,-1.8683452308829065,3457.460015190972,11.940777777777775,0.1944444444444444,178.8742410873963,-8.739455759504771,102.96421533116992,1553.0,1435.0,1200.0,1071.0,1471.0,998.0,60.0,292.7,1649240312.4859643,1649240313.6078255,c96b41dc-9e05-46e2-b4cf-270a71ae8d92
0.1143455070448477,0.2437944169551459,0.1204070558620196,-0.2620490900734956,-0.090958239214259,0.2066230543174414,-0.122317881600986,-0.1404236375313991,-10.839742086527782,21.29626928471805,28.8045819639336,1.201734313092813,0.7760622238363507,0.1854218651815912,3450.654541015625,11.965,0.2,178.91677798772733,-8.692344624568348,102.94194739665586,1553.0,1435.0,1200.0,1613.0,1471.0,998.0,60.0,292.7,1649240315.171398,1649240316.2702658,4c0a2350-64b4-494e-9808-dfd3a9680be8
0.0896522558715083,0.2581790898709682,0.1194734984051778,-0.2694386583438661,-0.0949291457127455,0.1997068403529031,-0.1252105950785459,-0.1481024767349075,-10.755838608432596,21.18367815800867,28.84384986688028,1.2021173417039188,0.8299203364371209,0.198057556198841,3451.272271050347,11.95677777777778,0.1944444444444444,178.9032010894772,-8.713873475695967,102.98637170592754,1553.0,1435.0,1200.0,1613.0,1471.0,998.0,60.0,292.7,1649240316.3787858,1649240317.4989388,4c0a2350-64b4-494e-9808-dfd3a9680be8
0.1116237269451105,0.2597832307356398,0.1178299114458426,-0.263916205501902,-0.0941928186619615,0.1926591393350179,-0.1276036579349269,-0.1510083389397508,-10.82707866898075,21.00445387421757,28.775356751894407,1.17250619817015,0.8362609460521172,0.2028719098710363,3454.827392578125,11.965,0.2,178.87740877735138,-8.705779606665763,103.02326079872488,1553.0,1435.0,1200.0,1613.0,1471.0,998.0,60.0,292.7,1649240317.607278,1649240318.724552,4c0a2350-64b4-494e-9808-dfd3a9680be8
0.0717305830334718,0.2492248282191635,0.0431847633931023,-0.248847797956284,-0.1626449360149039,0.1952362836500506,-0.2090203921688332,-0.2368298875887792,-11.390585964367515,21.298876502585987,29.04201382261052,1.142300534521297,0.7917031537505099,0.512491542646812,3462.434136284722,11.961,0.2,178.89630866969472,-8.713571239825193,103.040236854452,1553.0,1435.0,1200.0,1694.0,1471.0,998.0,60.0,292.7,1649240320.865352,1649240322.205614,cc0e3f64-31e6-4ed4-80e4-25029aa98607
0.0930840655158438,0.2543659681753823,0.0443681461189697,-0.2459419355442536,-0.1625660437448955,0.1901608871308275,-0.2096252321233645,-0.2318859773213395,-11.320375662404755,21.312732138224927,29.418465149443044,1.1245866530414337,0.8068696257810524,0.5128540927102825,3479.6050618489585,11.958666666666668,0.1933333333333333,178.88695738181104,-8.723906359540546,103.05147858691592,1553.0,1435.0,1200.0,1694.0,1471.0,998.0,60.0,292.7,1649240322.314402,1649240323.439909,cc0e3f64-31e6-4ed4-80e4-25029aa98607
0.0728219247859271,0.2494352073489326,0.0387668013693473,-0.2492422584078685,-0.1679307124367617,0.1969587629923397,-0.2128598118389227,-0.2408007942932668,-11.266955998423072,21.32889950320307,29.23161705454541,1.1471324788408124,0.7897057326894107,0.5315431965894585,3488.4162868923613,11.956444444444443,0.1988888888888889,178.87254264702273,-8.680409343312443,103.0511355596376,1553.0,1435.0,1200.0,1694.0,1471.0,998.0,60.0,292.7,1649240323.5482297,1649240324.6772096,cc0e3f64-31e6-4ed4-80e4-25029aa98607
0.040489280745253,0.2299225430908412,-0.0404146489102915,-0.2249566142070483,-0.2376977016369004,0.1942895774502986,-0.299825299984418,-0.323992607216672,-11.940173668822773,21.646627206127896,28.67378257490445,1.0840877443034664,0.7182259443337073,0.8547856453351257,3483.8511013454863,11.959222222222222,0.1922222222222222,178.9143783145989,-8.719975395945726,103.02679276543569,1553.0,1435.0,1200.0,1774.0,1471.0,998.0,60.0,292.7,1649240326.8050468,1649240327.9484856,13e9ba28-c2d3-4106-9d5f-5e30339b981c
0.062776320897059,0.2413487595813005,-0.0412561652745147,-0.2210383018804529,-0.2399461287753284,0.1807464210155602,-0.3049532916947757,-0.3309219707606081,-11.902997941461704,21.59736850920389,28.830315340173843,1.044490932658216,0.7588941254854844,0.8679802511056173,3468.9648708767363,11.963666666666668,0.1988888888888889,178.87903588019367,-8.718605089243491,103.04175846881708,1553.0,1435.0,1200.0,1774.0,1471.0,998.0,60.0,292.7,1649240328.05714,1649240329.1726024,13e9ba28-c2d3-4106-9d5f-5e30339b981c
0.0665105506588831,0.2367204187337855,-0.0424395480382951,-0.2246673422700849,-0.2409454298721888,0.1908577681696239,-0.3048875483500423,-0.3274638631525307,-12.032243508259628,21.70912779564337,29.142836737832216,1.076065405844543,0.7400536201415175,0.8705734935546449,3468.808837890625,11.963444444444445,0.1977777777777777,178.88396272331497,-8.744490747287934,103.03699251459622,1553.0,1435.0,1200.0,1774.0,1471.0,998.0,60.0,292.7,1649240329.2812612,1649240330.4011858,13e9ba28-c2d3-4106-9d5f-5e30339b981c
0.0425273286956463,0.2230194779071677,-0.0972433164710268,-0.2056543253949227,-0.2908184412700671,0.1869131594686633,-0.3671992301375513,-0.3842136462265714,-12.461293101213014,22.11849004116328,28.70928859244157,1.0240124028277038,0.6897377622583469,1.0993538216298382,3471.61865234375,11.953666666666669,0.1955555555555555,178.90669207505294,-8.73842610848739,103.06650576199984,1553.0,1435.0,1200.0,1856.0,1471.0,998.0,60.0,292.7,1649240332.1831229,1649240333.4730113,59520487-55a4-4d18-8d46-fb428037b699
0.0373072962383268,0.2218886900827961,-0.1031207840002325,-0.2014730398820957,-0.2934481809479835,0.1852038288852747,-0.371880166813144,-0.3958633932888095,-12.528172562713484,21.894156879661345,28.818476657964467,1.0089433025936116,0.6841110353345218,1.1177110504737915,3466.003173828125,11.951,0.19,178.90720206251095,-8.777222531610452,103.04866910243734,1553.0,1435.0,1200.0,1856.0,1471.0,998.0,60.0,292.7,1649240333.582511,1649240334.703647,59520487-55a4-4d18-8d46-fb428037b699
0.0157697316293921,0.2240845222454349,-0.1003332604116667,-0.2068114108039636,-0.2934481810641738,0.1877809733806958,-0.3697237806782385,-0.3962184083644481,-12.475009855530526,22.04704952618597,28.80879373955232,1.0279541084026058,0.6928928627016616,1.111020774411387,3469.2771809895835,11.955333333333334,0.19,178.88629713019128,-8.744247232071274,103.03189415783578,1553.0,1435.0,1200.0,1856.0,1471.0,998.0,60.0,292.7,1649240334.8128536,1649240336.1360986,59520487-55a4-4d18-8d46-fb428037b699
0.1438774781383168,0.2723007888611702,0.1743693037088848,-0.2865845604650354,-0.0121449510549442,0.2124742239986206,-0.008384423801017,-0.0261088669458421,-8.679533232324143,16.16708937897498,31.090446999850588,1.2403654632040604,0.8537842316420067,-0.1476241817110109,7208.9375,11.633,8.0475,-179.31874145057174,-8.89481512378621,89.86364290034075,1553.0,1435.0,1350.0,1528.0,1471.0,998.0,60.0,292.7,1649240341.3018734,1649240342.2446415,b0e397ac-99fc-48af-83cb-fdf4de1dfc23
0.1215904385432168,0.2735762123247809,0.1760917828268095,-0.2821403005933615,-0.0112639884335741,0.2132499970377389,-0.0121712484185801,-0.03319601426386,-9.040930749033118,16.51328893205168,31.94945484143417,1.2344193465226976,0.8530802468291562,-0.1447703537206951,7205.571614583333,11.632,8.028888888888888,-178.88499484078957,-8.842065122223442,84.72170289251375,1553.0,1435.0,1350.0,1528.0,1471.0,998.0,60.0,292.7,1649240342.354416,1649240343.5113118,b0e397ac-99fc-48af-83cb-fdf4de1dfc23
0.1454421729110129,0.2748121897021766,0.1718842001767153,-0.2848357836973326,-0.0138279842523913,0.212355885737347,-0.0136833485117899,-0.0383503033872347,-8.968279934866608,16.231865825724846,31.62283211705171,1.2363999162525368,0.8601569184338029,-0.1335582377559646,7202.87890625,11.630333333333333,8.082222222222223,-178.68403701502945,-8.75139151507937,79.88862612595696,1553.0,1435.0,1350.0,1528.0,1471.0,998.0,60.0,292.7,1649240343.620252,1649240344.7383454,b0e397ac-99fc-48af-83cb-fdf4de1dfc23
0.2484359064686763,0.4558697236515964,0.1890563968620676,-0.3537481114207622,-0.0403094592057635,0.0863519331509375,-0.0443592577288122,-0.0699334730823939,-8.54865817577014,16.011709911169227,29.85839929742592,1.1080271249013982,1.561470371252649,-0.058022166063002,7202.87890625,11.622333333333334,8.059999999999999,-178.76698283231008,-8.64615945458315,73.11945634816928,1647.0,1435.0,1350.0,1528.0,1543.0,998.0,60.0,292.7,1649240345.853151,1649240346.9931576,03c64c98-8d1e-487e-af75-6eab0a04c047
0.2422954656430393,0.4596171017562859,0.1951968377890712,-0.3527093642277957,-0.0355364822973159,0.0849976174509111,-0.0394021990711581,-0.0661992429880706,-8.520166074374044,16.070562149973842,30.365382046763703,1.103431687264109,1.5710926594207115,-0.0787776587792992,7202.87890625,11.623,8.08,-178.91360877995243,-8.60719692505403,69.70725776337099,1647.0,1435.0,1350.0,1528.0,1543.0,998.0,60.0,292.7,1649240347.101187,1649240348.1862552,03c64c98-8d1e-487e-af75-6eab0a04c047
0.2551417411996431,0.4592752356826428,0.1880307986056534,-0.3578505054047164,-0.0407565148838524,0.082775487805269,-0.0440173916093839,-0.064187492390175,-8.4939012543997,15.782277140239517,29.28749081815453,1.1076089220325935,1.5793516873390934,-0.0567986639030431,7199.519259982639,11.620333333333337,8.084444444444445,-179.0469234478124,-8.603036675803322,66.77020052927475,1647.0,1435.0,1350.0,1528.0,1543.0,998.0,60.0,292.7,1649240348.294997,1649240349.3446283,03c64c98-8d1e-487e-af75-6eab0a04c047
0.3158492681096265,0.6080790172898755,0.2079642212936057,-0.3963235979006134,-0.0559564082923178,-0.03309082464821,-0.0725106174967516,-0.0929568412739884,-8.538230661292141,15.985732268119706,28.472062542660453,0.936216699654208,2.1510011975199483,-0.0062956811989767,7202.87890625,11.601333333333336,8.09,-179.72610986977938,-8.58621771442712,61.19468599448711,1745.0,1435.0,1350.0,1528.0,1614.0,998.0,60.0,292.7,1649240351.3861363,1649240352.524306,59434756-3f3c-45f6-9114-9847ce4ca753
0.3390435667181959,0.6018859819572442,0.2137364987093407,-0.3910378209837711,-0.0496976286214564,-0.0289884313137408,-0.0671196517894554,-0.0893278008016822,-8.615750259363402,16.169084431356627,28.92546952451193,0.9350480463597906,2.124021928572312,-0.0305571849877112,7202.87890625,11.596111111111112,8.101111111111111,-179.94712113094266,-8.614033659821997,59.81843323312585,1745.0,1435.0,1350.0,1528.0,1614.0,998.0,60.0,292.7,1649240352.6325626,1649240353.7509997,59434756-3f3c-45f6-9114-9847ce4ca753
0.313706030764596,0.6050942635306044,0.2131842534964211,-0.3909983748114626,-0.0497370747042496,-0.0259773797767424,-0.0676718970505136,-0.0946135770299989,-8.716868668837556,16.116071375326424,29.80195618350013,0.9414351888370796,2.128961582054051,-0.027388608969846,7199.519259982639,11.59688888888889,8.098888888888887,179.8143604673154,-8.620234902405937,58.340406099671945,1745.0,1435.0,1350.0,1528.0,1614.0,998.0,60.0,292.7,1649240353.8595428,1649240354.9775724,59434756-3f3c-45f6-9114-9847ce4ca753
0.3890086087353397,0.7173972672431728,0.2295806769499964,-0.4198597689814747,-0.0636089497967188,-0.139003578241197,-0.0939824395187264,-0.1134688086707539,-8.517359686298342,16.50611593748464,25.55760476603336,0.7553804020795509,2.5909711457126616,0.0139446348524529,7202.87890625,11.58088888888889,8.08222222222222,179.2337564423689,-8.624370297357165,55.879003998285285,1849.0,1435.0,1350.0,1528.0,1686.0,998.0,60.0,292.7,1649240356.7082262,1649240357.849221,e385bf43-3503-4e93-9f5d-ebd1532bd3ff
0.3743609622453056,0.720105898408797,0.2190880178566846,-0.4255137095295993,-0.0711957478269471,-0.1407129088679029,-0.1014903454564873,-0.1202666847947896,-8.548649827032959,16.08738372829692,24.888073489487912,0.7608724439870239,2.6073095031918623,0.048754264765675,7202.87890625,11.582666666666668,8.083333333333334,179.06994270313513,-8.636939552977282,55.09601122294757,1849.0,1435.0,1350.0,1528.0,1686.0,998.0,60.0,292.7,1649240357.9574578,1649240359.0787284,e385bf43-3503-4e93-9f5d-ebd1532bd3ff
0.3919539164473377,0.7226172991485764,0.2376408273531745,-0.4195047539899116,-0.0576788875511259,-0.1386485634085627,-0.0883547972384055,-0.1161905887267678,-8.582205293104796,16.663556655469584,26.43226743273423,0.7569291608490509,2.6037262179306304,-0.011373352955166,7196.83154296875,11.577777777777776,8.09,178.87238782940148,-8.631697951971727,54.40451680009623,1849.0,1435.0,1350.0,1528.0,1686.0,998.0,60.0,292.7,1649240359.1879857,1649240360.3052056,e385bf43-3503-4e93-9f5d-ebd1532bd3ff
0.4406172373036345,0.8442558767832407,0.2569825585080245,-0.4435537247381532,-0.0693549303093302,-0.2536733692988786,-0.1125089536170078,-0.1398976896835123,-8.288599231917852,16.961199064379656,23.85336596803776,0.5553745482060799,3.0849156602700005,0.0235085743254513,7196.83154296875,11.532555555555554,8.054444444444446,178.37391910595417,-8.682589406886276,53.07552022032751,1962.0,1435.0,1350.0,1528.0,1760.0,998.0,60.0,292.7,1649240362.2399757,1649240363.3799038,3ee37524-5660-4cb8-8784-98833ab7a55f
0.4635880076517016,0.8484371618201952,0.2614136689278493,-0.440174509042834,-0.0646608455167067,-0.2548567521125373,-0.1088273184011519,-0.1367157049534793,-8.329877220967381,16.911096447592914,24.74142786220159,0.5451019336483616,3.09288331193952,0.0076129003417839,7196.83154296875,11.526555555555554,8.078888888888889,178.22960328007105,-8.686843760965548,52.62462983572858,1962.0,1435.0,1350.0,1528.0,1760.0,998.0,60.0,292.7,1649240363.4884808,1649240364.6062045,3ee37524-5660-4cb8-8784-98833ab7a55f
0.446705083148226,0.8438482672338887,0.2631887427909445,-0.4323378843935005,-0.0621231470910797,-0.2519640385630815,-0.1080383965999011,-0.1302202486291741,-8.40245035572623,17.07761590439943,25.547083695952715,0.5352089011670284,3.068195812744936,0.0011442529734008,7196.83154296875,11.526666666666667,8.08,178.10406743876587,-8.687067165069651,52.22658158909839,1962.0,1435.0,1350.0,1528.0,1760.0,998.0,60.0,292.7,1649240364.7145653,1649240365.8290646,3ee37524-5660-4cb8-8784-98833ab7a55f
0.019793232707783,0.049824855161129,0.1419577684365536,-0.2304396204936001,0.0046196369557871,0.3743609622583684,0.0210292101709269,-0.0050578036214606,-9.067623738740386,16.471944729896933,30.45215125822573,1.4776072925314327,0.0188060320918933,-0.1958805198661407,7198.850857204861,11.616,8.093333333333334,178.42880195266494,-8.680770110109854,51.75684519475956,1459.0,1435.0,1350.0,1528.0,1394.0,998.0,60.0,292.7,1649240366.7429397,1649240367.897571,a7bd706a-9d39-4c10-b135-460716fb658e
0.0362422518775036,0.0474186437368895,0.1627064105636255,-0.2170936922383754,0.0227253919718425,0.3850508514797701,0.0363737388241778,0.0101552382309082,-9.348699591957155,17.142832969307747,33.514230359755764,1.477350926316748,-0.0156849060691763,-0.2669984841798545,7220.40771484375,11.624666666666666,8.10222222222222,178.3159748166754,-8.664881192825634,51.50071006524445,1459.0,1435.0,1350.0,1528.0,1394.0,998.0,60.0,292.7,1649240368.0236254,1649240369.110814,a7bd706a-9d39-4c10-b135-460716fb658e
-0.0018100754993477,0.0478525507231582,0.148966023337011,-0.2278361782680197,0.0110362008171812,0.382394815051,0.0281821009769566,0.0072888224144977,-9.121039372772064,16.641825401943375,31.71231026132764,1.4914368170075776,0.0007446241672491,-0.2229028827733458,7215.00537109375,11.619666666666667,8.096666666666666,178.28461665928597,-8.666385067671635,51.27045983486388,1459.0,1435.0,1350.0,1528.0,1394.0,998.0,60.0,292.7,1649240369.219579,1649240370.3454113,a7bd706a-9d39-4c10-b135-460716fb658e
-0.0883022024013842,-0.1407129088206547,0.1211696801893009,-0.1863520373665281,0.0232644885142938,0.5314221254752062,0.0568331102133255,0.0327972932718651,-9.232541197354514,16.886278154699706,32.063650737086064,1.7329793368237068,-0.7156808150769952,-0.2645971819648016,7221.0830078125,11.604222222222225,8.1,178.3421769401514,-8.6364402851217,50.95682817291559,1364.0,1435.0,1350.0,1528.0,1312.0,998.0,60.0,292.7,1649240371.2486188,1649240372.37986,9cf30ec7-f0bc-4b40-890b-f6f819a78988
-0.0977035207248117,-0.1497329151136,0.1222741706817763,-0.1908751893215109,0.0221468493615423,0.5382200007965586,0.0560836345524275,0.036544671893029,-9.377369158028491,17.33618707120171,31.1787833551292,1.7612817341036635,-0.7400091630222971,-0.2661784066846037,7221.0830078125,11.6,8.108888888888888,178.2837985544054,-8.634470913911013,50.80098298771351,1364.0,1435.0,1350.0,1528.0,1312.0,998.0,60.0,292.7,1649240372.4899623,1649240373.8164625,9cf30ec7-f0bc-4b40-890b-f6f819a78988
-0.0860800726433046,-0.1456699676681569,0.1111503738312203,-0.1986197721222938,0.0129953566215608,0.5292788881860034,0.04751068456257,0.026985569609018,-9.271930351420576,16.872167103242006,29.390124282010305,1.7547977589580368,-0.709423604537748,-0.2281795848208501,7221.0830078125,11.599333333333334,8.096666666666668,178.27474020574613,-8.64270195590705,50.6502285701728,1364.0,1435.0,1350.0,1528.0,1312.0,998.0,60.0,292.7,1649240373.9259994,1649240375.0486803,9cf30ec7-f0bc-4b40-890b-f6f819a78988
-0.2003685488634239,-0.3427426506176451,0.117369707066001,-0.1450651276907955,0.0526518247894493,0.6916784198826444,0.1024590858045314,0.0810267111032868,-9.625364756471802,18.27212290652217,32.25562821529351,2.0087940591984634,-1.4776370601306947,-0.3890620144561917,7215.00537109375,11.553,8.08,178.34651183354467,-8.626732973627558,50.55524682120975,1262.0,1435.0,1350.0,1528.0,1222.0,998.0,60.0,292.7,1649240375.675048,1649240376.6974213,6757a8f6-1e3b-43c6-bcd2-c89f7a618fda
-0.2140694916772055,-0.3484886318554296,0.1153053617949788,-0.1391087678795806,0.0515604829944182,0.6942818614874854,0.0987905996054198,0.0726378429482599,-9.781419240350054,18.468701599828226,32.58128542676113,2.002381962770272,-1.501830649693532,-0.3799120347607723,7208.9375,11.552444444444443,8.088888888888889,178.33436623938053,-8.624283686763938,50.485950757530425,1262.0,1435.0,1350.0,1528.0,1222.0,998.0,60.0,292.7,1649240376.8298864,1649240377.9160016,6757a8f6-1e3b-43c6-bcd2-c89f7a618fda
-0.2054718870667422,-0.3423690084269348,0.1007694783006904,-0.1534797461102694,0.0386829785455229,0.6872834685905412,0.0881412514886546,0.0622273628259764,-9.662581442828747,17.903946906703705,30.468052161997324,2.014328386740073,-1.4601516131014447,-0.3294471645456487,7208.9375,11.558444444444442,8.096666666666666,178.3136601414567,-8.632483518590018,50.45817920836515,1262.0,1435.0,1350.0,1528.0,1222.0,998.0,60.0,292.7,1649240378.0355844,1649240379.348523,6757a8f6-1e3b-43c6-bcd2-c89f7a618fda
-0.3212313801750379,-0.5469813957251806,0.061356261581477,-0.0847389058285486,0.034033270765415,0.8237044664209353,0.0838931268223305,0.0581874256373769,-10.400720007282716,19.846504230159542,30.172069826214376,2.1763182807060515,-2.2306539335221225,-0.2892274276966244,7208.9375,11.504222222222223,8.074444444444444,178.42439420392054,-8.598253076927115,50.35183657808265,1153.0,1435.0,1350.0,1528.0,1121.0,998.0,60.0,292.7,1649240380.2600896,1649240381.4010532,236aa74a-c4fc-478d-9be6-ebefd6972e40
-0.325057651429453,-0.5516754816794854,0.0656821826777424,-0.0860932214834951,0.0388062475701162,0.8279120488310623,0.089770594061603,0.0622898191338725,-10.416249855256323,19.87156695714824,29.97826797413104,2.189171119864577,-2.245990621837005,-0.310867708989927,7208.9375,11.507555555555555,8.077777777777776,178.43982436016552,-8.604113094643768,50.30459215959367,1153.0,1435.0,1350.0,1528.0,1121.0,998.0,60.0,292.7,1649240381.5089586,1649240382.5709507,236aa74a-c4fc-478d-9be6-ebefd6972e40
-0.3267143872932112,-0.5443385070003187,0.0673126209458437,-0.0854357868627353,0.0404892806457631,0.8222186639001415,0.0907567461935278,0.0670233496962764,-10.390065790513216,19.70226540875948,30.28872111194842,2.1739158452375937,-2.2213898230728746,-0.3153673966658247,7208.9375,11.506555555555556,8.077777777777778,178.43934169346417,-8.605513662878575,50.29389532444351,1153.0,1435.0,1350.0,1528.0,1121.0,998.0,60.0,292.7,1649240382.680282,1649240383.8528702,236aa74a-c4fc-478d-9be6-ebefd6972e40
0.1360671527286494,0.2709727706174639,0.1678475505864321,-0.275000557484601,-0.0141041068568849,0.2030334604999862,-0.0190743141058755,-0.0469101048791661,-9.09040183193532,16.103043721295748,31.01653210105648,1.1920522250261578,0.8505257193728265,-0.1212701631518653,7211.634331597223,11.627666666666666,8.115555555555554,178.11771112108792,-8.657649255723191,50.283592363535504,1553.0,1435.0,1350.0,1528.0,1471.0,998.0,60.0,292.7,1649240384.766054,1649240385.9006226,014a33d7-3724-4f78-96f7-34394bb7cb04
0.1508199895512161,0.272734695816413,0.1689651897466568,-0.2856247055304504,-0.0173912809913867,0.2035068135476458,-0.0185878123148182,-0.0472782683956323,-8.93213801027592,16.304019711528923,29.94205022832168,1.2183777200305952,0.8669192842232835,-0.1203762821542721,7219.732421875,11.624444444444444,8.104444444444445,178.14761976055348,-8.65122261689664,50.401537967398056,1553.0,1435.0,1350.0,1528.0,1471.0,998.0,60.0,292.7,1649240386.008702,1649240387.1372566,014a33d7-3724-4f78-96f7-34394bb7cb04
0.134936364906229,0.2720641123419189,0.1618254479058226,-0.2793001817231102,-0.0206916038270216,0.2004563161420326,-0.0249386327719292,-0.0460685883752101,-9.025163209441594,16.053833227259805,30.19431808992983,1.1952356273901608,0.8615912054706486,-0.0967389126106612,7215.00537109375,11.621666666666666,8.103333333333333,178.1564003481865,-8.663905424411707,50.50025810656683,1553.0,1435.0,1350.0,1528.0,1471.0,998.0,60.0,292.7,1649240387.2461512,1649240388.362012,014a33d7-3724-4f78-96f7-34394bb7cb04
0.156881538348275,0.2625707541919077,0.1641659157900889,-0.5591570920859354,-0.0449115029973258,0.4862563579958099,0.0600676894962229,0.0409889312464587,-8.903636257038684,15.369018250375284,33.20818905475286,2.4648735270147024,0.8330064751596227,-0.1869574021718893,7215.00537109375,11.620666666666668,8.107777777777777,178.18517517624983,-8.598541842147021,50.589752936896645,1553.0,1537.0,1350.0,1528.0,1471.0,998.0,60.0,292.7,1649240389.2742538,1649240390.4103687,9ad60c1d-9969-40df-b004-05f79fd4ae0e
0.1363564240961268,0.2630046611443529,0.1667825062220366,-0.5643902749143695,-0.0454243022266921,0.4922916090323623,0.060764570383785,0.0347038543559062,-8.987619241716894,15.683509096975625,33.45081236393392,2.492451807473978,0.8338934649532124,-0.1906568494290825,7215.00537109375,11.616777777777775,8.116666666666667,178.23069611033827,-8.581305290594067,50.6915337597235,1553.0,1537.0,1350.0,1528.0,1471.0,998.0,60.0,292.7,1649240390.519204,1649240391.6382887,9ad60c1d-9969-40df-b004-05f79fd4ae0e
0.1683866471932509,0.2652136419908328,0.1729623932667973,-0.5591044973470671,-0.0383766007693674,0.490582278674173,0.0671548367461746,0.0461958148817058,-8.963434222763256,15.588808226957362,34.256361038284865,2.4765078116032733,0.8346071264464042,-0.2162727489651298,7218.3818359375,11.614444444444445,8.084444444444445,178.26456625952244,-8.595968378649745,50.78953255502493,1553.0,1537.0,1350.0,1528.0,1471.0,998.0,60.0,292.7,1649240391.746537,1649240393.094804,9ad60c1d-9969-40df-b004-05f79fd4ae0e
0.1659278410765316,0.25096045604042,0.1583936383199577,-0.8497433945711304,-0.0820171253418084,0.774212778294243,0.1360014092757927,0.1183821566778616,-8.59334437359817,15.01216703357406,34.75897116139862,3.765191922309156,0.8089254956898625,-0.2380654318411416,7221.0830078125,11.595,8.09,178.30822179305753,-8.49840908704865,50.93716709393476,1553.0,1645.0,1350.0,1528.0,1471.0,998.0,60.0,292.7,1649240394.688516,1649240395.7342064,87db5996-4aa8-4b85-a2ee-ec9f8481149c
0.1757104707622107,0.2529853551555043,0.1559611295679006,-0.8619322421788645,-0.0879077415829667,0.7750148486883565,0.1343052274861121,0.1143060609332086,-8.417828982051851,15.07884175354442,33.54255982345513,3.794704654552427,0.8274064974094556,-0.2257935442224333,7221.0830078125,11.608777777777778,8.104444444444445,178.37101399882718,-8.487214786453954,50.997464762837545,1553.0,1645.0,1350.0,1528.0,1471.0,998.0,60.0,292.7,1649240395.8428314,1649240396.9606066,87db5996-4aa8-4b85-a2ee-ec9f8481149c
0.1770910838188597,0.2520123516853421,0.166480086251681,-0.8468243826048777,-0.0762842935273179,0.7728716114023085,0.1408269806716486,0.1206174350124864,-8.630780390940481,15.295930999526846,35.143210485245326,3.7579197277604814,0.8098882606790575,-0.263214892715312,7221.0830078125,11.612000000000002,8.08,178.3900201385576,-8.479780599861089,51.09542599209854,1553.0,1645.0,1350.0,1528.0,1471.0,998.0,60.0,292.7,1649240397.068248,1649240398.195632,87db5996-4aa8-4b85-a2ee-ec9f8481149c
0.1786163325183963,0.2391266300329915,0.1809042055008094,-1.0469871031144198,-0.0871451171896054,0.9869981118373952,0.2103046891767373,0.1909892551848944,-8.530512734408223,15.60149248600877,37.90303240475153,4.693842854809848,0.761952977700068,-0.3664821957593923,7215.00537109375,11.592777777777778,8.095555555555555,178.41603253455665,-8.447813606998135,51.19115564677572,1553.0,1761.0,1350.0,1528.0,1471.0,998.0,60.0,292.7,1649240399.306935,1649240400.445372,280d96a1-b205-4867-88fb-df5aa7237b4f
0.1543438400646974,0.2349979396180913,0.1718579028437945,-1.0543766752157415,-0.096441245862048,0.9850521049129972,0.2037829361370775,0.1777222211716896,-8.324830651996699,15.498928288905232,36.02530684425441,4.704812840498634,0.7619889331926822,-0.3352306375087228,7215.00537109375,11.593,8.09,178.4529535015701,-8.422687048588951,51.23848088916988,1553.0,1761.0,1350.0,1528.0,1471.0,998.0,60.0,292.7,1649240400.5537856,1649240401.6833525,280d96a1-b205-4867-88fb-df5aa7237b4f
0.1603527940466857,0.2378249091655797,0.1621015705516192,-1.0656188186272508,-0.1048827093220185,0.9856832423399152,0.1990099595905105,0.1734751924616886,-8.166781794584878,15.061270485088103,34.98625690673612,4.728117452292696,0.7814404568478639,-0.3045702492696424,7215.00537109375,11.591888888888889,8.105555555555554,178.4811257551667,-8.44990430893033,51.265564486503735,1553.0,1761.0,1350.0,1528.0,1471.0,998.0,60.0,292.7,1649240401.8148165,1649240402.910164,280d96a1-b205-4867-88fb-df5aa7237b4f
