raw_voltage_G-,raw_voltage_G0,raw_voltage_G1,raw_voltage_G2,raw_voltage_G3,raw_voltage_G4,raw_voltage_G5,raw_voltage_G6,load_x,load_y,load_z,load_l,load_m,load_n,rpm,voltage,current,roll,pitch,yaw,aileron1_pwm,elevator_pwm,throttle_pwm,rudder_pwm,aileron2_pwm,pbaro,pdiff,Tt,sample_start_time,sample_end_time,uid
-0.2073242098287286,-0.0582705788047867,-0.4274465681582455,-0.1544664462939093,-0.4932821057203649,0.4306110802855674,-0.6431378421783566,-0.6631896110869094,-20.914683438078683,20.45348020447797,28.60426044766028,1.4244154235574609,-0.3317727792400722,2.179134073245842,2819.831380208333,11.943777777777775,0.2388888888888888,-179.94000407382748,-10.988505951503402,109.05822849860094,1553.0,1435.0,1200.0,1528.0,1471.0,995.0,60.0,293.1,1649253103.5017884,1649253104.4799964,473f2221-aeea-4150-8321-b5db16ab7a83
-0.1904675796124476,-0.0518803121860503,-0.425868724305796,-0.1608698618307871,-0.4946627192434558,0.4311633254841602,-0.6400084513808528,-0.6634262878526661,-20.63127057261499,20.391739913723253,28.75189272669,1.439936407361199,-0.3102324046022598,2.1755569944922435,3063.4825032552085,11.94277777777778,0.23,-179.8173460188926,-10.987699514862648,109.04263821236542,1553.0,1435.0,1200.0,1528.0,1471.0,995.0,60.0,293.1,1649253104.588436,1649253105.6417017,473f2221-aeea-4150-8321-b5db16ab7a83
-0.1946357167084972,-0.0547861741599598,-0.4259739137938482,-0.1596338842099189,-0.492677265473621,0.4311764741952386,-0.6400084512579505,-0.6601785585083452,-20.797029796933337,20.33123461160413,28.51215289291564,1.4366499019943963,-0.3179930124972347,2.172226128116405,3114.6226942274307,11.942333333333332,0.2222222222222222,-179.74379095281083,-10.99020638401552,109.0470269883621,1553.0,1435.0,1200.0,1528.0,1471.0,995.0,60.0,293.1,1649253105.7528594,1649253106.9359744,473f2221-aeea-4150-8321-b5db16ab7a83
-0.107670233038684,0.09780444745044,-0.4163885122337823,-0.302994135774825,-0.5257067992031529,0.420736410220672,-0.644150292128867,-0.6742082226211805,-20.6182493345811,19.78270605063112,29.541798784261985,1.7336704402742995,0.2621725792481236,2.229053549942419,3130.4160427517363,11.946555555555555,0.2244444444444444,-179.69705272723033,-10.8859680211798,108.88042501412716,1647.0,1435.0,1200.0,1528.0,1543.0,995.0,60.0,293.1,1649253109.078149,1649253110.2152889,7e3240d4-83b7-4b46-9993-53e68f5e6f3f
-0.1129165631888904,0.0865491635965207,-0.4124964974048902,-0.2933166938093338,-0.5186327987663032,0.421656818898368,-0.6385094995179115,-0.6652408086428794,-20.61219001180475,19.78082842957533,29.40849060664328,1.7140719327724463,0.2201522431603046,2.2046219250223653,3126.356255425347,11.958444444444446,0.2388888888888888,-179.6652953832294,-10.840488257953886,108.8500701356358,1647.0,1435.0,1200.0,1528.0,1543.0,995.0,60.0,293.1,1649253110.3237584,1649253111.4441917,7e3240d4-83b7-4b46-9993-53e68f5e6f3f
-0.1216604466881028,0.0897048506653514,-0.4182819250141685,-0.2908447385744385,-0.524063211847141,0.4170547755881704,-0.646595950585104,-0.6655300800104268,-20.70514213793131,19.780448971399032,29.464478821993858,1.697825945570535,0.2314785361734657,2.231835533258532,3132.195203993056,11.951444444444444,0.23,-179.67648019745027,-10.796589304065876,108.77903161480822,1647.0,1435.0,1200.0,1528.0,1543.0,995.0,60.0,293.1,1649253111.5529785,1649253112.6707833,7e3240d4-83b7-4b46-9993-53e68f5e6f3f
-0.0328804455218851,0.2197323039993244,-0.4019380921635062,-0.4215428025807944,-0.5454692953011085,0.4146091182403981,-0.640652737722023,-0.6611515624273895,-20.60550140222239,19.362398120397167,30.209184496909995,1.985364409312708,0.7289757530828936,2.2461300418636423,3133.9765625,11.95022222222222,0.2255555555555556,-179.73667996697492,-10.59640281536328,108.55661485249574,1745.0,1435.0,1200.0,1528.0,1614.0,995.0,60.0,293.1,1649253114.6081705,1649253115.6716874,4119599e-4dfe-4422-9f58-9eb58366cea9
-0.0264947304431097,0.2215099065115049,-0.3939755435103767,-0.4222073175913585,-0.5401283944397973,0.4126843515504823,-0.6319922953422282,-0.662588310977926,-20.31379047190379,19.41291483936784,30.15804326207827,1.9834082354585711,0.7346189043742866,2.2159914876859337,3131.4013671875,11.94075,0.22,-179.74059783937383,-10.570434697014171,108.44734966015838,1745.0,1435.0,1200.0,1528.0,1614.0,995.0,60.0,293.1,1649253115.7803829,1649253116.9704924,4119599e-4dfe-4422-9f58-9eb58366cea9
-0.0338271517098691,0.2203634413982095,-0.4021221740034335,-0.421450761447187,-0.5472180724119743,0.414030575696035,-0.6417309312915691,-0.6658456488412804,-20.52372315928986,19.4779819089456,30.220205503462257,1.984656699469328,0.7306453750387643,2.250400451862271,3134.6133626302085,11.941,0.2255555555555556,-179.78109896387724,-10.51188738266588,108.31211381186688,1745.0,1435.0,1200.0,1528.0,1614.0,995.0,60.0,293.1,1649253117.079043,1649253118.2029698,4119599e-4dfe-4422-9f58-9eb58366cea9
0.0592919164006186,0.367194923346397,-0.363714825004002,-0.5437073697375939,-0.5532927718938179,0.3796335889938361,-0.6239670367228213,-0.6479765644262773,-20.149415998013023,19.332322164672643,29.99473466901794,2.1842423417107115,1.298186549470414,2.1977271706912185,3137.4188639322915,11.935666666666666,0.2166666666666666,-179.8786371008647,-10.43249155620636,108.0811433759838,1849.0,1435.0,1200.0,1528.0,1686.0,995.0,60.0,293.1,1649253119.1203382,1649253120.2504723,99f3bd40-a50f-42b2-ad3c-bd24627ff414
0.0635389452952419,0.3706398815079972,-0.3605459885678603,-0.5409461428155755,-0.5514125077059469,0.3717706692149777,-0.6236120217231641,-0.6415994445061863,-20.118364191438985,19.410092670909417,29.73088890969608,2.160991568791207,1.3130881584823273,2.1903999609248395,3137.162868923612,11.909777777777778,0.2044444444444444,-179.90452199999922,-10.396040069834603,107.8842138440142,1849.0,1435.0,1200.0,1528.0,1686.0,995.0,60.0,293.1,1649253120.3593948,1649253121.6869004,99f3bd40-a50f-42b2-ad3c-bd24627ff414
0.0582531693916901,0.367628830288412,-0.3574560444308896,-0.5408015074771771,-0.5483094145133155,0.3741374343175566,-0.6194964785461992,-0.648633999382134,-20.076714169815105,19.440381272702304,29.69404480190748,2.166353481890502,1.3020052374391184,2.175703506413283,3136.27001953125,11.91675,0.21,-179.95178558096336,-10.368125774458864,107.71245716395812,1849.0,1435.0,1200.0,1528.0,1686.0,995.0,60.0,293.1,1649253121.7954664,1649253122.8282166,99f3bd40-a50f-42b2-ad3c-bd24627ff414
0.1421024041803075,0.5241903432105504,-0.322427911726072,-0.6487523381555187,-0.5624968618798823,0.3133904619395539,-0.618378838825338,-0.6485551069607607,-19.73589436912775,19.835675092993725,28.867635802037963,2.277761993076901,1.9096366614370488,2.1625968079155915,3133.9765625,11.915,0.21,179.8631689991243,-10.314013387316026,107.41835092584468,1962.0,1435.0,1200.0,1528.0,1760.0,995.0,60.0,293.1,1649253124.4694643,1649253125.5833876,46b35b99-de0c-4f96-8865-3e692d3348a7
0.1513064912801583,0.5146312419229969,-0.327884621553662,-0.6424278126200798,-0.5654947655615712,0.3171904349937471,-0.6214950808610734,-0.64296690906838,-19.66787671536916,19.82604635034155,28.870999612877487,2.271733696567894,1.872148220054222,2.17751008627375,3137.41796875,11.87122222222222,0.2,179.8211420862513,-10.263886059814872,107.16559598105884,1962.0,1435.0,1200.0,1528.0,1760.0,995.0,60.0,293.1,1649253125.6974962,1649253127.0095036,46b35b99-de0c-4f96-8865-3e692d3348a7
0.1443639798610699,0.5119489081350942,-0.3303302794847009,-0.6393115703825619,-0.5662442415229267,0.3163357697860052,-0.6241511183935015,-0.6437558311931966,-19.76276702993585,19.79751743505713,28.765082873596285,2.262408122553476,1.8631589835891504,2.1851449564476586,3137.0353190104165,11.865333333333334,0.2,179.7684024011201,-10.24959275061176,106.96732393746234,1962.0,1435.0,1200.0,1528.0,1760.0,995.0,60.0,293.1,1649253127.1180718,1649253128.2352483,46b35b99-de0c-4f96-8865-3e692d3348a7
-0.3050321838996692,-0.2426717442402663,-0.4328484919997947,0.0198502100985436,-0.4509416499544641,0.444525686864189,-0.6338729388341252,-0.6579514974465019,-20.977831900461894,21.447600579051567,27.71976366972857,1.0686161165491324,-1.0368907476772593,2.093153203676209,3128.2578125,11.886888888888889,0.2066666666666666,179.94169947856147,-10.27654259007438,106.59231088326298,1459.0,1435.0,1200.0,1528.0,1394.0,995.0,60.0,293.1,1649253129.9700549,1649253131.1043675,5da01abf-dc18-4df0-8eff-f8929329f091
-0.3052688604250999,-0.2450346748020598,-0.4321406538771076,0.022396674326082,-0.4503647509369282,0.4447196301164411,-0.6328818558000342,-0.6508955762747394,-20.896964139835404,21.497952197242697,27.757026810283563,1.0637234128269777,-1.0469235954961758,2.089816350712999,3129.399658203125,11.942,0.2133333333333333,179.86402504950027,-10.28690835077726,106.61347005040176,1459.0,1435.0,1200.0,1528.0,1394.0,995.0,60.0,293.1,1649253131.2135594,1649253132.3305435,5da01abf-dc18-4df0-8eff-f8929329f091
-0.3025996747042239,-0.2482166597011149,-0.430549661208439,0.0235274623447167,-0.4481820667538701,0.4484801569627998,-0.6308832531326604,-0.6576934542205514,-20.96454430262121,21.55294720686547,28.00978932123209,1.0700731010885327,-1.060657316554281,2.081740735645017,3134.995442708333,11.958555555555556,0.23,179.77086126922129,-10.269612699115235,106.5981089549584,1459.0,1435.0,1200.0,1528.0,1394.0,995.0,60.0,293.1,1649253132.4389756,1649253133.563758,5da01abf-dc18-4df0-8eff-f8929329f091
-0.4080259397197374,-0.4250140587734086,-0.4472616579312924,0.1771831245446699,-0.4190445496151317,0.4751062645437009,-0.6321192309786086,-0.6640574256889211,-21.31247133166734,22.51792260885487,27.20468731558221,0.7885573090692354,-1.7341183012329642,2.0447743249129795,3137.164469401041,11.939555555555554,0.2155555555555555,179.7363081011201,-10.290432823252726,106.54485928236916,1364.0,1435.0,1200.0,1528.0,1312.0,995.0,60.0,293.1,1649253134.678281,1649253135.8189068,2e70fe42-69bf-4a0a-8094-5d614237e2cc
-0.4087885642122211,-0.4171642854420929,-0.4519425948697569,0.1705956279288131,-0.4250929511689065,0.4720031724965349,-0.6381544847478449,-0.6606782095348709,-21.35600085945812,22.45082573583904,26.95455036484877,0.7957043677089977,-1.7016386523666065,2.068522378252076,3137.131072998047,11.926875,0.21875,179.69895076090967,-10.278811979715956,106.463082376074,1364.0,1435.0,1200.0,1528.0,1312.0,995.0,60.0,293.1,1649253135.9272108,1649253137.053868,2e70fe42-69bf-4a0a-8094-5d614237e2cc
-0.4211483412851288,-0.4262894825886205,-0.4472616581517747,0.172423296433394,-0.4195047543003011,0.480207958107808,-0.6290555838314627,-0.6600996665331108,-21.16160680337061,22.441936220755007,27.14113808670485,0.8103205900397541,-1.738821714797005,2.0408901576749723,3135.122802734375,11.934111111111111,0.22,179.6466201282188,-10.248911059787096,106.3964498964435,1364.0,1435.0,1200.0,1528.0,1312.0,995.0,60.0,293.1,1649253137.162876,1649253138.2801354,2e70fe42-69bf-4a0a-8094-5d614237e2cc
-0.5194743155383447,-0.6053879225059428,-0.4662878266656103,0.336348084135747,-0.3927865984488262,0.494987091483889,-0.6387856232126913,-0.6682124159450935,-21.656383452077485,23.692464495031107,25.6318200894344,0.4806099916909809,-2.415038400102328,2.021065697376551,3136.27001953125,11.917,0.2155555555555555,179.6283030786846,-10.25985719684195,106.14417382380944,1262.0,1435.0,1200.0,1528.0,1222.0,995.0,60.0,293.1,1649253139.968439,1649253141.1418169,6b8235ea-fab0-44b9-84c0-dc1f216ef28f
-0.5196058025549215,-0.6146446075417863,-0.4678262238790182,0.3315882562923546,-0.3926814084550398,0.5096873325277245,-0.6354721501554195,-0.6591529601554668,-21.690126131025444,23.666917135077306,25.816338757012414,0.5241468712661254,-2.4506650816727387,2.017387090820032,3133.9765625,11.89611111111111,0.2,179.60137088387734,-10.26235723580565,106.00130523912048,1262.0,1435.0,1200.0,1528.0,1222.0,995.0,60.0,293.1,1649253141.25057,1649253142.371318,6b8235ea-fab0-44b9-84c0-dc1f216ef28f
-0.5199871148002765,-0.610160900659706,-0.4658539191536159,0.3334685197941887,-0.391300795275659,0.5014825468282738,-0.6356430831349729,-0.6626242172401452,-21.67082560152445,23.642728258808862,25.527931921653305,0.5013698067877317,-2.431535793998887,2.013237217251908,3135.377821180556,11.898444444444443,0.2011111111111111,179.5625404995359,-10.2754323048793,105.85533650745823,1262.0,1435.0,1200.0,1528.0,1222.0,995.0,60.0,293.1,1649253142.4792616,1649253143.5987947,6b8235ea-fab0-44b9-84c0-dc1f216ef28f
-0.5756850081669923,-0.7238577191695691,-0.4745715066913685,0.4498870673078344,-0.3760220072337819,0.4948161584603606,-0.6448208762712546,-0.6662138128089388,-21.5955266420528,24.922330345201253,23.8994519019469,0.2316046951481118,-2.858932323061639,2.0018713092729787,3123.192328559028,11.903666666666666,0.2088888888888888,179.54528440605284,-10.27116163423701,105.5485881583735,1153.0,1435.0,1200.0,1528.0,1121.0,995.0,60.0,293.1,1649253145.540561,1649253146.6703222,aafce193-6aec-4c36-afa8-2fabb4f3d3cc
-0.5751327627593666,-0.706343648603082,-0.4675895472963606,0.4458635664488545,-0.371945910506242,0.4798792407900817,-0.6432430324600031,-0.6676470215130245,-21.68663373977217,24.85127515276837,23.723293732082524,0.2069181587933835,-2.7901009978952174,1.9863567449097304,3107.0947265625,11.859666666666666,0.1966666666666666,179.52151382992136,-10.25970797618133,105.39983878080916,1153.0,1435.0,1200.0,1528.0,1121.0,995.0,60.0,293.1,1649253146.7784898,1649253147.89635,aafce193-6aec-4c36-afa8-2fabb4f3d3cc
-0.595694295760221,-0.7096202038320268,-0.4670519677781002,0.4516752897330613,-0.3698527389341619,0.4772646733155751,-0.6433456929722058,-0.6648766909820389,-21.74329352434781,24.856993963219413,23.65795102620593,0.1879587941852682,-2.802091288220476,1.982439519625926,3095.868570963541,11.861333333333333,0.1922222222222222,179.5223349704416,-10.277688164580177,105.19074923538716,1153.0,1435.0,1200.0,1528.0,1121.0,995.0,60.0,293.1,1649253148.0122154,1649253149.128493,aafce193-6aec-4c36-afa8-2fabb4f3d3cc
-0.1907437022665695,-0.0525640444072171,-0.4147186277242646,-0.1519550450456052,-0.4839070831829948,0.4245626805121236,-0.6302915616559158,-0.6556028107153457,-20.508149668053864,20.468964030715654,28.963939399066003,1.4061571400154989,-0.3159370383615755,2.132222754391632,3090.9073621961807,11.879777777777775,0.1966666666666666,179.23978674049616,-10.201806660176103,104.8905404129778,1553.0,1435.0,1200.0,1528.0,1471.0,995.0,60.0,293.1,1649253151.062432,1649253152.2001631,bb11c77d-5ba8-43bb-a60b-112b38ec5b23
-0.1915063266925448,-0.0533135201243337,-0.4204777576766478,-0.1542166210446189,-0.4868392429389926,0.425956442192795,-0.6362610716820661,-0.6608622911051001,-20.833196807527376,20.343075672974912,28.719869569094545,1.4130668480256243,-0.3143730241872213,2.1519356987017715,3100.8456217447915,11.961999999999998,0.2211111111111111,179.1537202856747,-10.165587589963602,105.08359039749888,1553.0,1435.0,1200.0,1528.0,1471.0,995.0,60.0,293.1,1649253152.3090048,1649253153.4338367,bb11c77d-5ba8-43bb-a60b-112b38ec5b23
-0.1916115162942556,-0.0511571338747182,-0.4174272595065414,-0.1518104095611775,-0.4854454807817477,0.4198028528529468,-0.6335787367994351,-0.6637155594846622,-20.57777996939132,20.35310379175759,28.481167168150137,1.394119979398735,-0.3060801296615204,2.1421799616880968,3095.4951171875,11.961888888888888,0.2211111111111111,179.1128939682758,-10.193160779051729,105.18754891230608,1553.0,1435.0,1200.0,1528.0,1471.0,995.0,60.0,293.1,1649253153.541736,1649253154.6532948,bb11c77d-5ba8-43bb-a60b-112b38ec5b23
-0.1969235900731235,-0.072628955712731,-0.4412001075659209,-0.3446360636376994,-0.5240763606014959,0.6326013333989428,-0.5974329586958708,-0.6251109734995679,-20.66967705982324,19.99215852578543,30.550769663233467,2.3039811806003967,-0.3820771539439894,2.1744517975912374,3104.340033637153,11.959,0.22,179.05575715913892,-10.144174662324396,105.38123638114968,1553.0,1537.0,1200.0,1528.0,1471.0,995.0,60.0,293.1,1649253156.5972202,1649253157.7302866,22d0c64a-0c1d-49a0-9894-e191e0dc291f
-0.191335393623571,-0.0695521606554817,-0.4459467878998011,-0.3517232121354498,-0.5297171526993193,0.636874659266533,-0.6011408922383873,-0.6278853492900995,-20.66912353313194,19.94493908314312,30.627049881599643,2.329033846816661,-0.3706464245401847,2.1943218205392947,3120.6651746961807,11.949666666666666,0.22,179.0313445452255,-10.135115175300282,105.40121316665214,1553.0,1537.0,1200.0,1528.0,1471.0,995.0,60.0,293.1,1649253157.838493,1649253159.1711895,22d0c64a-0c1d-49a0-9894-e191e0dc291f
-0.1840115691417505,-0.0683819266249767,-0.4473011038818606,-0.3519335911841114,-0.5304403312068176,0.6361251836538483,-0.602363721326342,-0.6280825797893251,-20.703602388368868,19.87111313405465,30.64710643766162,2.3272532429571235,-0.3662522696058515,2.199068175108154,3123.697509765625,11.946,0.22,179.0263311863747,-10.136797963157044,105.44647151791249,1553.0,1537.0,1200.0,1528.0,1471.0,995.0,60.0,293.1,1649253159.2840662,1649253160.3917274,22d0c64a-0c1d-49a0-9894-e191e0dc291f
-0.1974100919132811,-0.0815963669589758,-0.4678919669685208,-0.5472180727177296,-0.5685189665160756,0.839469751805264,-0.5663231336245339,-0.583534782626277,-20.752581465939485,19.55460095708975,32.2124448641291,3.2218109681776754,-0.4066083675046963,2.226678349173298,3140.8671875,11.949555555555555,0.2177777777777777,179.0125342042513,-10.078881184362444,105.44574144658118,1553.0,1645.0,1200.0,1528.0,1471.0,995.0,60.0,293.1,1649253160.9985054,1649253162.044286,9a344fa2-5cb2-4e0b-9113-922eb27d00c8
-0.1966080213583049,-0.0785458692932595,-0.4661826362112167,-0.5437336671669442,-0.5677694907333481,0.8343417607159479,-0.5666255539384984,-0.5958551146521276,-20.705223934735145,19.61376042361197,32.36884690701869,3.202953780737152,-0.3972081580376242,2.224387203707087,3137.2908528645835,11.949222222222224,0.21,178.99973746538632,-10.053004348645684,105.42820759207186,1553.0,1645.0,1200.0,1528.0,1471.0,995.0,60.0,293.1,1649253162.1529455,1649253163.203174,9a344fa2-5cb2-4e0b-9113-922eb27d00c8
-0.1973706457894489,-0.0817278539253791,-0.4655252011027285,-0.5452194699808771,-0.5660601596068925,0.8378261648948322,-0.5647189921950759,-0.5956973301274069,-20.77898914467516,19.58317172663812,32.23717850338496,3.213907148775196,-0.4072293760324267,2.217825552394908,3138.56689453125,11.943777777777775,0.22,179.0187314625582,-10.080254052385618,105.40710989663556,1553.0,1645.0,1200.0,1528.0,1471.0,995.0,60.0,293.1,1649253163.3119743,1649253164.4906473,9a344fa2-5cb2-4e0b-9113-922eb27d00c8
-0.1957928020700552,-0.0893015033401075,-0.4553875541861958,-0.668922444898084,-0.5727922943821544,0.96452699158583,-0.5215386616012586,-0.5481121840250919,-20.597640803790405,19.819819239418244,33.201341936660526,3.7799829591849567,-0.4295868911481657,2.151085157099052,3149.715576171875,11.935333333333332,0.2066666666666666,179.0203737435986,-10.058146817044532,105.36593599849893,1553.0,1761.0,1200.0,1528.0,1471.0,995.0,60.0,293.1,1649253165.8087988,1649253166.9437473,354611df-3a91-4730-bfdb-afcd2b24f13b
-0.1925582224826542,-0.0855146786374483,-0.4564000038084728,-0.6748130637568432,-0.5754877777155047,0.96701209507295,-0.5222486913528878,-0.5524512552505163,-20.556664677128182,19.82756833679658,33.303969828393974,3.798893053761431,-0.415922394733202,2.15772429369732,3149.5869954427085,11.938333333333333,0.21,179.0175703303993,-10.045595206079772,105.30341775920598,1553.0,1761.0,1200.0,1528.0,1471.0,995.0,60.0,293.1,1649253167.0607932,1649253168.182175,354611df-3a91-4730-bfdb-afcd2b24f13b
-0.1799354729577973,-0.0798344415812489,-0.4512062676116085,-0.6697508130343047,-0.5712801936666037,0.9541921170893792,-0.5205656576942999,-0.545574485164193,-20.50611900390584,19.83687484734154,32.96168226733186,3.758956842268027,-0.3922359744525994,2.1427979540186515,3151.259765625,11.936333333333334,0.2022222222222222,179.02348072076109,-10.053470793647753,105.26351275843516,1553.0,1761.0,1200.0,1528.0,1471.0,995.0,60.0,293.1,1649253168.2949588,1649253169.4041536,354611df-3a91-4730-bfdb-afcd2b24f13b
-0.1631314376890863,-0.0678428300820505,-0.4041865198839895,-0.679954205918603,-0.5335302758754115,0.9529824372332826,-0.4780953582395106,-0.5045242441663498,-20.45882816093813,20.31898454130113,33.46254491411732,3.784895762952624,-0.3477887528529317,1.9687226015902823,3147.402750651041,11.914666666666667,0.2033333333333333,179.0190304730619,-10.03971213647467,105.10857219384312,1553.0,1887.0,1200.0,1528.0,1471.0,995.0,60.0,293.1,1649253171.5473602,1649253172.6757278,33f6bcd0-06fe-4d8a-9d14-2db7b3f59e02
-0.1645777944044328,-0.0701438520049842,-0.4071975718557298,-0.6856738902641294,-0.5377247111473911,0.9607401673310096,-0.4785687111135733,-0.5057207757576847,-20.33056292487201,20.35600156578705,33.48156709793571,3.81539368260532,-0.3569814483060025,1.9789866839682808,3147.402750651041,11.883,0.19,179.0348992792335,-10.076569829374565,104.94608199348852,1553.0,1887.0,1200.0,1528.0,1471.0,995.0,60.0,293.1,1649253172.783685,1649253173.9187744,33f6bcd0-06fe-4d8a-9d14-2db7b3f59e02
-0.1664449094442273,-0.0685923057875575,-0.405054333801788,-0.6739583975390783,-0.5348977405138724,0.9482752042668666,-0.4806067594167862,-0.5106383894410783,-20.364826018536583,20.41987669461432,33.45913549194133,3.7614652969716458,-0.3520263649142738,1.9753251703511137,3146.3455200195312,11.88175,0.1975,179.05357301642437,-10.071275507846355,104.7886580859508,1553.0,1887.0,1200.0,1528.0,1471.0,995.0,60.0,293.1,1649253174.0267584,1649253175.1338892,33f6bcd0-06fe-4d8a-9d14-2db7b3f59e02
-0.1938730922637366,-0.0424789940602715,-0.4079470478659698,0.0335993638050753,-0.4621591343385182,0.2363654039139263,-0.6839645595788784,-0.7123920516361357,-20.91720241316847,21.315433842738425,27.71708564250784,0.5702313133987615,-0.2865680414419519,2.1702449717858308,3142.9146321614585,11.897555555555556,0.1966666666666666,179.04553464268116,-10.270583060296069,104.6634093023182,1553.0,1335.0,1200.0,1528.0,1471.0,995.0,60.0,293.1,1649253176.0472395,1649253177.1870005,aefc275a-2677-48ee-a9a9-9254ea13fbb2
-0.1900731186531921,-0.044109432440267,-0.410366408316004,0.0328761853652279,-0.4635265990483938,0.239941849077256,-0.6856607415494399,-0.7045028308852693,-21.01174466653821,21.2874480414163,27.88862726802965,0.579573141904412,-0.2935992093638322,2.177804054931446,3147.274820963541,11.96288888888889,0.22,178.98850256311155,-10.296644595711635,104.82455623213605,1553.0,1335.0,1200.0,1528.0,1471.0,995.0,60.0,293.1,1649253177.2957964,1649253178.4147823,aefc275a-2677-48ee-a9a9-9254ea13fbb2
-0.2036294258616656,-0.0542470776050948,-0.4084335495622874,0.0426062207995708,-0.4598055170200179,0.2402968639051899,-0.6829389604802758,-0.7042135592149854,-20.938384199298017,21.38558429420169,27.817122597216468,0.5591946616282893,-0.3325808039865303,2.164994703653309,3149.715576171875,11.961666666666666,0.2133333333333333,178.97187029357266,-10.28334811467239,104.98314715338448,1553.0,1335.0,1200.0,1528.0,1471.0,995.0,60.0,293.1,1649253178.5234673,1649253179.6437514,aefc275a-2677-48ee-a9a9-9254ea13fbb2
-0.1979886345976233,-0.0335510290104882,-0.3815576089586099,0.2181281630402604,-0.4223185755092282,0.0494829889960603,-0.714587884486056,-0.7399648787753058,-21.013105488302767,22.100994381903,26.52502503050706,-0.2596868900521792,-0.2628719353603434,2.1242375480540536,3147.0177408854165,11.963666666666668,0.22,178.95917980209478,-10.344330604903206,105.15818668797412,1553.0,1236.0,1200.0,1528.0,1471.0,995.0,60.0,293.1,1649253180.5563805,1649253181.6871302,dfc4e3a1-cc22-4326-bdc8-573616861494
-0.197475835380347,-0.0291593643333815,-0.3848447836455282,0.2169184829821179,-0.4272493376766006,0.0457750565902213,-0.7195843910768734,-0.741424384683213,-20.956681537541147,22.150458453154627,26.41854949353472,-0.2651147139068035,-0.2459148005278287,2.1429379346698383,3144.451931423612,11.961333333333334,0.22,178.93365310843672,-10.345136092906571,105.23710876492368,1553.0,1236.0,1200.0,1528.0,1471.0,995.0,60.0,293.1,1649253181.7952845,1649253182.923456,dfc4e3a1-cc22-4326-bdc8-573616861494
-0.1909935275496283,-0.0294486356680159,-0.3833326834239581,0.2170236725732837,-0.4253690737724125,0.0460511792480297,-0.7182037776946255,-0.7442645043903817,-21.014742236209354,22.146805503301376,26.44275642383081,-0.2647058022746102,-0.2467205039193396,2.1363110471123967,3139.716552734375,11.963333333333331,0.2266666666666666,178.92406807630147,-10.34847055331388,105.31786512712038,1553.0,1236.0,1200.0,1528.0,1471.0,995.0,60.0,293.1,1649253183.039111,1649253184.1572206,dfc4e3a1-cc22-4326-bdc8-573616861494
-0.2147926700215168,-0.0288306469259251,-0.3571930703466243,0.3675499380947089,-0.3912481999260744,-0.1028446612555021,-0.7386763058944322,-0.7599114595616541,-20.88945474205354,23.1257391170654,25.07691385535728,-0.9312086219093788,-0.250043287249228,2.082508580030647,3135.63267686632,11.954888888888888,0.2144444444444444,178.93952707112288,-10.391652432202775,105.49567620069324,1553.0,1133.0,1200.0,1528.0,1471.0,995.0,60.0,293.1,1649253186.0839984,1649253187.232296,f936861c-667a-4625-bcda-5c919957891a
-0.1997637087444257,-0.0234528300120934,-0.3570352860586723,0.3674315997416477,-0.3916426609642924,-0.1060397947424879,-0.738978726236913,-0.7662096879548208,-20.83395335470037,23.041961612541225,25.356271679717228,-0.9385966165022676,-0.2327188188069483,2.08437824067926,3131.6865234375,11.944333333333333,0.21,178.94016303762567,-10.400174990467136,105.4881220114712,1553.0,1133.0,1200.0,1528.0,1471.0,995.0,60.0,293.1,1649253187.3566458,1649253188.4012764,f936861c-667a-4625-bcda-5c919957891a
-0.1990405303997836,-0.0258327440889279,-0.3538927470927472,0.3691146327189684,-0.3872641442633621,-0.1064211070124208,-0.7343503833165826,-0.7613972629843682,-20.7953174553397,22.94329829339712,25.221865049582533,-0.9437495366072576,-0.2407368268317535,2.0671458726803267,3130.4159342447915,11.947333333333331,0.21,178.95514088356558,-10.40687417281432,105.51952722127491,1553.0,1133.0,1200.0,1528.0,1471.0,995.0,60.0,293.1,1649253188.5107677,1649253189.4829185,f936861c-667a-4625-bcda-5c919957891a
-0.2063775035823718,-0.030881843600749,-0.3201400382904971,0.4454296595619177,-0.351907293609168,-0.1773057338961745,-0.7266057981723868,-0.7497343643366164,-20.89288158390276,23.86148985136776,24.581393415601323,-1.2675685050047338,-0.2605477005407798,1.960663062489328,3132.958767361112,11.944444444444445,0.21,178.9717078868524,-10.437129349516535,105.5659611239824,1553.0,1026.0,1200.0,1528.0,1471.0,995.0,60.0,293.1,1649253191.613303,1649253192.7464836,36633bfa-dbe5-45dd-b519-3a5d5f6cf605
-0.197423240605163,-0.0283572938381445,-0.320140038211643,0.4530296053746031,-0.3514602378295094,-0.1862862942023701,-0.7289988616055717,-0.7590567941657281,-20.86585552092462,23.846329959518982,24.64203733547252,-1.3049698644003846,-0.2527438464746325,1.9639441312752297,3124.836181640625,11.934,0.2,178.98087248289872,-10.43912623121138,105.53545901696891,1553.0,1026.0,1200.0,1528.0,1471.0,995.0,60.0,293.1,1649253192.8540154,1649253193.9764163,36633bfa-dbe5-45dd-b519-3a5d5f6cf605
-0.1937284565641429,-0.0291856617333498,-0.3180362464474714,0.4487694282323087,-0.3500138809655931,-0.1816842497780832,-0.725645942547508,-0.7485904273385147,-20.85490624117596,23.86671261271348,24.64389755832808,-1.2847728582464064,-0.2552864792967558,1.9541969279877065,3126.3569064670137,11.93588888888889,0.21,178.99955684482825,-10.446442691904805,105.53887411155394,1553.0,1026.0,1200.0,1528.0,1471.0,995.0,60.0,293.1,1649253194.084772,1649253195.2080142,36633bfa-dbe5-45dd-b519-3a5d5f6cf605
-0.1846821527168146,-0.0579287126954502,-0.4213061258506279,-0.1613958098356343,-0.4886406149039474,0.4403805607723414,-0.6329475993229708,-0.663439436528998,-20.7279378958554,20.39849350656712,29.195783818899,1.4621292318634298,-0.3358134775040479,2.150901424910109,3129.020073784722,11.952777777777778,0.2111111111111111,179.02827703137825,-10.261024874598808,105.48768336154453,1553.0,1435.0,1200.0,1528.0,1471.0,995.0,60.0,293.1,1649253196.1181695,1649253197.2761147,8e506390-6c0a-4f13-a050-c137b807dba0
-0.1963832412230252,-0.0541268609482049,-0.4255462681248656,-0.1564362463085839,-0.4940760367601335,0.4314826509436286,-0.6409658020618307,-0.6730235898951161,-20.696124362961186,20.511483375156907,29.06102139418192,1.431479305118657,-0.3214625089407863,2.175789973554759,3137.41796875,11.963,0.22,179.01341150410468,-10.273097139093064,105.53376513005476,1553.0,1435.0,1200.0,1528.0,1471.0,995.0,60.0,293.1,1649253197.3898718,1649253198.4808605,8e506390-6c0a-4f13-a050-c137b807dba0
-0.1954246385588205,-0.0580864970415499,-0.4241856908406204,-0.1597127765606348,-0.4923616968118937,0.4363176139720937,-0.6390880423322595,-0.6625190276443397,-20.827086635943697,20.58092160801032,28.78039954378839,1.4501525683945118,-0.3324086465992224,2.167903112726389,3138.56689453125,11.96425,0.22,179.01879881581254,-10.262880990363724,105.56238362267712,1553.0,1435.0,1200.0,1528.0,1471.0,995.0,60.0,293.1,1649253198.5894134,1649253199.7186048,8e506390-6c0a-4f13-a050-c137b807dba0
-0.1519024502312163,-0.0364831883721005,-0.2829818171823237,-0.1773714773935728,-0.364148731987938,0.4261668212795823,-0.4885617227741712,-0.5198556278853611,-19.66906336081469,20.236890064467104,29.15582481916968,1.4725692324405275,-0.2517867910657922,1.590418294715593,3137.5460611979165,11.965333333333335,0.22,178.99067759890724,-10.242846515850294,105.57837992571328,1553.0,1435.0,1200.0,1435.0,1471.0,995.0,60.0,293.1,1649253201.6483028,1649253202.786703,70175d6b-4194-4652-8ee7-125982a55d51
-0.1423564960068968,-0.0351551699958806,-0.2807465384701505,-0.1720199572192602,-0.3610850851833703,0.4209336406451885,-0.488982481051897,-0.5120847466238759,-19.81768756302836,20.27167227883888,29.30467731042191,1.4490286501938527,-0.2475898570764993,1.5840969807719307,3135.696594238281,11.96475,0.22,178.99183152142203,-10.258271146282496,105.59508998351774,1553.0,1435.0,1200.0,1435.0,1471.0,995.0,60.0,293.1,1649253202.8940055,1649253204.0116117,70175d6b-4194-4652-8ee7-125982a55d51
-0.14969346907338,-0.0339191925182466,-0.2769728622062286,-0.1828676326929674,-0.3594809439804655,0.4288228577262982,-0.4826711054282318,-0.5094681551358274,-19.731337871677702,20.277095370816504,29.216693972048635,1.4914797679320213,-0.2412106538885866,1.5677706001226,3133.59556749132,11.965111111111112,0.22,178.99355538527757,-10.242376560889902,105.60696274957,1553.0,1435.0,1200.0,1435.0,1471.0,995.0,60.0,293.1,1649253204.1195843,1649253205.2576573,70175d6b-4194-4652-8ee7-125982a55d51
-0.1259600706300477,-0.021585715107096,-0.1604491035251556,-0.1818025882190912,-0.2537391128478571,0.4101385618887285,-0.3634781485036612,-0.386790791145556,-18.758263863565745,20.31745916292803,29.31971490817078,1.453667105520713,-0.1954963257547559,1.0975172403319116,3136.652669270833,11.962000000000002,0.2133333333333333,178.99065331379018,-10.257794384848866,105.61445243144983,1553.0,1435.0,1200.0,1330.0,1471.0,995.0,60.0,293.1,1649253207.182042,1649253208.3227043,60fc400f-731d-4490-96ec-ff81fac78252
-0.1293327114202009,-0.0196422365946969,-0.1612056592587545,-0.1840388780906423,-0.2538154764033883,0.4101178274360808,-0.3638473232850389,-0.3833048688741072,-18.82784655117816,20.2123598479414,29.292052309964365,1.4578912112806877,-0.1872438465069978,1.0993491565358569,3135.6328396267363,11.964,0.22,178.99063358213257,-10.254026966339175,105.61715566854136,1553.0,1435.0,1200.0,1330.0,1471.0,995.0,60.0,293.1,1649253208.4431317,1649253209.5505762,60fc400f-731d-4490-96ec-ff81fac78252
-0.1077359765599238,-0.0227428003961382,-0.1593840592811887,-0.1809084765947628,-0.2517010649000679,0.4089157332656217,-0.3613086134366912,-0.3894862745771321,-18.719345139755983,20.21665264708804,29.115335478928404,1.4482741345152952,-0.1983444222905512,1.089848779856139,3136.6529134114585,11.964333333333334,0.2133333333333333,178.99966461003518,-10.246654061721362,105.62732733803531,1553.0,1435.0,1200.0,1330.0,1471.0,995.0,60.0,293.1,1649253209.6644323,1649253210.7732725,60fc400f-731d-4490-96ec-ff81fac78252
-0.0717874391526407,-0.0026252946853617,-0.0467391719006754,-0.1802904878818962,-0.151494840683281,0.3842750784394622,-0.252240161396609,-0.2692151305045553,-18.04938560607684,20.46269404202528,29.34248184728749,1.3991227124082724,-0.1225773756888386,0.6476542102907864,3132.8310546875,11.96377777777778,0.2088888888888888,178.99961603980103,-10.26170153764533,105.60290637611293,1553.0,1435.0,1200.0,1210.0,1471.0,995.0,60.0,293.1,1649253211.5072072,1649253212.451519,a44e4b68-9478-499d-9008-22985bc0051d
-0.0732995392949032,0.0012798681734498,-0.0500131973014583,-0.1839721232426155,-0.154492743596725,0.3843671192912464,-0.2546858190795678,-0.273856620857229,-18.057203257669222,20.31356887570293,29.39735444489027,1.4064876263108752,-0.1081184403839575,0.6602557886993767,3136.27001953125,11.963888888888889,0.22,178.9828577912175,-10.257557699821378,105.59957172597812,1553.0,1435.0,1200.0,1210.0,1471.0,995.0,60.0,293.1,1649253212.5821908,1649253213.6417325,a44e4b68-9478-499d-9008-22985bc0051d
-0.0768233900307613,-0.0032695808175773,-0.0461737779779641,-0.1834987702288401,-0.1504166475146292,0.3875228061345313,-0.2500048829203919,-0.2741458922266223,-18.063203908977925,20.381173718930263,29.3063095971672,1.4131329120478435,-0.1241459754607779,0.642099104795781,3137.6733669704863,11.96377777777778,0.2111111111111111,178.9817877282475,-10.266746580984767,105.60868851070028,1553.0,1435.0,1200.0,1210.0,1471.0,995.0,60.0,293.1,1649253213.750149,1649253215.078246,a44e4b68-9478-499d-9008-22985bc0051d
-0.043281064572023,0.0064078597937852,0.0441314696069975,-0.1697320838969921,-0.0680795066470057,0.3605416835023437,-0.1642227796711487,-0.1880745168596748,-17.49687266027671,20.65260772387741,29.29249887087261,1.3280272978664625,-0.0877011378207375,0.2862783598098554,3135.122802734375,11.960555555555556,0.21,178.98613021073982,-10.278558349653183,105.60666449797624,1553.0,1435.0,1200.0,1071.0,1471.0,995.0,60.0,293.1,1649253215.9849415,1649253217.119357,9c9a4131-1152-4813-81d0-9fa0fe3a90e6
-0.0575868466046798,0.0051587336171791,0.0472608592196587,-0.1665632480478613,-0.0652130908489062,0.3571493200969957,-0.1628553153392731,-0.1858260895233579,-17.53127611794733,20.76000850598877,29.06741292437183,1.3140706846774657,-0.0903376336216982,0.2756525554464362,3133.9765625,11.949666666666666,0.21,178.98699385021487,-10.286806372258404,105.5959016376641,1553.0,1435.0,1200.0,1071.0,1471.0,995.0,60.0,293.1,1649253217.228978,1649253218.472408,9c9a4131-1152-4813-81d0-9fa0fe3a90e6
-0.0419661949169947,0.0132188845384532,0.0475764278915818,-0.1709286152580282,-0.066988164970065,0.3543617967326217,-0.162763274390098,-0.1881402603812066,-17.39444282892986,20.68363665253036,29.22405838660944,1.31725722994104,-0.0619078040036863,0.2787940420268612,3134.6133626302085,11.946888888888887,0.21,178.99113598049155,-10.270567882097914,105.56116633118504,1553.0,1435.0,1200.0,1071.0,1471.0,995.0,60.0,293.1,1649253218.5810692,1649253219.617235,9c9a4131-1152-4813-81d0-9fa0fe3a90e6
-0.2303738768151586,-0.0729050783332795,-0.5541342886248435,-0.1328236905866922,-0.611423176010331,0.4335169419330913,-0.7815410744444812,-0.8009091129844012,-21.75270081121913,20.97661958351659,28.789489331434822,1.3788919697293565,-0.3930585884400418,2.707671989989449,3139.4611545138887,11.947444444444445,0.21,179.01337811206872,-10.277088815480504,105.58150815235317,1553.0,1435.0,1200.0,1613.0,1471.0,995.0,60.0,293.1,1649253221.513788,1649253222.6513665,c87ea4ab-09a0-4ea0-bd0e-6d41d2c43d0f
-0.2457052583877074,-0.0727867400587949,-0.5503211655841644,-0.1291552042395602,-0.6075969041122258,0.4313079611027415,-0.7790428210305099,-0.8043277756418888,-21.789688937546742,21.03567570574093,28.99583274893396,1.3662485201333814,-0.3943907075680153,2.693993191705641,3134.2312825520835,11.955222222222224,0.2122222222222222,179.01264045163836,-10.262721133106432,105.56137806704932,1553.0,1435.0,1200.0,1613.0,1471.0,995.0,60.0,293.1,1649253222.7598846,1649253223.8777368,c87ea4ab-09a0-4ea0-bd0e-6d41d2c43d0f
-0.2523716481830651,-0.0725763609067014,-0.5513204668655043,-0.1242507400795051,-0.6071629970697655,0.4254436431007001,-0.7818960894185077,-0.8064052704214068,-21.902514390318384,21.004908451136544,28.8197412151372,1.3416687631733333,-0.3919101288761861,2.6985806215210904,3128.8921712239585,11.96,0.21,179.03115481774856,-10.266474986101525,105.5573558445381,1553.0,1435.0,1200.0,1613.0,1471.0,995.0,60.0,293.1,1649253223.9859676,1649253225.321317,c87ea4ab-09a0-4ea0-bd0e-6d41d2c43d0f
-0.2450918210404375,-0.0774965021303204,-0.6347737514567882,-0.1072201430821019,-0.6870524810415104,0.4189046958395159,-0.875255924295028,-0.9004533911310946,-22.26601768145713,21.405021236339923,28.750654789400485,1.2868610097800577,-0.414559090304989,3.0531116400072023,3118.7731119791665,11.954666666666666,0.2055555555555555,179.03713351000204,-10.25937766064397,105.5151452754674,1553.0,1435.0,1200.0,1694.0,1471.0,995.0,60.0,293.1,1649253225.9696703,1649253227.1633415,af01dfbf-f12a-4f41-890e-66c5f0c7d6cc
-0.2796026016332982,-0.0774676761461333,-0.6408631171896524,-0.1085117499441298,-0.6920378618232121,0.4182250093769993,-0.8817867840700258,-0.9039949439510784,-22.39193906826923,21.35166552073223,28.441881170847896,1.287477695017023,-0.4110509956712505,3.076991440795648,3128.6388075086807,11.939777777777778,0.2022222222222222,179.03662200472417,-10.286763968167303,105.46335802227048,1553.0,1435.0,1200.0,1694.0,1471.0,995.0,60.0,293.1,1649253227.2779243,1649253228.3867562,af01dfbf-f12a-4f41-890e-66c5f0c7d6cc
-0.271187434925487,-0.0759555760017838,-0.6376548338257841,-0.1023844569950629,-0.6885140095174315,0.4127420035435314,-0.8804587647757758,-0.9040869849744552,-22.40775835411961,21.37066983788696,28.69231074618596,1.261652667012079,-0.4080379773242807,3.066498801926593,3128.1309950086807,11.934111111111111,0.2,179.03476267545014,-10.258828115007,105.41670100005013,1553.0,1435.0,1200.0,1694.0,1471.0,995.0,60.0,293.1,1649253228.49549,1649253229.6198485,af01dfbf-f12a-4f41-890e-66c5f0c7d6cc
-0.286716047326882,-0.088197012797549,-0.688382522641549,-0.0563377205695184,-0.7341925986586084,0.3832231828106847,-0.9481614398838312,-0.9745903352313534,-22.804778447505875,22.07493404763675,28.356481551662583,1.0933391489311448,-0.4570376116893924,3.292138479910752,3130.41748046875,11.926111111111112,0.1977777777777778,179.02309671234772,-10.26733511561825,105.28362083535166,1553.0,1435.0,1200.0,1774.0,1471.0,995.0,60.0,293.1,1649253231.5503595,1649253232.6860378,1bc9b283-c563-4981-a28d-37dafa101b1f
-0.2720815464561896,-0.0794531293709157,-0.6824524583690481,-0.0634774628205966,-0.7300113115527614,0.3815927446187682,-0.9422445229162604,-0.969593827317098,-22.78340886519693,21.95843118177561,28.45485156697669,1.1053302495752078,-0.4240128184858561,3.271132566626086,3124.709662543403,11.907333333333334,0.1911111111111111,179.02240458651187,-10.302645391216188,105.17957884045458,1553.0,1435.0,1200.0,1774.0,1471.0,995.0,60.0,293.1,1649253232.794673,1649253234.1305802,1bc9b283-c563-4981-a28d-37dafa101b1f
-0.2760524532261316,-0.0797292519973782,-0.6760621896292133,-0.0575736979876532,-0.724515154276946,0.3759256569658042,-0.9373400564590813,-0.9652547550725132,-22.66229984499461,22.05424214228324,28.425304173588547,1.08028768822859,-0.425963894247707,3.2479750985416733,3120.665961371528,11.915222222222225,0.2,179.0404651244972,-10.28984504752915,105.09631807556222,1553.0,1435.0,1200.0,1774.0,1471.0,995.0,60.0,293.1,1649253234.2494774,1649253235.3494084,1bc9b283-c563-4981-a28d-37dafa101b1f
-0.2705431488103759,-0.0669487186907044,-0.6843590200555323,-0.0237815477061153,-0.7339690707424893,0.3314173233494331,-0.964150263913302,-0.9939583765345252,-22.831926131434443,22.49485746932212,28.16244161859779,0.9064251859424042,-0.3791778457447131,3.311505724255216,3125.0894368489585,11.89422222222222,0.19,179.03897007197887,-10.317613181599835,104.95658378879236,1553.0,1435.0,1200.0,1856.0,1471.0,995.0,60.0,293.1,1649253236.9666522,1649253238.2163477,5bb44cba-4ac5-42c7-a5ea-2abcbc76a196
-0.2796683451631452,-0.0700649598419223,-0.6819396589424817,-0.0204680762314076,-0.7298666757680524,0.332271988543235,-0.9609025337784262,-0.9855958004102898,-22.882400390463367,22.442128963380995,28.30626349421821,0.9006397958845962,-0.3920385688854119,3.297837361068899,3126.229383680556,11.865777777777778,0.1888888888888888,179.05824334799684,-10.325065392303015,104.7537370362718,1553.0,1435.0,1200.0,1856.0,1471.0,995.0,60.0,293.1,1649253238.3244982,1649253239.652304,5bb44cba-4ac5-42c7-a5ea-2abcbc76a196
-0.2911077124469622,-0.0713535321121534,-0.6971921525556227,-0.014130404277248,-0.7427524035278197,0.3293529782128295,-0.9780615930127444,-0.999428237506478,-23.03481621639152,22.427623664615453,28.417582523965148,0.8788695476512077,-0.3985268301812332,3.3605658828591,3136.144314236112,11.860111111111111,0.1722222222222222,179.07782625925714,-10.307050104320938,104.6161345274329,1553.0,1435.0,1200.0,1856.0,1471.0,995.0,60.0,293.1,1649253239.761363,1649253240.8806744,5bb44cba-4ac5-42c7-a5ea-2abcbc76a196
-0.1688511210410985,-0.0205732654954276,-0.5006716754460677,-0.2259690634458633,-0.5370278303216954,0.4942244671961141,-0.6714601445570338,-0.6952461451985558,-21.72740662410341,16.12892865778614,33.2008738548753,1.6966651102356634,-0.2212842685841766,2.390480211537118,7148.81298828125,11.629,8.08,-179.2103804993895,-10.385907104745934,93.84437447881984,1553.0,1435.0,1350.0,1528.0,1471.0,995.0,60.0,293.1,1649253243.9681022,1649253244.9755695,f5ae4086-ff10-45a8-a579-6e15632d5f47
-0.1952800028400411,-0.0188639349133003,-0.4896662137044597,-0.2197628785201659,-0.5280998629177531,0.4872688074769345,-0.6615197263729606,-0.6847666299511619,-21.45404440055099,16.21783229428649,33.340613667213205,1.6683324118255636,-0.2181114595502204,2.3497783212617325,7154.77978515625,11.62977777777778,8.081111111111111,-178.54344743679354,-10.33282752283978,88.59734726742528,1553.0,1435.0,1350.0,1528.0,1471.0,995.0,60.0,293.1,1649253245.0844257,1649253246.2034423,f5ae4086-ff10-45a8-a579-6e15632d5f47
-0.1730192581373993,-0.0191006114618235,-0.4976606232885377,-0.2203940160045664,-0.5322680010442815,0.4845338789093251,-0.6668449505101012,-0.6926427023876108,-21.503485596258543,15.831894271944584,32.79019516014103,1.66054122836054,-0.2142065041965274,2.3732480530204336,7158.764485677083,11.625999999999998,8.14,-178.33225039855765,-10.237011257569378,84.44296287248551,1553.0,1435.0,1350.0,1528.0,1471.0,995.0,60.0,293.1,1649253246.311948,1649253247.433768,f5ae4086-ff10-45a8-a579-6e15632d5f47
-0.0858959908815631,0.1469805703557115,-0.4840911653675914,-0.3649113572953223,-0.5638906246968495,0.4627596398112686,-0.6717362674912409,-0.702819797374962,-21.373826376453906,15.288119186828972,33.948810170341105,1.934928195522085,0.4161566196065666,2.425563410072879,7160.7568359375,11.621555555555554,8.174444444444445,-178.21575165643424,-10.16353084924978,74.7142615025926,1647.0,1435.0,1350.0,1528.0,1543.0,995.0,60.0,293.1,1649253249.5746417,1649253250.7104387,9809054c-04c7-4f01-b1da-9c701e8fede0
-0.0842655524636785,0.1366325466911382,-0.4796469048199894,-0.3567986101098131,-0.5548706163364271,0.4684530248041176,-0.6657667569109996,-0.6879354673603683,-21.636301512784627,15.25355127282844,34.42041879309845,1.9293568152468543,0.3743054218323164,2.398035321057004,7155.443901909723,11.612888888888888,8.144444444444446,-178.33287118686223,-10.230148719864548,71.98178057669674,1647.0,1435.0,1350.0,1528.0,1543.0,995.0,60.0,293.1,1649253250.818528,1649253251.8645923,9809054c-04c7-4f01-b1da-9c701e8fede0
-0.088617771191997,0.1467438938172514,-0.4795154179636212,-0.3596387291843623,-0.5607217878867014,0.4592094921692697,-0.6679625901042092,-0.6938918286873289,-21.178714493090247,15.396343004274009,34.13106604465152,1.916129319956172,0.4119153955427262,2.410003858074569,7159.428602430556,11.60688888888889,8.148888888888889,-178.46864624064315,-10.308107929868644,69.76822934427189,1647.0,1435.0,1350.0,1528.0,1543.0,995.0,60.0,293.1,1649253251.972474,1649253253.1747577,9809054c-04c7-4f01-b1da-9c701e8fede0
0.02117384582148,0.2928390511594019,-0.4329032788873093,-0.4875492734849249,-0.5526484860093597,0.4239841379168018,-0.6375890908272508,-0.6589951756066441,-21.111952472133304,14.669496277352584,33.034446734008746,2.122869512669755,0.9877990048141416,2.307579173719581,7148.81298828125,11.599555555555556,8.176666666666668,-179.15107320791637,-10.302139482898912,65.29333528688964,1745.0,1435.0,1350.0,1528.0,1614.0,995.0,60.0,293.1,1649253255.106073,1649253256.2388463,0a8ef7fd-dd83-44bc-b444-7f1c68401105
0.0036203360931889,0.2941539207103799,-0.4308126357411955,-0.4839333811394056,-0.5541211404665306,0.4200658267546832,-0.6366029384785145,-0.6610332247596368,-20.74845727637366,14.870909470212087,33.14132994748531,2.1075472815611622,0.9889012899233284,2.3058442251662923,7148.81298828125,11.586111111111112,8.153333333333332,-179.35908889581884,-10.390661390726954,63.90612538427988,1745.0,1435.0,1350.0,1528.0,1614.0,995.0,60.0,293.1,1649253256.3468978,1649253257.473355,0a8ef7fd-dd83-44bc-b444-7f1c68401105
0.0293260375831729,0.2884210894869808,-0.4198860671930679,-0.4596871793501694,-0.5403807492804391,0.4185931728797317,-0.6303310084928725,-0.6507772379595125,-21.0266936892014,15.167483722181352,35.370186280796844,2.052269872966682,0.9473271682678835,2.265651536172088,7142.85498046875,11.597888888888887,8.162222222222221,-179.58433487426748,-10.48377792886417,62.63062626118528,1745.0,1435.0,1350.0,1528.0,1614.0,995.0,60.0,293.1,1649253257.5877616,1649253258.697766,0a8ef7fd-dd83-44bc-b444-7f1c68401105
0.1207752192847814,0.4773809888131244,-0.3869617245646697,-0.6182605010535916,-0.5645349108705884,0.3674447484965767,-0.6258473010793306,-0.6499883154476771,-20.54790424969729,14.97967338703576,33.8059168982288,2.2954211488819607,1.6881248161336533,2.266966457636572,7142.85498046875,11.581666666666669,8.166666666666666,179.74807120469072,-10.440074773732366,60.389420351720936,1849.0,1435.0,1350.0,1528.0,1686.0,995.0,60.0,293.1,1649253260.633509,1649253261.7679112,9e7c94df-a441-44a5-a1ac-67ea5d82c720
0.1407349398132758,0.4709512769200281,-0.3768766727620892,-0.6029291164585385,-0.5539633560617923,0.361593579114873,-0.6179186343082559,-0.6486208507889912,-20.45767075324203,15.192147408994062,34.15159139518595,2.249700150554016,1.6590624527829043,2.2273517237616565,7148.81298828125,11.563,8.17,179.57951124289366,-10.559275235127428,59.52785118289663,1849.0,1435.0,1350.0,1528.0,1686.0,995.0,60.0,293.1,1649253261.8758872,1649253262.998175,9e7c94df-a441-44a5-a1ac-67ea5d82c720
0.1183164132066012,0.4736862054972054,-0.3879610258232088,-0.6171034160304751,-0.5644954649583362,0.3730986874096233,-0.6253739477652482,-0.6521709999477829,-20.57896536809772,14.98436836331892,34.24431069428222,2.305551816385305,1.6703957694159828,2.267758677604065,7148.81298828125,11.556777777777777,8.18,179.38166342993566,-10.60567109747577,58.91881535716513,1849.0,1435.0,1350.0,1528.0,1686.0,995.0,60.0,293.1,1649253263.1062367,1649253264.2255204,9e7c94df-a441-44a5-a1ac-67ea5d82c720
0.2360629839212579,0.6253169563940901,-0.326674941684494,-0.7285781037435508,-0.5570927466003293,0.324908719154812,-0.5955658434695539,-0.6251372710830786,-19.97857424130044,15.738304503771928,34.2602309393007,2.457076438290533,2.2523356717280434,2.149198648211617,7148.81298828125,11.534333333333333,8.146666666666667,178.94362973808438,-10.641091509874071,58.10606534488844,1962.0,1435.0,1350.0,1528.0,1760.0,995.0,60.0,293.1,1649253265.1349366,1649253266.278948,1bf72461-9572-4678-bc71-3ff7db2a9bcf
0.2370228387249178,0.6253392080315126,-0.3291423453571983,-0.7280283874282721,-0.558296358239428,0.3167241619465153,-0.5976539581101353,-0.626479955564707,-19.904473073135893,15.553847274220258,33.15674207654705,2.4359603687418057,2.261447622640929,2.15575304797898,7148.81298828125,11.497444444444444,8.15,178.75909624054842,-10.672621180902668,57.54960603865797,1962.0,1435.0,1350.0,1528.0,1760.0,995.0,60.0,293.1,1649253266.3942983,1649253267.5068924,1bf72461-9572-4678-bc71-3ff7db2a9bcf
0.2320541489395094,0.6233163318827106,-0.3205956916748279,-0.7300639071307754,-0.5494083429398804,0.3233743675366025,-0.5864017050307117,-0.6108153016415471,-19.885296071135013,15.499900532120432,33.63038499646824,2.4556490038535896,2.250318505241116,2.1164173766492933,7148.81298828125,11.495777777777777,8.14777777777778,178.57613975780083,-10.690707047506168,57.10562932331891,1962.0,1435.0,1350.0,1528.0,1760.0,995.0,60.0,293.1,1649253267.6155765,1649253268.7407217,1bf72461-9572-4678-bc71-3ff7db2a9bcf
-0.2875049692745858,-0.2112819678155774,-0.5067858208306772,-0.0718926291735117,-0.4925983737780343,0.4951054297387602,-0.6556948517960072,-0.6869098687929265,-21.543621144105888,16.457578748536445,26.96762576577441,1.352059178595388,-0.9019656575311084,2.28533089957518,7150.801920572917,11.535333333333332,8.156666666666666,178.7143949291604,-10.787484092719817,56.59422573940336,1459.0,1435.0,1350.0,1528.0,1394.0,995.0,60.0,293.1,1649253269.6418228,1649253270.775409,376cd713-fa68-4674-a15d-0898f8b7a5d0
-0.2982211581662427,-0.2154895510442339,-0.5190535575325506,-0.0615314567282084,-0.5031436308903097,0.5005226919858086,-0.6675418314160687,-0.6919852669282835,-21.50257275418035,16.525822858174426,28.413228187335065,1.340952870816398,-0.932901754844465,2.334905093167085,7166.744140625,11.602888888888888,8.143333333333334,178.56504145930947,-10.77749342323886,56.36053992387026,1459.0,1435.0,1350.0,1528.0,1394.0,995.0,60.0,293.1,1649253270.8833592,1649253272.010894,376cd713-fa68-4674-a15d-0898f8b7a5d0
-0.303375447887624,-0.224338624568963,-0.5261144093388499,-0.0702621912598084,-0.5044059058587843,0.5055191961511664,-0.669172270582214,-0.7018073470665306,-21.76438981511904,16.09970797784771,26.7221231308246,1.3682973666113498,-0.948629769199086,2.3450298187296403,7168.743326822917,11.610333333333331,8.183333333333332,178.48840218336247,-10.8188406374257,56.19060709405007,1459.0,1435.0,1350.0,1528.0,1394.0,995.0,60.0,293.1,1649253272.1182458,1649253273.2371027,376cd713-fa68-4674-a15d-0898f8b7a5d0
-0.4101823262871772,-0.4231863896304235,-0.5305192240563315,0.121971750296255,-0.4588193650105499,0.515643691386241,-0.6646359688307427,-0.6895133110955072,-22.15919819374293,17.583208453472704,25.613673715817075,0.9666553284747744,-1.705733466102213,2.257661422072631,7176.74658203125,11.608666666666668,8.163333333333334,178.49117068670606,-10.813706042717143,55.874598146815664,1364.0,1435.0,1350.0,1528.0,1312.0,995.0,60.0,293.1,1649253274.1469023,1649253275.2843428,53633cd5-c78e-43fb-baa8-ec02c114c841
-0.4092224713190036,-0.4246064491229824,-0.528744149612395,0.1199599999273777,-0.4555453388883672,0.5181287947760392,-0.6591661090562932,-0.6845168048494336,-22.055452251674755,17.350684711460033,25.535988233189425,0.9753645019854988,-1.710749040055974,2.2428634924397217,7172.74169921875,11.590555555555556,8.126666666666665,178.42168034209035,-10.804002146317586,55.705730826506006,1364.0,1435.0,1350.0,1528.0,1312.0,995.0,60.0,293.1,1649253275.39652,1649253276.720073,53633cd5-c78e-43fb-baa8-ec02c114c841
-0.4113131145093617,-0.4107608690716362,-0.5185539074416757,0.1281910833431905,-0.453047086165707,0.5164457617563205,-0.6550111197017311,-0.6828863660619404,-21.754282808195004,17.857195337170353,28.348599861764093,0.9574802682557496,-1.6862382314503168,2.225371702515506,7178.7490234375,11.583888888888888,8.13888888888889,178.4009833510854,-10.811038948709992,55.6023934794583,1364.0,1435.0,1350.0,1528.0,1312.0,995.0,60.0,293.1,1649253276.8288596,1649253277.9484196,53633cd5-c78e-43fb-baa8-ec02c114c841
-0.5348845917082672,-0.6221393669389587,-0.4935187830349246,0.3499964296786115,-0.3756669924461712,0.5055454936024192,-0.627333104259404,-0.6545640637786192,-22.194890189302328,19.678018860505865,26.57597786412209,0.4454600760213829,-2.48589791301253,2.01925642640249,7174.744140625,11.566666666666666,8.143333333333333,178.42184426663042,-10.819092500651344,55.442531763569285,1262.0,1435.0,1350.0,1528.0,1222.0,995.0,60.0,293.1,1649253280.0851676,1649253281.4320197,b92a3b48-3442-4e27-85ed-9a286fb426ac
-0.5233268845462197,-0.615920031528217,-0.4960827793187694,0.3423307402310858,-0.3806766465655994,0.5079911508686287,-0.6306860228411897,-0.652499717299322,-22.20576582924605,19.731466540869068,26.762984184549424,0.4684986883395239,-2.4633699078993536,2.035268148388566,7172.74169921875,11.551,8.133333333333333,178.37987503091043,-10.816507274050494,55.37574731222976,1262.0,1435.0,1350.0,1528.0,1222.0,995.0,60.0,293.1,1649253281.5399468,1649253282.658715,b92a3b48-3442-4e27-85ed-9a286fb426ac
-0.5246286058687205,-0.616222451628568,-0.4878516931898766,0.3655381875175791,-0.3722220331834954,0.5019690485360011,-0.6263075053687621,-0.6488969736503094,-22.09551604571427,19.967150371236905,28.94654211967089,0.4049917035100591,-2.4869688363782108,2.0095256863900777,7172.74169921875,11.54277777777778,8.137777777777778,178.36995607841573,-10.83015645846938,55.36900857170363,1262.0,1435.0,1350.0,1528.0,1222.0,995.0,60.0,293.1,1649253282.7662382,1649253283.89351,b92a3b48-3442-4e27-85ed-9a286fb426ac
-0.6287663121927503,-0.8038018273546106,-0.5033145645065134,0.5427563005091883,-0.3384693243444864,0.4827851024547399,-0.6401004931674018,-0.6693169062706812,-22.808084061920123,21.255480273290573,23.169313556845587,-0.0313868944559318,-3.1570364876489574,1.973950547369993,7172.74169921875,11.549,8.14,178.42167123517146,-10.88106081485236,55.33848293848304,1153.0,1435.0,1350.0,1528.0,1121.0,995.0,60.0,293.1,1649253285.4683225,1649253286.55007,58b7dcd7-1e86-4ac2-88cb-142bda54aae3
-0.6286479738937277,-0.802184536937654,-0.4943602999765618,0.5502510566801829,-0.3305932540160472,0.4765920670559415,-0.6322375698131971,-0.659442232131854,-22.61187739639165,21.30666945697616,23.558145992201563,-0.0612638561479821,-3.1561598240337734,1.940748303107544,7166.744140625,11.5085,8.12,178.43839836844882,-10.863815014084905,55.3238236449769,1153.0,1435.0,1350.0,1528.0,1121.0,995.0,60.0,293.1,1649253286.6584046,1649253287.7794936,58b7dcd7-1e86-4ac2-88cb-142bda54aae3
-0.6161253535492086,-0.7914708730923181,-0.5027557443881104,0.5372050226307057,-0.342101399242803,0.4746222914146756,-0.6395654417412149,-0.6657616994936663,-22.387817184601133,21.13566594354096,23.00330416547175,-0.0377888473278268,-3.1115742452349053,1.9789263398856087,7166.744140625,11.496222222222222,8.098888888888887,178.4789203629747,-10.84972646826128,55.323647008695865,1153.0,1435.0,1350.0,1528.0,1121.0,995.0,60.0,293.1,1649253287.8885014,1649253289.2109358,58b7dcd7-1e86-4ac2-88cb-142bda54aae3
-0.194937125275618,-0.0240546357626407,-0.4990387080733496,-0.2167462638167093,-0.529660006939127,0.490501869302357,-0.6666467083756001,-0.6867237634125979,-21.76617788048776,15.707279036962545,33.424032149830246,1.664797760206914,-0.2370841101743097,2.3714860524088475,7168.743326822917,11.549333333333331,8.139999999999999,178.29754848411454,-10.74806422510752,55.42121474316968,1553.0,1435.0,1350.0,1528.0,1471.0,995.0,60.0,293.1,1649253291.1339085,1649253292.0884278,8bbb5af1-0785-44d5-91a4-04f95ec2c179
-0.1969367387319114,-0.0192189497243304,-0.4860240240636194,-0.2088231620573987,-0.5198556281460387,0.4884916361202478,-0.6584692278919649,-0.6811901833430976,-21.79286449708963,16.067663427196372,34.925487593125666,1.6456709047936358,-0.232210157820438,2.3313543858179275,7178.7490234375,11.612000000000002,8.16,178.25722077052504,-10.732662575415963,55.51354239445776,1553.0,1435.0,1350.0,1528.0,1471.0,995.0,60.0,293.1,1649253292.1967597,1649253293.1277134,8bbb5af1-0785-44d5-91a4-04f95ec2c179
-0.1787915362744471,-0.0237552500481139,-0.4934530397222222,-0.2220244546030607,-0.524799539715008,0.4892148143348986,-0.6603626409890458,-0.6885929019863074,-21.737884879993604,15.667037074906368,32.638335262442126,1.673712238607219,-0.228194593560787,2.347222958400948,7178.7490234375,11.613333333333332,8.17,178.2702413878128,-10.699922775107543,55.594460214737325,1553.0,1435.0,1350.0,1528.0,1471.0,995.0,60.0,293.1,1649253293.2354708,1649253294.3323555,8bbb5af1-0785-44d5-91a4-04f95ec2c179
-0.1589501519340498,-0.0228611386670105,-0.5263247883856856,-0.5096127918215128,-0.5831929163329997,0.7483361465783396,-0.6164591284453987,-0.6364188561697425,-21.764025533795422,14.68649640477976,32.007131243973426,2.8964706075231934,-0.1857540129236776,2.4061358928200263,7172.74169921875,11.612000000000002,8.18,178.33275583255622,-10.6003374786439,55.721147701827576,1553.0,1537.0,1350.0,1528.0,1471.0,995.0,60.0,293.1,1649253294.9666605,1649253295.969699,acda7724-70c9-4d09-aab5-e99bb07f9e8c
-0.1786074544995487,-0.0228611386864245,-0.5284680266397858,-0.4961616719037192,-0.5882551660661146,0.7472973996670648,-0.620127615998503,-0.6475032109819964,-21.3455686221519,14.976475795754654,33.59122496091041,2.8660727172382376,-0.2045426035801554,2.4237012634916097,7178.7490234375,11.603555555555555,8.16777777777778,178.36584734017504,-10.62415966064909,55.79105658525744,1553.0,1537.0,1350.0,1528.0,1471.0,995.0,60.0,293.1,1649253296.0780227,1649253297.2006874,acda7724-70c9-4d09-aab5-e99bb07f9e8c
-0.1660241512040391,-0.0233870865328043,-0.5365676259486927,-0.5132549813041433,-0.5928440626215057,0.7498613951807579,-0.6250583789250994,-0.6540775616973952,-21.708308821171244,14.57441690213414,31.6026693241473,2.90682449123258,-0.1847390611936937,2.444905649340253,7178.7490234375,11.605444444444444,8.153333333333332,178.35647632063376,-10.585001996409927,55.88482218109328,1553.0,1537.0,1350.0,1528.0,1471.0,995.0,60.0,293.1,1649253297.312886,1649253298.6363986,acda7724-70c9-4d09-aab5-e99bb07f9e8c
-0.149575130876505,-0.0128812780104305,-0.5335697226318417,-0.743501880448647,-0.623257007316912,0.9943087865050424,-0.5637196915339738,-0.5858621028850548,-21.556042141103354,14.929635838372269,37.91454153931437,3.979097873263015,-0.173811165238018,2.4030248981747264,7172.74169921875,11.598333333333333,8.163333333333334,178.43558660724045,-10.480893122577225,56.001052269109294,1553.0,1645.0,1350.0,1528.0,1471.0,995.0,60.0,293.1,1649253299.5439005,1649253300.6817677,1299a3ec-d45f-4bf2-891f-c0a098a5d1f6
-0.1570567395545412,-0.0216251612115865,-0.5279157815066939,-0.7437122598121604,-0.6151442588706771,1.0001468072554929,-0.5542394786869178,-0.5797479567844853,-21.56820358002525,14.823136020659682,37.55881713525119,3.99220395177164,-0.2029846656314688,2.3692439256798177,7172.74169921875,11.587666666666667,8.153333333333332,178.4860753655852,-10.520313274780738,56.06464019191724,1553.0,1645.0,1350.0,1528.0,1471.0,995.0,60.0,293.1,1649253300.789355,1649253301.9113705,1299a3ec-d45f-4bf2-891f-c0a098a5d1f6
-0.1510214875195024,-0.0193767340842291,-0.5170023606099557,-0.7175068969651557,-0.6050460567931524,0.9875898031969002,-0.5504263557910037,-0.5692289967561439,-21.50473300389988,15.17925864623647,39.56819180981187,3.90813025960636,-0.2153385118187792,2.338418644825194,7168.743326822917,11.596666666666668,8.139999999999999,178.52115977062186,-10.510223947011768,56.13402694533055,1553.0,1645.0,1350.0,1528.0,1471.0,995.0,60.0,293.1,1649253302.0198517,1649253303.343322,1299a3ec-d45f-4bf2-891f-c0a098a5d1f6
-0.1372285041554244,-0.0104882152021664,-0.549545393160081,-0.9612444005691092,-0.6635314781712996,1.1845835606908883,-0.5246154579294902,-0.5444831431726298,-21.32184497281215,14.524964512036496,36.88668710186948,4.894320421033433,-0.131594337281028,2.421241224690497,7173.4091796875,11.59511111111111,8.158888888888889,178.60891404107818,-10.42085082685841,56.34859506137677,1553.0,1761.0,1350.0,1528.0,1471.0,995.0,60.0,293.1,1649253305.482497,1649253306.620309,301cf84b-f54d-4bdf-8a5c-78cbf976f3ed
-0.1539106608123308,-0.0096289984567062,-0.5360320692697689,-0.9581180436018392,-0.6512096279160603,1.1892538763558969,-0.5117322603391968,-0.5339333340386259,-21.36007008058506,14.681016410401323,38.1787208887731,4.899657024878133,-0.1390780692700129,2.3695582418334604,7172.74169921875,11.583666666666668,8.136666666666667,178.63806984191524,-10.445144481643808,56.39174364309346,1553.0,1761.0,1350.0,1528.0,1471.0,995.0,60.0,293.1,1649253306.728772,1649253307.848833,301cf84b-f54d-4bdf-8a5c-78cbf976f3ed
