raw_voltage_G-,raw_voltage_G0,raw_voltage_G1,raw_voltage_G2,raw_voltage_G3,raw_voltage_G4,raw_voltage_G5,raw_voltage_G6,load_x,load_y,load_z,load_l,load_m,load_n,rpm,voltage,current,roll,pitch,yaw,aileron1_pwm,elevator_pwm,throttle_pwm,rudder_pwm,aileron2_pwm,pbaro,pdiff,Tt,sample_start_time,sample_end_time,uid
-0.0923393580521785,0.0403992628099795,-0.2040653556735563,-0.1040467555492299,-0.3355523354638777,0.2417133830207249,-0.4912506315562081,-0.521846644393284,-18.27655099365078,24.113211706619605,23.48463729221049,0.922098172817642,0.0730176567879192,1.4490554737254726,3147.6421169704863,11.967111111111112,0.2188888888888888,179.69049878126674,-4.830108669907456,101.87848011269573,1553.0,1435.0,1200.0,1528.0,1471.0,999.0,60.0,292.0,1649234027.8240995,1649234028.7988825,38626377-9d41-469b-9723-b46d889ae9e0
-0.1008227962443693,0.0414865588502688,-0.2037619241907364,-0.1039329687516999,-0.3352236180012686,0.2402973696534774,-0.4915540630841165,-0.5239959510897809,-18.311093685402195,24.10783958520672,23.449954480113067,0.9186161064430504,0.0776526908187235,1.448687851850092,3387.080620659722,11.965666666666667,0.2155555555555555,179.6776064197534,-4.706376140838744,101.61464356543648,1553.0,1435.0,1200.0,1528.0,1471.0,999.0,60.0,292.0,1649234028.9081104,1649234030.0312135,38626377-9d41-469b-9723-b46d889ae9e0
-0.1064109924407841,0.0362776522353096,-0.2068973828310228,-0.1034778215919029,-0.3365132018666289,0.2444948378437817,-0.492818361114029,-0.5090898770165542,-18.358607217584044,24.054325445345075,23.364699984211693,0.9264732936734492,0.0589523042901766,1.4557605823952475,3424.920166015625,11.964333333333334,0.2133333333333333,179.66439228043916,-4.6140749565337,101.38994627885111,1553.0,1435.0,1200.0,1528.0,1471.0,999.0,60.0,292.0,1649234030.1405494,1649234031.2605622,38626377-9d41-469b-9723-b46d889ae9e0
-0.0066326127926765,0.2422696739977956,-0.1856571791483843,-0.2453067516762681,-0.3688286571021759,0.1791432918111268,-0.5040958996393413,-0.5208099201581743,-18.003821765376156,23.476680519486106,24.24388075804168,1.097098040638026,0.8400432829367316,1.5122861566509482,3432.3844943576387,11.951,0.21,179.54444808733444,-4.360640550221031,100.7298881811097,1647.0,1435.0,1200.0,1528.0,1543.0,999.0,60.0,292.0,1649234033.39939,1649234034.537407,21652ce6-fdd6-4778-b47c-56cdf265d688
-0.0007662713041616,0.2385905678306115,-0.1875409829323755,-0.2457239699929084,-0.3698527384661704,0.1844406990445238,-0.5048924074227508,-0.519444478052274,-18.07045844392643,23.4999482025046,24.41952102127896,1.1099980626131776,0.8250916807345404,1.5171256263301356,3433.7594401041665,11.949777777777776,0.2011111111111111,179.51302314587312,-4.290834356788077,100.4589171218074,1647.0,1435.0,1200.0,1528.0,1543.0,999.0,60.0,292.0,1649234034.6461544,1649234035.7666528,21652ce6-fdd6-4778-b47c-56cdf265d688
0.0065792985428067,0.2408663036064585,-0.1904867968815944,-0.2442826704039066,-0.3720526168856412,0.1805845911582064,-0.5077244350444198,-0.5350838452452712,-18.02779446479997,23.370581163272785,24.356126941739927,1.0970887535410685,0.8335205707956432,1.5284511333817556,3435.44140625,11.948333333333332,0.21,179.46649893288662,-4.240852787421085,100.2389159697314,1647.0,1435.0,1200.0,1528.0,1543.0,999.0,60.0,292.0,1649234035.8753955,1649234036.9949017,21652ce6-fdd6-4778-b47c-56cdf265d688
0.1456773323361971,0.4437355009358262,-0.1717372600623603,-0.3929514620863584,-0.4086413998865491,0.12317283353589,-0.5217075715136074,-0.5455016611824317,-17.76171013867631,23.022507632082068,25.01150234885328,1.302301829364487,1.6061985769856466,1.5971346390694592,3436.81884765625,11.938125,0.20125,179.31245938408262,-4.156364930426664,99.889473531101,1745.0,1435.0,1200.0,1528.0,1614.0,999.0,60.0,292.0,1649234037.908987,1649234039.0438654,e3d3b26e-f017-4635-8152-8c402e9bdb42
0.1460186927095408,0.4399299651344477,-0.1727486983403595,-0.3887539928779804,-0.4088689735358476,0.1250187081615404,-0.5231741572802273,-0.5485486195648646,-17.822839643104253,23.11528305267909,25.282809373239537,1.297558427436775,1.5893742315917554,1.6007895720855103,3439.5771484375,11.938625,0.20875,179.2705322678625,-4.105903546199462,99.66740359061636,1745.0,1435.0,1200.0,1528.0,1614.0,999.0,60.0,292.0,1649234039.1521225,1649234040.2676942,e3d3b26e-f017-4635-8152-8c402e9bdb42
0.1442486759593463,0.4412448346469731,-0.1726854834326942,-0.3896263584834101,-0.4077816772670178,0.1229073310087699,-0.522137432874225,-0.5476636109185452,-17.81582583046081,22.953636462117323,25.057890287070546,1.2936809742069817,1.5963582747879186,1.5976518612383357,3436.5128580729165,11.935,0.2088888888888889,179.23523479886927,-4.062068601618986,99.49281722010542,1745.0,1435.0,1200.0,1528.0,1614.0,999.0,60.0,292.0,1649234040.3762484,1649234041.503405,e3d3b26e-f017-4635-8152-8c402e9bdb42
0.1674485383400898,0.548406699401777,-0.1581081295996133,-0.4878496698435179,-0.4291735991594884,0.0966605108897293,-0.5276624154681824,-0.5450718000134017,-17.73265540129179,23.250980395954784,23.427181930266883,1.4587474957436517,2.025167249914529,1.6245258150607518,3439.270562065972,11.91111111111111,0.1922222222222222,179.10365803469813,-3.9806469600243855,99.04768620279664,1849.0,1435.0,1200.0,1528.0,1686.0,999.0,60.0,292.0,1649234043.3079607,1649234044.3669555,b4299160-80dd-4034-b03f-9332adc25790
0.1786755016615695,0.5454229570723672,-0.1562622547573019,-0.4871037340065162,-0.4265691452743913,0.1010729098570299,-0.5241729527527924,-0.5361964274092972,-17.72396594065854,23.233079813260773,23.75699228983681,1.467010291733167,2.011016673689512,1.6136181719393186,3436.359700520833,11.914333333333332,0.2,179.08933133345909,-3.95158403078729,98.88542291650442,1849.0,1435.0,1200.0,1528.0,1686.0,999.0,60.0,292.0,1649234044.4758408,1649234045.6027348,b4299160-80dd-4034-b03f-9332adc25790
0.2002949917730485,0.5435517966302339,-0.1574001227924946,-0.4883553890715133,-0.4271507223564153,0.1039049366933933,-0.5238568782380142,-0.5513427187475262,-17.707976750909957,23.18713457026283,23.73242422449912,1.475840558803084,2.0041844545260283,1.615269319652382,3431.3154296875,11.914,0.2,179.05302660129075,-3.934611579882239,98.7107749794272,1849.0,1435.0,1200.0,1528.0,1686.0,999.0,60.0,292.0,1649234045.7151723,1649234046.8223896,b4299160-80dd-4034-b03f-9332adc25790
0.2413882056700569,0.6607000945457338,-0.127169750813156,-0.5710172196537268,-0.4350596649485245,0.0600282433957929,-0.5185407578130143,-0.5436153284943954,-17.367198777629973,23.541848941116985,23.12289518177052,1.5676396996008188,2.458651995826717,1.5899484533262995,3432.231770833333,11.847,0.1833333333333333,178.95303263184178,-3.8818648748343847,98.31988325322736,1962.0,1435.0,1200.0,1528.0,1760.0,999.0,60.0,292.0,1649234048.9651425,1649234050.1092613,55fee133-fbb5-4bd2-add2-5c8936107426
0.2385399959167709,0.6533686856652505,-0.1279166979186619,-0.5631386195707548,-0.4326124896885651,0.0596545169568572,-0.5180537501942704,-0.5368412196731763,-17.400088569635592,23.468563070566912,23.080004483231416,1.548481288094174,2.430749060459878,1.5860686509804114,3427.504150390625,11.855666666666666,0.19,178.94358875694934,-3.8759739315389874,98.11237907060276,1962.0,1435.0,1200.0,1528.0,1760.0,999.0,60.0,292.0,1649234050.2221591,1649234051.2136157,55fee133-fbb5-4bd2-add2-5c8936107426
0.2751793417277741,0.6584764479393292,-0.1275626945518772,-0.5681073111539592,-0.4354318742593846,0.0621198974720401,-0.5201019130818698,-0.546664815487834,-17.452353467411452,23.6822949193102,23.48245362826375,1.566701803325383,2.4473471149221377,1.593360179906063,3426.286376953125,11.862,0.18,178.9286351961265,-3.865701516754765,97.91303165166696,1962.0,1435.0,1200.0,1528.0,1760.0,999.0,60.0,292.0,1649234051.322376,1649234052.5605562,55fee133-fbb5-4bd2-add2-5c8936107426
-0.2650171555102044,-0.209906411691314,-0.2223091736098597,0.0810843631528427,-0.2899870387946179,0.3095429515165663,-0.4763192718119601,-0.500037502918953,-18.77148416291873,25.147437231315656,22.47467985419723,0.6624472793846331,-0.877259188810966,1.3597443442596788,3443.2618815104165,11.962333333333332,0.21,179.30242868210405,-3.8862332076954313,97.65641233763068,1459.0,1435.0,1200.0,1528.0,1394.0,999.0,60.0,292.0,1649234053.6730623,1649234054.8132124,8f9d9480-e0ee-46aa-a842-2981ddf675fb
-0.2582784478623077,-0.211828144418893,-0.2260135663264768,0.0827026642236883,-0.2915926971246846,0.3121853335618728,-0.4780134311808885,-0.4935516540059726,-18.784608380963,24.99783015875935,22.775384795415786,0.6635996842513185,-0.8874757287443432,1.3696509267543482,3459.0142415364585,11.962,0.21,179.28635952371673,-3.887154998642168,97.63183276353752,1459.0,1435.0,1200.0,1528.0,1394.0,999.0,60.0,292.0,1649234054.9217212,1649234056.0491812,8f9d9480-e0ee-46aa-a842-2981ddf675fb
-0.2306156105110023,-0.2124729363166526,-0.2219172412790951,0.0842830363877844,-0.2880526630171697,0.3104658888054813,-0.4748653290903233,-0.5039568272353403,-18.78019568361497,25.079345597141504,22.674965199387973,0.6569014889949787,-0.8889688160583794,1.3545271382077724,3468.4970974392363,11.962777777777776,0.21,179.27029643660865,-3.892057082327729,97.61216181872788,1459.0,1435.0,1200.0,1528.0,1394.0,999.0,60.0,292.0,1649234056.1615925,1649234057.2722237,8f9d9480-e0ee-46aa-a842-2981ddf675fb
-0.403040559858768,-0.4431693779092563,-0.2443711712648442,0.2647236001778651,-0.2523741767744497,0.3688385102350445,-0.4697322791258073,-0.4861428675999975,-19.162262110789182,26.22345836226288,22.38168944568953,0.3872701932501555,-1.772537418009167,1.3017479924633857,3472.5563151041665,11.936333333333332,0.2,179.3394983954594,-3.8937521076067534,97.54508025415949,1364.0,1435.0,1200.0,1528.0,1312.0,999.0,60.0,292.0,1649234058.3594294,1649234059.522847,79ade137-8bdc-4b82-89c8-84ef6dcc1631
-0.372697408835613,-0.4445601057082642,-0.245332037660648,0.2657097523772701,-0.2527913950886935,0.3681557895402333,-0.4699851387305909,-0.5010995133147529,-19.113988461231788,26.17796520171441,22.21572979721736,0.3831599313461014,-1.7768073674413931,1.3036447709333414,3470.5254720052085,11.936555555555554,0.2,179.32386636917897,-3.8925622317350936,97.44371872905668,1364.0,1435.0,1200.0,1528.0,1312.0,999.0,60.0,292.0,1649234059.630515,1649234060.7594311,79ade137-8bdc-4b82-89c8-84ef6dcc1631
-0.3754409354438885,-0.4392374111345677,-0.2420575061615715,0.2633834447056258,-0.2515270971948643,0.3655766223827227,-0.4683794802232721,-0.5001260038146362,-19.09467744268884,26.23816336810865,22.30386240270648,0.3831976587728634,-1.7572667952956,1.2959098398152231,3469.589165581597,11.933,0.2022222222222222,179.2957821491317,-3.8674061707032448,97.3401464993925,1364.0,1435.0,1200.0,1528.0,1312.0,999.0,60.0,292.0,1649234060.8949528,1649234061.9778063,79ade137-8bdc-4b82-89c8-84ef6dcc1631
-0.5080278665694118,-0.681413710760292,-0.2591634563617244,0.4389690989425543,-0.2110569227499877,0.4351256342110021,-0.4565582938075471,-0.4888990372621097,-19.592716279686023,27.66722329572756,21.40873262218236,0.1516336173290393,-2.676795194104864,1.2173133308892794,3465.380560980903,11.905333333333331,0.19,179.37062129077745,-3.877006143877305,97.1665640718258,1262.0,1435.0,1200.0,1528.0,1222.0,999.0,60.0,292.0,1649234062.8909657,1649234064.0289872,32626a08-4c3a-4c4b-97f9-49f0641d1a7c
-0.5388640962965536,-0.6784299670299808,-0.2621724853113586,0.4358462838424329,-0.2146981005628573,0.4312948124498854,-0.4603132589027516,-0.476862920122739,-19.57913446860343,27.625983856593,20.845686467924885,0.149563428251691,-2.6605171762802424,1.2312866033251533,3462.1148817274307,11.901000000000002,0.2,179.36307317283465,-3.860263500378704,97.02195530671828,1262.0,1435.0,1200.0,1528.0,1222.0,999.0,60.0,292.0,1649234064.1380875,1649234065.2653763,32626a08-4c3a-4c4b-97f9-49f0641d1a7c
-0.5100886724381594,-0.6845618132701063,-0.262893135115575,0.4339624803948108,-0.2147992443965315,0.4395380328585731,-0.4583915259538782,-0.4884944618756286,-19.56113093682994,27.6536909724266,20.92097127977457,0.172505297829251,-2.6841232787071543,1.2290194816282614,3460.8721516927085,11.906333333333333,0.1933333333333333,179.33922974135206,-3.8477499297730713,96.89600510060345,1262.0,1435.0,1200.0,1528.0,1222.0,999.0,60.0,292.0,1649234065.3776853,1649234066.416846,32626a08-4c3a-4c4b-97f9-49f0641d1a7c
-0.5715082728846808,-0.7408610132035703,-0.2696697717675387,0.4685915918697799,-0.2152796776171142,0.4545958173737324,-0.4639038653079189,-0.4814396788995964,-19.56594894257942,28.62567203843852,19.6945111481984,0.1341353774354577,-2.889052025510153,1.2381188674500658,3454.827392578125,11.854,0.18,179.36170409936105,-3.834782531042587,96.62175934504909,1153.0,1435.0,1200.0,1528.0,1121.0,999.0,60.0,292.0,1649234068.4214337,1649234069.5593634,11d792b6-c5ec-4dc1-b7d7-8eb0f05b088c
-0.554667822337343,-0.7434148956857967,-0.2717052914096736,0.4690088100822047,-0.2160129703962092,0.4576048456812298,-0.4657750264581979,-0.4870152335119835,-19.705800556966587,28.62965750334913,19.80674395195249,0.1398284814033008,-2.898815860719552,1.2443099061778549,3450.654541015625,11.862222222222222,0.1877777777777777,179.3610150091648,-3.834195324501443,96.42267830349093,1153.0,1435.0,1200.0,1528.0,1121.0,999.0,60.0,292.0,1649234069.6680908,1649234070.7881382,11d792b6-c5ec-4dc1-b7d7-8eb0f05b088c
-0.5488394081615845,-0.7399760044695687,-0.2711742862535263,0.4717017639502906,-0.2158106827011949,0.4509293542681947,-0.4667485358668651,-0.4942343750176369,-19.65584447927839,28.597652437329444,19.687780077951626,0.1185735748729547,-2.885515571004292,1.2450166356814998,3443.722900390625,11.864333333333333,0.1877777777777777,179.34413533499597,-3.8315072656080886,96.28350788678254,1153.0,1435.0,1200.0,1528.0,1121.0,999.0,60.0,292.0,1649234070.895355,1649234072.015838,11d792b6-c5ec-4dc1-b7d7-8eb0f05b088c
-0.1167782342907703,0.0452794520060809,-0.2138383780117777,-0.1083706539910595,-0.3436311992022534,0.2423076029188987,-0.5012638720151862,-0.5187111851138364,-18.5047280294328,23.92586468342896,23.6100708753521,0.9313636788070924,0.0917342293482308,1.4882844293573092,3437.894287109375,11.958888888888888,0.2,179.0624765474624,-3.7599834693263534,96.0430465235928,1553.0,1435.0,1200.0,1528.0,1471.0,999.0,60.0,292.0,1649234073.9489105,1649234075.0941494,552ee32c-2b2c-405e-8ffb-cf43a5fffbbd
-0.1195596894342514,0.0446220171956017,-0.2117775725177963,-0.1075488604163816,-0.3417853242185612,0.2416501681365971,-0.4993674249554779,-0.5208731348568354,-18.483004650953408,23.95540535476716,23.54741610867956,0.9283319606030808,0.0896999686666779,1.4801033941325974,3449.884033203125,11.962333333333332,0.2011111111111111,179.02567397039456,-3.742753890258173,96.19145211496893,1553.0,1435.0,1200.0,1528.0,1471.0,999.0,60.0,292.0,1649234075.2061777,1649234076.3237588,552ee32c-2b2c-405e-8ffb-cf43a5fffbbd
-0.1178528874203203,0.0467333943872218,-0.2067077381561458,-0.1089648739693329,-0.3384475776982409,0.2422064591017956,-0.4951320265220559,-0.5142608561367215,-18.45676324158213,24.057351796971645,23.76955309893737,0.9337530786933846,0.0959618630429797,1.463149091777472,3458.5450846354165,11.964666666666666,0.2066666666666666,178.99231987994767,-3.738660994261782,96.28944787463074,1553.0,1435.0,1200.0,1528.0,1471.0,999.0,60.0,292.0,1649234076.456462,1649234077.5483494,552ee32c-2b2c-405e-8ffb-cf43a5fffbbd
-0.0802020993681282,0.0394636824971578,-0.2302995360596935,-0.3203175455531987,-0.3799039071627691,0.4526867279843922,-0.457329515593944,-0.4843475645889821,-18.44304053034257,23.406135637659496,25.07300704188284,1.8782131731814893,0.0815618173887985,1.497332086605648,3469.510986328125,11.9555,0.205,178.9981870124447,-3.675907492897428,96.47169553552445,1553.0,1537.0,1200.0,1528.0,1471.0,999.0,60.0,292.0,1649234078.4560874,1649234079.5938475,cc8c0680-c077-4ec0-b3e1-ad2cd60ca7ef
-0.0834892736070296,0.0441036551290187,-0.2231309672166451,-0.3168786552316726,-0.3748214293982333,0.442913707483239,-0.4524998971871839,-0.4836016284591423,-18.270372833990205,23.46190889513485,24.824914429633644,1.8492686408230048,0.0999732688059046,1.474101209392271,3440.957763671875,11.955,0.2,178.984137313322,-3.670392968916289,96.54781116363507,1553.0,1537.0,1200.0,1528.0,1471.0,999.0,60.0,292.0,1649234079.7026951,1649234080.8234632,cc8c0680-c077-4ec0-b3e1-ad2cd60ca7ef
-0.1027571718004306,0.0447231610136491,-0.2203495119580711,-0.3158292879384644,-0.3720399739284676,0.4404230411989684,-0.4492000794158359,-0.4702885704146112,-18.17793475560655,23.398991386232066,24.71824622010234,1.8410556031848644,0.1026339990023133,1.4618472811999796,3400.027587890625,11.950333333333331,0.2066666666666666,178.9831218918654,-3.675587185484476,96.61287326893893,1553.0,1537.0,1200.0,1528.0,1471.0,999.0,60.0,292.0,1649234080.9313743,1649234082.256056,cc8c0680-c077-4ec0-b3e1-ad2cd60ca7ef
-0.1110636082592741,0.0331169079275961,-0.2454458244562628,-0.513122987728188,-0.4157341115624131,0.6450875364335521,-0.4184397092270495,-0.4359502364892355,-18.22666286605145,23.159842907529743,26.393536079873385,2.743417850151807,0.0672963763321474,1.511065775219696,3371.7752278645835,11.956111111111111,0.2,179.01353748314938,-3.6036164861307975,96.70040138424272,1553.0,1645.0,1200.0,1528.0,1471.0,999.0,60.0,292.0,1649234083.3719635,1649234084.5134895,9e88e559-e244-4f47-b88b-96c2487eb31c
-0.0750311214610376,0.033774342744103,-0.2471273406246429,-0.5140712112760715,-0.4173018410615989,0.6456185414224183,-0.420664873684464,-0.4507804519857343,-18.305043530887563,23.17172387472663,26.421687119855903,2.7467101139669348,0.0700777626806355,1.518712581646053,3362.9555392795137,11.95588888888889,0.2,179.01935528650242,-3.596759071067844,96.73896311447676,1553.0,1645.0,1200.0,1528.0,1471.0,999.0,60.0,292.0,1649234084.621996,1649234085.7438838,9e88e559-e244-4f47-b88b-96c2487eb31c
-0.1063351345374076,0.0339639874002008,-0.2461791172242413,-0.5187491141212267,-0.4172891980836886,0.6498160094300054,-0.4171627682686659,-0.4372903922869375,-18.144755678533883,23.11170605517413,26.449430109961742,2.7664290447941253,0.0700437264174547,1.5125743620238543,3372.80712890625,11.951333333333332,0.2,179.00659042185353,-3.62361499542938,96.77238550681538,1553.0,1645.0,1200.0,1528.0,1471.0,999.0,60.0,292.0,1649234085.852027,1649234086.9645538,9e88e559-e244-4f47-b88b-96c2487eb31c
-0.0775597170218141,0.0331421938799924,-0.2387197598352846,-0.6600470715451603,-0.4288575246668689,0.7907219763273775,-0.3754409353916128,-0.3960869211583274,-18.200211665119514,23.36179290752013,28.05495378984252,3.404054437022144,0.0709982167289844,1.459544592404943,3396.5673014322915,11.946222222222223,0.2044444444444444,179.02364464530118,-3.5739723267680805,96.79464205768082,1553.0,1761.0,1200.0,1528.0,1471.0,999.0,60.0,292.0,1649234088.9121585,1649234090.0501812,2cb96f56-6d37-449b-a9e0-d6d70b88fdb5
-0.0614652063876166,0.0366063696386707,-0.2398702708909988,-0.6624239520851517,-0.4316263372569914,0.7889772456422857,-0.3767684482557436,-0.4014096154982457,-18.072092998413613,23.363839152633258,27.968109340831475,3.4055023795746675,0.0840736330642923,1.4671387790453172,3398.662353515625,11.945666666666666,0.2033333333333333,179.0177737182546,-3.568545528029094,96.78461837561888,1553.0,1761.0,1200.0,1528.0,1471.0,999.0,60.0,292.0,1649234090.158414,1649234091.2709618,2cb96f56-6d37-449b-a9e0-d6d70b88fdb5
-0.0715416596102462,0.0296021602471165,-0.2488973576498349,-0.6668742817538214,-0.4384914753528143,0.8001536364157789,-0.3818762120097182,-0.4050002217617977,-18.13774236618576,23.27516263376249,27.945746756327296,3.439582128378433,0.0584405962073846,1.4951390383865233,3405.4180501302085,11.940666666666669,0.1933333333333333,179.0098415918985,-3.578209320783212,96.77290687792204,1553.0,1761.0,1200.0,1528.0,1471.0,999.0,60.0,292.0,1649234091.379311,1649234092.4976015,2cb96f56-6d37-449b-a9e0-d6d70b88fdb5
-0.0925922175924731,0.037364948271865,-0.2119040024368805,-0.6741945684342183,-0.4120929335220583,0.7980296164789726,-0.3511917010086737,-0.3723054765870774,-17.993955804528984,24.002641137374592,28.017819403828103,3.4580703775438195,0.0891581100342801,1.365847797219396,3425.0694715711807,11.88922222222222,0.1844444444444444,179.01692222133804,-3.581255395425561,96.7271795203387,1553.0,1887.0,1200.0,1528.0,1471.0,999.0,60.0,292.0,1649234094.431634,1649234095.5758364,1b75f40d-b26b-4154-9680-a683e1b7d0f0
-0.0951334561412975,0.0304239537652921,-0.2165313324990023,-0.6722096202879376,-0.4150261047737139,0.8047051077982642,-0.3530249329647952,-0.3735697744958831,-17.9467263851024,23.97618787651607,28.23488296651142,3.46824614442918,0.0603288671614841,1.3782881521846402,3425.829833984375,11.89477777777778,0.18,179.01632420033073,-3.583612522167253,96.62906385291149,1553.0,1887.0,1200.0,1528.0,1471.0,999.0,60.0,292.0,1649234095.6921456,1649234096.7975314,1b75f40d-b26b-4154-9680-a683e1b7d0f0
-0.085878796415204,0.0300699504057182,-0.2233332549276648,-0.6834871603491142,-0.422434890912641,0.8159826424083375,-0.3572350450995806,-0.3820532140295855,-18.012370023575286,23.957147123636563,28.270641269065774,3.5185353808317097,0.06010580196852,1.4035158838330224,3423.2460123697915,11.894,0.18,179.03163293099044,-3.572516856144633,96.54566268968614,1553.0,1887.0,1200.0,1528.0,1471.0,999.0,60.0,292.0,1649234096.9057648,1649234098.02369,1b75f40d-b26b-4154-9680-a683e1b7d0f0
-0.1184344644023638,0.0590097252101358,-0.1835710877271651,0.0930446194483675,-0.3007209279442862,0.0350892123513603,-0.5355516353291082,-0.5578159246028378,-18.58169013610296,24.907465731030147,22.404892927749533,0.019156184919394,0.1315941832892004,1.4386708158663422,3444.1842447916665,11.962666666666667,0.2033333333333333,179.03580997112286,-3.798715005652296,96.42400715473944,1553.0,1335.0,1200.0,1528.0,1471.0,999.0,60.0,292.0,1649234099.786753,1649234101.1033452,a6332090-a253-4869-9dfa-e058e0067944
-0.1232135100754554,0.0546605410699345,-0.1879202722776269,0.0954214991347118,-0.3036540990796559,0.0376051648286294,-0.5396226751324866,-0.5623294686992307,-18.66319507638263,24.935130860708163,22.43556764209217,0.0193789051862728,0.1150192105026409,1.45386011183441,3453.435302734375,11.96922222222222,0.2,179.0212555969115,-3.8206543796081536,96.59869227840214,1553.0,1335.0,1200.0,1528.0,1471.0,999.0,60.0,292.0,1649234101.2121594,1649234102.3275986,a6332090-a253-4869-9dfa-e058e0067944
-0.1099763121880806,0.0582637895590262,-0.1863651859432775,0.0963570794438182,-0.3031863088612276,0.033395053414403,-0.5393824585074746,-0.559750300856488,-18.60226297657967,24.9529509170705,22.467788099907256,0.0080391547547625,0.1278004480019308,1.4512861319127568,3458.081461588541,11.964666666666666,0.2,179.01667633452792,-3.8089129049699486,96.7206536540417,1553.0,1335.0,1200.0,1528.0,1471.0,999.0,60.0,292.0,1649234102.4358728,1649234103.5559015,a6332090-a253-4869-9dfa-e058e0067944
-0.1147806437963229,0.0682517414845823,-0.1629503902176192,0.3028927459787421,-0.2647516529840416,-0.1756565833195272,-0.5792837062310593,-0.6085016357815929,-18.6300646240469,25.807306716629743,21.1043847579283,-0.921023448890709,0.1536118242715447,1.4245570932285907,3464.602294921875,11.95111111111111,0.1955555555555556,179.0092966945847,-3.874556098103779,96.99396139695004,1553.0,1236.0,1200.0,1528.0,1471.0,999.0,60.0,292.0,1649234105.4909165,1649234106.628381,bcdaa936-2a54-46fe-b54f-6889a766dbe6
-0.1282201293844834,0.063219836591131,-0.1642652599561032,0.3036007526497324,-0.2644229355427535,-0.1731279876630942,-0.5794480649985342,-0.5960230133430393,-18.700613977270635,25.782193875343715,20.850769051585555,-0.9172463347655678,0.1373152897314202,1.4251363064266391,3461.803955078125,11.950555555555557,0.19,179.00658738621394,-3.876022691500562,97.07826035059624,1553.0,1236.0,1200.0,1528.0,1471.0,999.0,60.0,292.0,1649234106.7376175,1649234107.8589373,bcdaa936-2a54-46fe-b54f-6889a766dbe6
-0.0881292464292639,0.068175883620671,-0.160813726904566,0.3029559608372228,-0.2625391317066636,-0.1765795207568081,-0.577336687147199,-0.6047593134346531,-18.649282110736337,25.804779978823817,20.98681739841773,-0.9231787827703188,0.1546329514550429,1.4156720664921676,3463.20263671875,11.948666666666666,0.1955555555555555,179.01431764253456,-3.889252056444838,97.1325163377232,1553.0,1236.0,1200.0,1528.0,1471.0,999.0,60.0,292.0,1649234107.966809,1649234109.0874116,bcdaa936-2a54-46fe-b54f-6889a766dbe6
-0.0939197302715961,0.0684287431607601,-0.1256283189131812,0.4261364781902559,-0.2211965915486436,-0.2979015436831308,-0.578917059800196,-0.6088303533041872,-18.468722261290143,26.56790510844165,20.01988905330801,-1.4669230328619716,0.1499505828790082,1.3132105182204354,3467.4052734375,11.955333333333334,0.1933333333333333,178.99640888653082,-3.931357421629552,97.2417993644434,1553.0,1133.0,1200.0,1528.0,1471.0,999.0,60.0,292.0,1649234110.011214,1649234111.1343577,4ca52508-ac79-4b1d-9ef0-bfdf96f8ea73
-0.0933381533031545,0.0687448175903596,-0.128700562532157,0.4267939129522637,-0.2246354816650104,-0.2993428432522629,-0.5834432470049863,-0.6069212633874279,-18.51256424889975,26.644918582769865,19.915199830955395,-1.471326039792337,0.1520998128527366,1.3283606303405322,3461.9593641493057,11.950555555555557,0.19,178.99207399313752,-3.9476594704948176,97.2845973297827,1553.0,1133.0,1200.0,1528.0,1471.0,999.0,60.0,292.0,1649234111.243168,1649234112.3627062,4ca52508-ac79-4b1d-9ef0-bfdf96f8ea73
-0.1096223088276671,0.070679193084476,-0.1222905727046613,0.4198529190576809,-0.2193760026142343,-0.295752237260702,-0.5746563751975526,-0.5893980912100167,-18.41046418802014,26.557783347540884,19.84551789457726,-1.4478184554674205,0.1605093134898701,1.3001309578717637,3457.614501953125,11.94188888888889,0.19,179.0008135996355,-3.946602261561413,97.33246253657624,1553.0,1133.0,1200.0,1528.0,1471.0,999.0,60.0,292.0,1649234112.4712868,1649234113.5882912,4ca52508-ac79-4b1d-9ef0-bfdf96f8ea73
-0.0935277979751195,0.0688459613990509,-0.0973459773425781,0.4781623247225736,-0.1936601845268691,-0.3486251761740749,-0.5694095381270162,-0.6005618435646404,-18.44522280399644,27.25195981089416,19.814930325847435,-1.69234126068965,0.1485646810845236,1.223569566240181,3457.614501953125,11.931,0.18,179.00472350348042,-3.966261822722432,97.35547420279993,1553.0,1026.0,1200.0,1528.0,1471.0,999.0,60.0,292.0,1649234114.297117,1649234115.4373176,8611463f-948d-428a-92f0-45dcab8e91cf
-0.1228595066877108,0.0685931018642899,-0.0998619299069638,0.4679973719797298,-0.1966439273931323,-0.3393452293239693,-0.5690302486479284,-0.5922301189327374,-18.466001966154547,27.19005547278547,19.76094868244349,-1.649113051742641,0.1493327872562089,1.2303380404687907,3454.054009331597,11.928777777777777,0.19,179.008273684029,-3.970034221578394,97.3624174695462,1553.0,1026.0,1200.0,1528.0,1471.0,999.0,60.0,292.0,1649234115.5455463,1649234116.6641102,8611463f-948d-428a-92f0-45dcab8e91cf
-0.0794688066476196,0.0757743128408916,-0.0942990196427112,0.4613218806271428,-0.1942417614848065,-0.3404451685036863,-0.563909841357294,-0.5888165139965036,-18.34351360072187,27.211664394117275,19.77121215752134,-1.6360429514361376,0.1764837082861963,1.2130946376825658,3450.654541015625,11.932555555555556,0.19,179.00753905923827,-3.980250239870095,97.37110167562088,1553.0,1026.0,1200.0,1528.0,1471.0,999.0,60.0,292.0,1649234116.772269,1649234117.8932812,8611463f-948d-428a-92f0-45dcab8e91cf
-0.1076879331837683,0.0467081084326924,-0.2073904589925574,-0.1130232698454796,-0.3390165117632123,0.2478578696062912,-0.4938550855042654,-0.5088496603339988,-18.45599807990518,23.99469691040124,24.041034327527186,0.9552016185575636,0.09391081038566,1.4634070384289226,3456.22021484375,11.965444444444444,0.1911111111111111,179.04795101182754,-3.829568819976144,97.35548027407918,1553.0,1435.0,1200.0,1528.0,1471.0,999.0,60.0,292.0,1649234119.8286407,1649234120.962034,af12bbbf-f91f-4078-b857-b60914da108d
-0.1043628300320365,0.0445714452870828,-0.2129154405769417,-0.1125049077609651,-0.3435806272837119,0.2499692466807221,-0.4984697733441445,-0.5185215405491278,-18.459840598385725,23.958710753292085,24.072819180696147,0.958266335579668,0.0852278264182374,1.4835279395959544,3466.3546142578125,11.96475,0.1925,179.04825912925008,-3.806968897951335,97.35742422180796,1553.0,1435.0,1200.0,1528.0,1471.0,999.0,60.0,292.0,1649234121.071541,1649234122.1945202,af12bbbf-f91f-4078-b857-b60914da108d
-0.1027192428908083,0.0468218952267826,-0.2090340461922026,-0.1146415710577447,-0.3409888165320623,0.2481865869872016,-0.495599816799908,-0.5247924589159756,-18.45975060026915,24.012106559639147,23.87863317645738,0.9595965758452988,0.0958988448757855,1.4705786615308625,3474.432861328125,11.967625,0.2,179.06288085671576,-3.8033223773473415,97.37879929881552,1553.0,1435.0,1200.0,1528.0,1471.0,999.0,60.0,292.0,1649234122.3028762,1649234123.4184673,af12bbbf-f91f-4078-b857-b60914da108d
-0.0723128812718236,0.064749636822117,-0.0928830060951907,-0.1272719060229518,-0.2363555228116908,0.2360493295448216,-0.3739996357187886,-0.3909159424160945,-17.52960137073404,23.854548252919543,23.909289634889543,0.9660256525508324,0.1651994498993909,0.99942182497798,3458.0799153645835,11.962,0.1966666666666666,179.05405112966622,-3.8036310343074127,97.37563236777036,1553.0,1435.0,1200.0,1435.0,1471.0,999.0,60.0,292.0,1649234124.334937,1649234125.4714377,d5e595c6-5e26-44a0-aeb0-26e2349ef1ba
-0.0470142829463988,0.064724350863419,-0.0950323123238284,-0.1264121835207522,-0.237645106625287,0.2361378303697432,-0.3759592975435204,-0.401346400623879,-17.56965440552667,23.801863740831628,24.01585408388871,0.9638257546044736,0.1642006214013581,1.007046557552068,3454.827392578125,11.964,0.1922222222222222,179.03720332971355,-3.8131311159648615,97.4016956107332,1553.0,1435.0,1200.0,1435.0,1471.0,999.0,60.0,292.0,1649234125.5805137,1649234126.6996586,d5e595c6-5e26-44a0-aeb0-26e2349ef1ba
-0.0813020384234963,0.0654829294982577,-0.0948805965991595,-0.1258685354698505,-0.2380749679103897,0.2325219390883058,-0.3771603806081834,-0.4009418252578042,-17.56685407866897,23.851963076661683,23.67420307849837,0.9547606447328152,0.1699975096184255,1.0087314081638488,3447.7246365017363,11.965,0.2011111111111111,179.04786601391783,-3.808192177716904,97.41307470589044,1553.0,1435.0,1200.0,1435.0,1471.0,999.0,60.0,292.0,1649234126.8079655,1649234127.9381618,d5e595c6-5e26-44a0-aeb0-26e2349ef1ba
-0.0179986495459849,0.0808947185591584,0.033938701434091,-0.1246674525717226,-0.1210262748990121,0.2110288789185285,-0.2472158414686985,-0.2718317213548649,-16.6588667378133,23.94283300586704,23.91291384494604,0.9112653583087292,0.2272790088644907,0.4915083599862435,3438.0443250868057,11.963111111111113,0.1911111111111111,179.03823544718813,-3.799252456162611,97.3977136104471,1553.0,1435.0,1200.0,1330.0,1471.0,999.0,60.0,292.0,1649234128.8406756,1649234129.9737294,73ced595-9629-42bc-acbd-6aa29cc76f39
-0.0343586624105209,0.0885310766878921,0.0342927047998518,-0.1283592021388651,-0.1224170024703689,0.2073750586775416,-0.2487329989018312,-0.2692904824001864,-16.677595801334018,23.936216971183324,23.969561921441507,0.9113557897092937,0.2560273470606661,0.4960412898718698,3433.607476128472,11.962555555555555,0.2,179.03163748444987,-3.797675963124808,97.39327246966678,1553.0,1435.0,1200.0,1330.0,1471.0,999.0,60.0,292.0,1649234130.0858376,1649234131.201712,73ced595-9629-42bc-acbd-6aa29cc76f39
-0.0310462023045626,0.0859013374635828,0.0332812666153359,-0.12864999063229,-0.1230997232870269,0.2078554917832469,-0.2480249921122267,-0.2686962624859772,-16.557863494916482,23.87963464896661,23.63257410191234,0.9126724331110568,0.2482742277136032,0.4966527452052588,3432.9954969618057,11.960555555555556,0.19,179.0206454333456,-3.803782009947192,97.39819627714844,1553.0,1435.0,1200.0,1330.0,1471.0,999.0,60.0,292.0,1649234131.3098133,1649234132.4348066,73ced595-9629-42bc-acbd-6aa29cc76f39
0.0259862687456177,0.1054853088269937,0.1436038841333599,-0.1229480075498347,-0.0243201382654573,0.1794340802705033,-0.1408883933603583,-0.1720912634905333,-15.769034992502144,24.04346924869132,23.897412181023164,0.8429621517774858,0.3200902478818787,0.0624674138886499,3437.27916124132,11.960444444444445,0.19,179.00610168387294,-3.808708568477278,97.39443132509594,1553.0,1435.0,1200.0,1210.0,1471.0,999.0,60.0,292.0,1649234133.3442652,1649234134.4828265,4447c564-edaf-431a-8bc8-6d6fa351dfd4
0.0211313654274998,0.1015407000133761,0.1450072545631487,-0.1214308501938936,-0.0222214039969943,0.1828982558878193,-0.1386253002839123,-0.1691454495619513,-15.791528466378498,24.08112783213333,24.05272039369282,0.8476572378075263,0.3039810873599761,0.0541976182683144,3435.135525173612,11.958888888888888,0.19,178.99951889933288,-3.80707710190303,97.40505151034542,1553.0,1435.0,1200.0,1210.0,1471.0,999.0,60.0,292.0,1649234134.5911458,1649234135.7118368,4447c564-edaf-431a-8bc8-6d6fa351dfd4
0.0239507494042935,0.101603914899533,0.1441096031983364,-0.1239215168536476,-0.0233845579370352,0.1829993996998229,-0.1394344509029675,-0.1596000010150466,-15.800226213591303,24.07949753508748,23.743545038481955,0.8533936881806699,0.3072696759240336,0.0577018642696773,3434.06494140625,11.95111111111111,0.1822222222222222,178.9924974648661,-3.8069622693476095,97.37489470733998,1553.0,1435.0,1200.0,1210.0,1471.0,999.0,60.0,292.0,1649234135.820306,1649234136.9471176,4447c564-edaf-431a-8bc8-6d6fa351dfd4
0.0258977679073263,0.1176604956122577,0.23785727518286,-0.1120371175686089,0.0602360939761436,0.1512023132003788,-0.0516289697903616,-0.0770413549313249,-15.133918345597843,24.362000748121385,23.70764694182962,0.762003532265886,0.3675784862020657,-0.3066507381999646,3433.6066080729165,11.957,0.1933333333333333,178.9916869490846,-3.817321437020664,97.34749426511962,1553.0,1435.0,1200.0,1071.0,1471.0,999.0,60.0,292.0,1649234137.8501327,1649234138.9070568,2e50edd1-381d-4c24-88bc-fb646c32e115
0.0484781252184732,0.1182420725505824,0.2436098294942321,-0.1107475338391647,0.0663552948949277,0.1515310305919323,-0.046015487738724,-0.0613134906738021,-15.195904710924433,24.3497557289954,24.04823066066984,0.760061572936604,0.3673855909069748,-0.3302953597821731,3433.1484375,11.949666666666667,0.19,179.0009077044641,-3.8170374149876793,97.34631719585266,1553.0,1435.0,1200.0,1071.0,1471.0,999.0,60.0,292.0,1649234139.0145006,1649234140.2167318,2e50edd1-381d-4c24-88bc-fb646c32e115
0.0527008795778717,0.1209097406785978,0.2464039272948653,-0.110557889150823,0.0673414471071647,0.1475737788563494,-0.0452948380256669,-0.0709347968207258,-15.157453711928484,24.465228589173023,23.894110900573672,0.7516407065826793,0.3786405210677458,-0.3363866731420465,3446.1510009765625,11.94875,0.19,178.99780793694578,-3.819631321620598,97.35049328734767,1553.0,1435.0,1200.0,1071.0,1471.0,999.0,60.0,292.0,1649234140.3254154,1649234141.44094,2e50edd1-381d-4c24-88bc-fb646c32e115
-0.1294338552417212,0.0268712771629314,-0.3455908610194784,-0.0893176863617154,-0.4659393850896607,0.2527759874605327,-0.6434594795121787,-0.667468501786597,-19.45690463118037,24.47787495277056,23.971776175730604,0.9085860148609072,0.0155369973088616,2.03447936969983,3460.8721516927085,11.961,0.1966666666666666,179.0435781729389,-3.795719540814422,97.41317336417846,1553.0,1435.0,1200.0,1613.0,1471.0,999.0,60.0,292.0,1649234143.3796833,1649234144.5175047,679763ce-2664-4392-8e0f-bdf4365e5c7e
-0.1292947824846601,0.0272126375497589,-0.346298867832189,-0.0879269587986633,-0.4659140990997789,0.2524472700731792,-0.6432192628320643,-0.6701867429104726,-19.407472128177183,24.382719375596047,24.153617844669743,0.9040980201947252,0.0146380511136454,2.0354515963843087,3463.0472276475693,11.961333333333334,0.1811111111111111,179.0504690749015,-3.7983341751741984,97.37663336993872,1553.0,1435.0,1200.0,1613.0,1471.0,999.0,60.0,292.0,1649234144.6261818,1649234145.748369,679763ce-2664-4392-8e0f-bdf4365e5c7e
-0.138713801129396,0.0260115547079912,-0.3494848986351748,-0.0878005290052354,-0.4684553381273174,0.2525104849570536,-0.6464937950850064,-0.666090416736092,-19.45774589232898,24.374824600561244,23.98744564377392,0.9036921040179332,0.0117441881049434,2.047507491387251,3465.5362141927085,11.964,0.19,179.04515822336688,-3.794855521884415,97.37180518510542,1553.0,1435.0,1200.0,1613.0,1471.0,999.0,60.0,292.0,1649234145.8571942,1649234146.9715188,679763ce-2664-4392-8e0f-bdf4365e5c7e
-0.1845951689752606,0.01279964342817,-0.4609959798365811,-0.0423490242437976,-0.5705600493414597,0.2284761865928397,-0.777715307649237,-0.8073378168651733,-20.297612028917204,25.0469175300658,23.74230799126321,0.745597401704607,-0.0423453598429842,2.523002109219654,3465.6918674045137,11.943,0.19,179.05541564968044,-3.797904584734528,97.35134345617188,1553.0,1435.0,1200.0,1694.0,1471.0,999.0,60.0,292.0,1649234147.885753,1649234149.0063822,d468fd9c-9785-4c83-af1d-e5d4bc2419c6
-0.2032688480109649,0.0123824251755785,-0.4581513093120936,-0.0420455927803898,-0.5666660111996451,0.2282106840855371,-0.7733155496354851,-0.7905100065618575,-20.26280557574461,24.913083893803496,23.71550392957757,0.7435840092953099,-0.0437782614495491,2.5075500125932555,3461.027669270833,11.94477777777778,0.19,179.05008961994764,-3.798396690377852,97.2971049239728,1553.0,1435.0,1200.0,1694.0,1471.0,999.0,60.0,292.0,1649234149.1147213,1649234150.258373,d468fd9c-9785-4c83-af1d-e5d4bc2419c6
-0.1985783030256317,0.0143547296416533,-0.4541308416262862,-0.0424754540119273,-0.5638845553700549,0.2257326606798237,-0.7709639548222059,-0.7961867057283656,-20.28469850808513,25.0035998791099,23.605311804171187,0.7397568696986235,-0.0349400013072751,2.4949600632413222,3459.009765625,11.947,0.1833333333333333,179.045832135365,-3.812941009032963,97.23902403091066,1553.0,1435.0,1200.0,1694.0,1471.0,999.0,60.0,292.0,1649234150.3715007,1649234151.48125,d468fd9c-9785-4c83-af1d-e5d4bc2419c6
-0.2190852140913301,0.0046322800617453,-0.5192548333121624,0.0021542564640608,-0.622231913535971,0.195718234226061,-0.8534973490442451,-0.8843841583901999,-20.83107303256321,25.572253544952883,23.254313879519128,0.5718327051078886,-0.0740408505390214,2.7788167810098985,3460.40625,11.92,0.18,179.05675588457757,-3.814129177357329,97.17511622757657,1553.0,1435.0,1200.0,1774.0,1471.0,999.0,60.0,292.0,1649234153.28673,1649234154.3483598,e4d86739-577e-4464-bd59-bbff417cdbcf
-0.2135475895233497,0.0099423305451353,-0.5185594694475386,-0.0009938448744684,-0.6226238460449429,0.1944033646574886,-0.8524353385260329,-0.8734732636432928,-20.73878236967173,25.483579355951345,23.402181235754632,0.5754961831999014,-0.0556585108529386,2.7778150753632285,3459.165473090278,11.920666666666667,0.18,179.0574358678549,-3.828252870196055,97.10074305661422,1553.0,1435.0,1200.0,1774.0,1471.0,999.0,60.0,292.0,1649234154.4565194,1649234155.5776432,e4d86739-577e-4464-bd59-bbff417cdbcf
-0.1921556700454947,0.012167494563671,-0.5103162460877552,-0.0010823457265173,-0.6156449202604856,0.1936447860555673,-0.84522883784023,-0.876406435539642,-20.746950143469142,25.55997673672136,23.6511582690888,0.5749436739201614,-0.0489268921608403,2.747395146278506,3457.3048231336807,11.923555555555556,0.1788888888888888,179.05054951935176,-3.8238921738659553,97.04847920799516,1553.0,1435.0,1200.0,1774.0,1471.0,999.0,60.0,292.0,1649234155.685871,1649234156.8062308,e4d86739-577e-4464-bd59-bbff417cdbcf
-0.2263802127322752,0.0055172884786098,-0.5646810632258493,0.0344064915895599,-0.6641307546298983,0.1679036855014926,-0.9143986025613268,-0.9447670510270616,-21.27177686176693,25.993485846940764,23.2334234038472,0.4368818673686594,-0.0742607631645734,2.98439521381884,3464.602294921875,11.886,0.165,179.0478698084674,-3.8289479130919073,96.90518715157764,1553.0,1435.0,1200.0,1856.0,1471.0,999.0,60.0,292.0,1649234158.9447868,1649234160.0807104,dd88c795-1745-49f2-b9b4-b5831ed43897
-0.2348762943088649,0.0058839348175556,-0.5625443994341439,0.0363661530240676,-0.6620320196353192,0.1654762339482246,-0.911680360942448,-0.9363973952666492,-21.15057087232844,25.93867835750596,23.21465680906812,0.426807630160267,-0.0736839074908637,2.9748962904433416,3461.803955078125,11.883,0.17,179.0571930166845,-3.842134660501674,96.80498827645356,1553.0,1435.0,1200.0,1856.0,1471.0,999.0,60.0,292.0,1649234160.1889808,1649234161.3192947,dd88c795-1745-49f2-b9b4-b5831ed43897
-0.2415012150955861,0.003658770804273,-0.5668430129716084,0.0408164810454344,-0.6658502001657538,0.1642372222464145,-0.9177869223506844,-0.941328159180751,-21.232576759370968,26.05472980857305,23.27009432427619,0.4145073899716162,-0.082759020872675,2.9943937032747123,3459.009765625,11.880666666666666,0.1666666666666666,179.0554308278786,-3.859289249784592,96.70778330091566,1553.0,1435.0,1200.0,1856.0,1471.0,999.0,60.0,292.0,1649234161.4510946,1649234162.5445397,dd88c795-1745-49f2-b9b4-b5831ed43897
-0.0894592877208447,0.0473003054788888,-0.2512145629491132,-0.0983083609044524,-0.3442547511195496,0.2414802465264279,-0.506996199538159,-0.5292963944430484,-18.79026626301429,20.200782243707245,24.97070559086552,0.880324484928704,0.0856038473759877,1.551824162029024,7178.7490234375,11.627,8.08,179.82934590235442,-4.042216087613912,84.78108911061727,1553.0,1435.0,1350.0,1528.0,1471.0,999.0,60.0,292.0,1649234165.787324,1649234166.8459814,83f2885c-b528-413b-b1df-f1cfb259b042
-0.0897222616434875,0.0482126227095599,-0.2484927824686812,-0.1030100314874695,-0.3433404108361883,0.2416628111020434,-0.5039315410703483,-0.5272831263490617,-18.68928284794557,20.24656894278837,24.52971829967332,0.891760137437651,0.092971514288429,1.5420043109654895,7178.7490234375,11.631714285714285,8.104285714285714,-179.90939376794432,-4.057802091429226,79.38407365544174,1553.0,1435.0,1350.0,1528.0,1471.0,999.0,60.0,292.0,1649234166.9548843,1649234168.0667725,83f2885c-b528-413b-b1df-f1cfb259b042
-0.0841214224720704,0.051069935545809,-0.2461917604231109,-0.0956644613951913,-0.3407612431297601,0.2401835828496876,-0.5035396087109862,-0.5304565143373792,-18.7465214731876,20.29614985045436,25.68837756825741,0.8724654454758584,0.093066444194748,1.536780768064236,7184.7666015625,11.640222222222222,8.091111111111111,-179.73995542213692,-4.019228991098497,74.58589416842148,1553.0,1435.0,1350.0,1528.0,1471.0,999.0,60.0,292.0,1649234168.176408,1649234169.31277,83f2885c-b528-413b-b1df-f1cfb259b042
-0.0137506090947325,0.2423581748269046,-0.2484042815573394,-0.2231056815360455,-0.3898160032686464,0.1732390216621655,-0.5387882384949106,-0.5604709506260102,-18.651629115770696,19.691532712473496,25.995899518748345,1.005486785601717,0.8226566857008926,1.6795742922547658,7196.83154296875,11.622333333333334,8.094444444444443,-179.86839485274925,-3.938523618161233,65.88197920339913,1647.0,1435.0,1350.0,1528.0,1543.0,999.0,60.0,292.0,1649234171.285612,1649234172.372618,5ac3e04e-8853-4cc5-8e91-da795f5bc590
0.0074137350546095,0.2434581137848719,-0.2478606334860273,-0.22037479798479,-0.3889309946871934,0.1710770726479388,-0.538510092957337,-0.5655281431559822,-18.626700323789944,19.653450641601125,26.20262199986681,0.994288513950612,0.8244710978795131,1.6777134705229906,7196.83154296875,11.615888888888891,8.1,-179.948616183461,-3.902374699683333,63.25166880056778,1647.0,1435.0,1350.0,1528.0,1543.0,999.0,60.0,292.0,1649234172.4816215,1649234173.8073766,5ac3e04e-8853-4cc5-8e91-da795f5bc590
0.0265678457050378,0.2468717174412544,-0.2449527484942633,-0.2230677526394165,-0.3874896951350977,0.1719620810177,-0.5362469994423816,-0.5675636631183563,-18.62783612197565,19.70369970016118,26.470541551394664,1.0028719283819505,0.8354244186709106,1.6693103319176426,7196.83154296875,11.617444444444445,8.09,179.93883231692988,-3.855603698681201,60.95803511794432,1647.0,1435.0,1350.0,1528.0,1543.0,999.0,60.0,292.0,1649234173.917483,1649234175.0389993,5ac3e04e-8853-4cc5-8e91-da795f5bc590
0.1051439484402702,0.4577186324708093,-0.2501869416540789,-0.3786901816364313,-0.4474047764664798,0.1125274468744608,-0.5769321119990342,-0.5977424588432831,-18.645432293017727,19.252736299240443,26.847076230688472,1.217161487324404,1.6418368518588171,1.8408303852758128,7196.83154296875,11.59325,8.087499999999999,179.57603467660613,-3.81731674126561,58.41383879153109,1745.0,1435.0,1350.0,1528.0,1614.0,999.0,60.0,292.0,1649234175.944648,1649234177.0904665,4eac3c70-eff8-4217-968d-b179eaf4e70e
0.1176857815404538,0.4530533743006454,-0.2499340821671835,-0.3724698354711716,-0.445470400596431,0.1160169085599313,-0.5770585418194835,-0.6091084990115575,-18.78304431574257,19.33696631715785,27.507389730261256,1.211578145779349,1.6187125401241873,1.838321582091554,7196.83154296875,11.59311111111111,8.09,179.4478934975875,-3.784394233396896,56.81529278044485,1745.0,1435.0,1350.0,1528.0,1614.0,999.0,60.0,292.0,1649234177.2000926,1649234178.315915,4eac3c70-eff8-4217-968d-b179eaf4e70e
0.1089874134348437,0.4588565003144419,-0.2479112054700823,-0.376856949341222,-0.445773832032575,0.1119079410702481,-0.5754781690573906,-0.5904727446006883,-18.627537316233017,19.31246326162932,27.170830989257336,1.2122039221256933,1.6430280339220409,1.834035181072984,7196.83154296875,11.595333333333333,8.093333333333334,179.31653985292928,-3.763826399371871,55.82598313703325,1745.0,1435.0,1350.0,1528.0,1614.0,999.0,60.0,292.0,1649234178.4246817,1649234179.540343,4eac3c70-eff8-4217-968d-b179eaf4e70e
0.1866405769658013,0.595438569946952,-0.2529936829078332,-0.499114565570336,-0.4915414203190525,0.0894287279305927,-0.60491102927039,-0.6280982572357586,-18.909184789433382,19.474528317828657,26.862489237618583,1.4381037074267051,2.1747531688942843,1.9599625007813548,7196.83154296875,11.570375,8.091249999999999,178.99148147422704,-3.726779168722506,53.776326467747325,1849.0,1435.0,1350.0,1528.0,1686.0,999.0,60.0,292.0,1649234181.3530934,1649234182.6112566,20c7022a-243c-4cd8-ae1f-40c9eb6c8c9e
0.1770192717114185,0.5883332174668061,-0.2574945833282933,-0.5002145049865835,-0.4958653196056813,0.0982155969985511,-0.6066936895814103,-0.629590128773801,-18.814668549096137,19.54956121096573,26.95226627524007,1.4606653446700066,2.1464904882496496,1.973817691515829,7196.83154296875,11.57288888888889,8.105555555555556,178.88033361613594,-3.739873115680113,53.1175456153807,1849.0,1435.0,1350.0,1528.0,1686.0,999.0,60.0,292.0,1649234182.7204878,1649234183.846614,20c7022a-243c-4cd8-ae1f-40c9eb6c8c9e
0.1848326313075605,0.5893825844703916,-0.2528546101523665,-0.4901001208839467,-0.4902518363327202,0.089871232118829,-0.6049236722302342,-0.618401090471334,-18.8697955067491,19.578741774201127,27.26067258669949,1.41954476353886,2.1471323774896343,1.9579271120465047,7196.83154296875,11.574333333333334,8.100000000000001,178.78705903501043,-3.716329975361641,52.54320866845266,1849.0,1435.0,1350.0,1528.0,1686.0,999.0,60.0,292.0,1649234183.9602864,1649234185.072345,20c7022a-243c-4cd8-ae1f-40c9eb6c8c9e
0.2865074485806306,0.704269306754241,-0.2195782904568244,-0.5921036894019852,-0.4983939157123163,0.0651415690661604,-0.5910796077240479,-0.614886341368397,-18.405273547426123,20.00175369977784,26.56923218855839,1.5986537129106595,2.5955434209628576,1.9161295858969,7196.83154296875,11.507333333333332,8.07,178.52633250055328,-3.647312336754738,51.35108111109698,1962.0,1435.0,1350.0,1528.0,1760.0,999.0,60.0,292.0,1649234187.003698,1649234188.1375332,463b21dd-3a51-4f86-9d23-f1939220ca1d
0.2591986194984665,0.714560689166459,-0.2210069470732802,-0.5955046514292092,-0.5021109520923678,0.0552674039081946,-0.5969712371453576,-0.6210561164111018,-18.48985688583292,20.04148730117981,26.12588254852267,1.5842158941619977,2.638999254731037,1.9320428392346445,7196.83154296875,11.509555555555556,8.05888888888889,178.46929738534402,-3.633847140556621,51.04791026331753,1962.0,1435.0,1350.0,1528.0,1760.0,999.0,60.0,292.0,1649234188.2456553,1649234189.3272178,463b21dd-3a51-4f86-9d23-f1939220ca1d
0.2554689414472731,0.7146618329708334,-0.2320821962536986,-0.5954161503488294,-0.5124781959859932,0.0590223680410867,-0.6070729791656484,-0.6245961513609598,-18.47215414605373,19.98977644525273,26.604059396728807,1.5916450274685998,2.634301355410298,1.9763639559204929,7196.83154296875,11.49977777777778,8.054444444444446,178.4011108479499,-3.630182412043824,50.798460371180056,1962.0,1435.0,1350.0,1528.0,1760.0,999.0,60.0,292.0,1649234189.4360476,1649234190.5997431,463b21dd-3a51-4f86-9d23-f1939220ca1d
-0.2368485989680239,-0.2140533086316378,-0.2603898255482028,0.0745479439261928,-0.2915547683730741,0.3328186709109406,-0.4748274003355092,-0.5030971043342647,-19.013471247919213,21.335370718843144,24.255463596745926,0.7024907344080091,-0.9085568772235656,1.4150115289178389,7208.9375,11.629,8.11,178.77145888294615,-3.6879798522554257,50.487511835210725,1459.0,1435.0,1350.0,1528.0,1394.0,999.0,60.0,292.0,1649234191.2829473,1649234192.4428146,3ad26889-07ce-42d1-9f48-dcd730be46d3
-0.266673385747219,-0.2056710139192914,-0.2665975279618764,0.0636749835980019,-0.2993934152439553,0.3314658724366068,-0.4814017499208617,-0.5046269048678407,-19.0422272913105,21.22078398202329,23.760018790586606,0.7228153869320505,-0.8715803170432982,1.4437573649463216,7215.00537109375,11.624,8.1,178.7331642889996,-3.696554585575946,50.30585043222075,1459.0,1435.0,1350.0,1528.0,1394.0,999.0,60.0,292.0,1649234192.5522947,1649234193.6751645,3ad26889-07ce-42d1-9f48-dcd730be46d3
-0.2343958611294345,-0.2060250173136088,-0.2653711590975794,0.0696298258152334,-0.2970671071637539,0.3315923022118205,-0.4811109614366546,-0.5123391229876945,-19.13304585120233,21.24557733181121,24.513773001110128,0.7099666865437138,-0.8796007609226162,1.4395019474115929,7221.0830078125,11.62977777777778,8.11,178.72467360495136,-3.664911931834831,50.14514670578907,1459.0,1435.0,1350.0,1528.0,1394.0,999.0,60.0,292.0,1649234193.7851455,1649234194.8994057,3ad26889-07ce-42d1-9f48-dcd730be46d3
-0.3945950494619944,-0.45348604963838,-0.276787768910087,0.2425857482920662,-0.2507558755821237,0.404188271646008,-0.4588340302651452,-0.477849072501874,-19.33669915837581,22.53643813192309,23.03404210048668,0.4906037460727328,-1.8151702975345787,1.3290833086904084,7215.00537109375,11.608666666666668,8.09,178.70998718041605,-3.65773264410724,49.980146031459526,1364.0,1435.0,1350.0,1528.0,1312.0,999.0,60.0,292.0,1649234196.8334625,1649234197.9717762,34a6551f-c504-4ef1-8504-06d74c7a8f96
-0.3833680835739803,-0.4484794295488697,-0.2746258195787777,0.2471877917535418,-0.2496053645548059,0.3923670889359938,-0.458657028595498,-0.4851693581769057,-19.153323143172432,22.4870350690188,22.662213750496747,0.453472074587724,-1.7948252051072369,1.324587520277291,7215.00537109375,11.605,8.094444444444443,178.72693667429635,-3.651827186659856,49.951446714932,1364.0,1435.0,1350.0,1528.0,1312.0,999.0,60.0,292.0,1649234198.0801427,1649234199.1966572,34a6551f-c504-4ef1-8504-06d74c7a8f96
-0.3964914964147969,-0.4503253046246234,-0.2749166081267884,0.249046309283929,-0.2479744203327058,0.3978162116461718,-0.4568617254800363,-0.4832476251893073,-19.204143854595056,22.37672401859632,23.42995496350706,0.4608756766148835,-1.8084422619568488,1.3210918724075855,7221.0830078125,11.598,8.096666666666668,178.73295482986506,-3.671920939151864,49.882234131342535,1364.0,1435.0,1350.0,1528.0,1312.0,999.0,60.0,292.0,1649234199.305308,1649234200.4366603,34a6551f-c504-4ef1-8504-06d74c7a8f96
-0.509519738276531,-0.6954853497611014,-0.290897333461249,0.43147181405638,-0.2050515081308198,0.456264690213886,-0.4459129047089947,-0.4778490725949245,-19.701098743812167,23.796322707991703,21.438303061079765,0.1887572903912736,-2.7302217037488554,1.2370199356940903,7221.0830078125,11.564444444444444,8.072222222222223,178.84013112268127,-3.687603338077429,49.86863598361495,1262.0,1435.0,1350.0,1528.0,1222.0,999.0,60.0,292.0,1649234201.3399246,1649234202.4832797,15d2db35-3e40-47a4-b391-30182618dc7f
-0.5255510376284389,-0.6954600637924545,-0.2892916750869906,0.435466994515524,-0.204356144302798,0.4554555397506351,-0.4445095339355577,-0.4598201827421725,-19.553575144981785,23.86577654354211,21.859493543521587,0.1786086417250419,-2.735292926535503,1.2325928383674651,7221.0830078125,11.569888888888888,8.087777777777779,178.86882247065478,-3.695380314789265,49.87496946625033,1262.0,1435.0,1350.0,1528.0,1222.0,999.0,60.0,292.0,1649234202.5916154,1649234203.7082522,15d2db35-3e40-47a4-b391-30182618dc7f
-0.5093427365662663,-0.6920717445907403,-0.2924018479607134,0.4291328634639384,-0.2079214642455402,0.4531418751131342,-0.448226570083871,-0.4770525647559292,-19.62876006824592,23.803050791399627,21.148678349924108,0.1869759394785841,-2.71517095697235,1.2463057802296786,7221.0830078125,11.57,8.087777777777777,178.88817770894278,-3.719330230818307,49.90124975744681,1262.0,1435.0,1350.0,1528.0,1222.0,999.0,60.0,292.0,1649234203.8173494,1649234204.9344113,15d2db35-3e40-47a4-b391-30182618dc7f
-0.5460579523705037,-0.758384187078872,-0.2913651237246432,0.4665307867496296,-0.2009172542185349,0.4724097706344758,-0.4456474022139526,-0.4730068111252313,-19.62616006054068,25.03013657184629,19.546777614340154,0.1538449993942147,-2.954221681802343,1.221223394040438,7215.00537109375,11.51511111111111,8.074444444444445,178.93895029959302,-3.724115347514332,49.96665451057399,1153.0,1435.0,1350.0,1528.0,1121.0,999.0,60.0,292.0,1649234206.8686726,1649234208.0069935,92491584-267d-4c6c-b304-869131a83a09
-0.5780446941081315,-0.7637448116851832,-0.2918329139907143,0.4758486600603926,-0.1983001577467089,0.4720557672978781,-0.4457232600843211,-0.4687334839180889,-19.70308068305743,24.97769655924716,19.968220691876084,0.1316882039022237,-2.9786958718155847,1.2183996711737757,7211.634331597223,11.516333333333334,8.074444444444444,178.96620123656152,-3.723799119242136,50.04168186187686,1153.0,1435.0,1350.0,1528.0,1121.0,999.0,60.0,292.0,1649234208.116287,1649234209.2361631,92491584-267d-4c6c-b304-869131a83a09
-0.5496900278967747,-0.7582547229279974,-0.2933429913279888,0.4757636992788238,-0.1983042034343416,0.4665333153593557,-0.4477350110352697,-0.4744531680429983,-19.801434913171263,24.75311785687971,19.926446728057456,0.1178500485871797,-2.957127411448299,1.223955915544467,7208.9375,11.515,8.076666666666666,178.9676674505034,-3.736794502775468,50.08609364913505,1153.0,1435.0,1350.0,1528.0,1121.0,999.0,60.0,292.0,1649234209.344847,1649234210.4645932,92491584-267d-4c6c-b304-869131a83a09
-0.1224675743801678,0.0440783691666218,-0.2600358220805331,-0.0904681974897107,-0.3493078970912963,0.2361757592938508,-0.5169538109845081,-0.533250612929085,-18.972700276501843,20.085012526199048,24.72437753072236,0.8493813160281285,0.0754675736697991,1.584159991930051,7208.9375,11.613777777777775,8.09222222222222,178.76571697058387,-3.67897941790851,50.23199180217588,1553.0,1435.0,1350.0,1528.0,1471.0,999.0,60.0,292.0,1649234212.3988717,1649234213.5495346,15d2c851-e43c-4325-bc67-cce0e736ca43
-0.1214814221131498,0.0433956484066283,-0.2621092705965154,-0.0896337610266096,-0.3507871256942829,0.2386411397134117,-0.5188249720726086,-0.5483969038513293,-19.026159241354623,20.08636797810485,25.073857536896096,0.8529736116049781,0.0699537330822726,1.5920449044520617,7215.00537109375,11.626555555555557,8.10222222222222,178.79000208763284,-3.684006152546425,50.294845859103006,1553.0,1435.0,1350.0,1528.0,1471.0,999.0,60.0,292.0,1649234213.6579869,1649234214.769697,15d2c851-e43c-4325-bc67-cce0e736ca43
-0.1081051514504809,0.0457219562057281,-0.265396445046957,-0.0893682584902955,-0.3544662326288768,0.2397663646143901,-0.5231362284588051,-0.5434914277598972,-19.08068657518536,20.132421460890047,25.562791112017784,0.8550953394546265,0.0744910294961098,1.6085914478537997,7221.0830078125,11.626666666666669,8.105555555555556,178.78875595756423,-3.6906161629794414,50.37116487506891,1553.0,1435.0,1350.0,1528.0,1471.0,999.0,60.0,292.0,1649234214.87823,1649234216.1963203,15d2c851-e43c-4325-bc67-cce0e736ca43
-0.1001906473007576,0.0488068426364585,-0.3048931112397743,-0.4063909496834333,-0.4255703500618081,0.5458401752724013,-0.4775962130141715,-0.4994179973355779,-19.068071779038,19.420445035209625,28.03379199208088,2.2517233737420645,0.1005878524688801,1.6958165973748205,7227.17236328125,11.623333333333331,8.098888888888888,178.81286804315425,-3.628662742385365,50.43167997166027,1553.0,1537.0,1350.0,1528.0,1471.0,999.0,60.0,292.0,1649234216.803737,1649234217.8383672,404d6e61-3b85-4f48-9a3e-bf1b61f37cc4
-0.08623279977013,0.0490470592083237,-0.3090147223039223,-0.4051519377087202,-0.429666675442272,0.5444873768481094,-0.4830200514220649,-0.5128321991910224,-19.12114620933449,19.472562636124994,28.000058775938875,2.245996719171888,0.1017504819007326,1.7146703864429602,7233.2705078125,11.626333333333331,8.096666666666668,178.8446056554975,-3.621074022762526,50.5191173972301,1553.0,1537.0,1350.0,1528.0,1471.0,999.0,60.0,292.0,1649234217.9473946,1649234219.2687027,404d6e61-3b85-4f48-9a3e-bf1b61f37cc4
-0.0823008336678882,0.0418532051759267,-0.3082687866553618,-0.4052025095928276,-0.4272392234067462,0.5484952002290296,-0.4799730932855083,-0.5060555618029655,-19.13814232629234,19.43899811609,27.576504186683017,2.254855478115932,0.0786963490202809,1.704542700260356,7229.205078125,11.623,8.086666666666666,178.84425503912013,-3.623968742310143,50.561380331084415,1553.0,1537.0,1350.0,1528.0,1471.0,999.0,60.0,292.0,1649234219.3796923,1649234220.497348,404d6e61-3b85-4f48-9a3e-bf1b61f37cc4
-0.1036295372658411,0.0535985309849452,-0.3458057919028322,-0.7176484980283461,-0.5015040888995352,0.8455545632864939,-0.4404637803672649,-0.4577720202488533,-19.141401974331817,19.188596181789823,30.550006993891376,3.624132446918336,0.132502348662374,1.80358434230104,7233.2705078125,11.5995,8.075,178.87915047558974,-3.5667359903597653,50.71686702621882,1553.0,1645.0,1350.0,1528.0,1471.0,999.0,60.0,292.0,1649234222.4497616,1649234223.5703237,8178b1e5-b5c8-4639-b19d-901c52714b63
-0.0653845294834728,0.0540157492305311,-0.340685385238009,-0.728761679465183,-0.4970158308197451,0.8535449241565214,-0.4317780531332458,-0.4524113963945269,-19.12320601671124,19.070293454509805,30.343851999823865,3.666603485338094,0.1374564013890169,1.7778484268321069,7227.849934895833,11.61377777777778,8.081111111111111,178.906305031,-3.5527398536753845,50.75589159663289,1553.0,1645.0,1350.0,1528.0,1471.0,999.0,60.0,292.0,1649234223.6793644,1649234224.8010738,8178b1e5-b5c8-4639-b19d-901c52714b63
-0.0871430941588646,0.0552547609943478,-0.3424680452965453,-0.7309615584397808,-0.4993800681239085,0.8526599158329943,-0.4334216404897159,-0.4530941175144786,-19.07155476894336,19.050805837926244,30.089568984801907,3.669344656865523,0.1441490884772458,1.7856547906639586,7233.2705078125,11.611666666666668,8.08,178.92297221039462,-3.55216538259113,50.80517710331885,1553.0,1645.0,1350.0,1528.0,1471.0,999.0,60.0,292.0,1649234224.9096224,1649234226.0368843,8178b1e5-b5c8-4639-b19d-901c52714b63
-0.054119636370751,0.0580109300079615,-0.3808521308071136,-1.0130644560008673,-0.5693336803510269,1.124155189022893,-0.4026106986956382,-0.4308551155779127,-19.282581272675834,18.9410858162798,32.1121294136739,4.913363371645888,0.1703517873639499,1.8899977475859409,7233.2705078125,11.596333333333334,8.076666666666666,178.95614719810328,-3.5115392751122863,50.87569880649923,1553.0,1761.0,1350.0,1528.0,1471.0,999.0,60.0,292.0,1649234226.9401302,1649234228.074834,0f00df32-4985-4996-87e0-c794eb9a377b
-0.0786975850112372,0.0653312137680166,-0.377438526389475,-1.0082601215085525,-0.5694853961721772,1.1142810242641086,-0.4022314093505353,-0.4240658355784971,-18.986640026847905,19.06900902630677,32.368319744844264,4.88154520409763,0.1930691517346785,1.8864549148149503,7233.2705078125,11.591111111111111,8.08,178.98087855417802,-3.4991658893961817,50.901744594534215,1553.0,1761.0,1350.0,1528.0,1471.0,999.0,60.0,292.0,1649234228.1838064,1649234229.303361,0f00df32-4985-4996-87e0-c794eb9a377b
-0.0730082450535433,0.0612728181091904,-0.3758202250031501,-1.0025075631399911,-0.5645419906189943,1.1106398469907224,-0.4015486884363509,-0.4165811913027056,-19.229641522701915,18.99578608635433,32.04967151788417,4.859808692046892,0.1817848633797291,1.875513908414423,7233.2705078125,11.59511111111111,8.080000000000002,179.0024589163156,-3.5130571423597146,50.92128007392531,1553.0,1761.0,1350.0,1528.0,1471.0,999.0,60.0,292.0,1649234229.411754,1649234230.5358906,0f00df32-4985-4996-87e0-c794eb9a377b
