raw_voltage_G-,raw_voltage_G0,raw_voltage_G1,raw_voltage_G2,raw_voltage_G3,raw_voltage_G4,raw_voltage_G5,raw_voltage_G6,load_x,load_y,load_z,load_l,load_m,load_n,rpm,voltage,current,roll,pitch,yaw,aileron1_pwm,elevator_pwm,throttle_pwm,rudder_pwm,aileron2_pwm,pbaro,pdiff,Tt,sample_start_time,sample_end_time,uid
0.0659380766172335,0.2335586631304483,0.0234197440881971,-0.2959545269682382,-0.1749485768542324,0.249349740057091,-0.2229539662788335,-0.2497697234733307,-13.23043752668851,21.286509522596496,28.2667322799647,1.3680460688646587,0.7573854675855268,0.5713461970610356,3171.7540147569443,11.958444444444444,0.17,179.40110973741255,-10.530604662312657,111.07709353674358,1553.0,1435.0,1200.0,1528.0,1471.0,995.0,60.0,293.1,1649247142.2406766,1649247143.3297012,62401dba-2e77-452a-a425-5d2380114ef3
0.0451044731568769,0.2100154178585685,0.0295627139346484,-0.2656386858815616,-0.16214528560274,0.2522490276184101,-0.2167781240695737,-0.2399066830497035,-13.368845607094777,21.532178141729933,29.4125596817276,1.3082234713209635,0.6565692316521071,0.5355765705082136,3406.5357259114585,11.955666666666666,0.16,179.50932421898264,-10.54587411938465,110.25704129333424,1553.0,1435.0,1200.0,1528.0,1471.0,995.0,60.0,293.1,1649247143.4373283,1649247144.590388,62401dba-2e77-452a-a425-5d2380114ef3
0.0401843321726912,0.1921402717769668,0.0257713380108326,-0.2894433936477555,-0.1673880756682253,0.2840547101116473,-0.2122832923527985,-0.231133972976831,-13.405208364730893,21.76903748746632,28.32871660474921,1.4345829842528015,0.6020845393575892,0.5374628978578102,3453.7446560329863,11.959222222222223,0.1577777777777777,179.56312486016492,-10.63678640369472,109.47616246154466,1553.0,1435.0,1200.0,1528.0,1471.0,995.0,60.0,293.1,1649247144.698603,1649247145.7800264,62401dba-2e77-452a-a425-5d2380114ef3
0.1375661039961007,0.3452891969076884,0.0565175413347947,-0.3300804555090746,-0.1684961064345566,0.1766703248181342,-0.220407164447589,-0.244916336823568,-13.14709614217482,21.29340877437195,29.16663748651358,1.2835846397288997,1.174177166969406,0.5283605297758264,3457.7718641493057,11.950888888888889,0.1577777777777777,179.472914757247,-10.7525279434576,108.5375677316303,1647.0,1435.0,1200.0,1528.0,1543.0,995.0,60.0,293.1,1649247146.6872647,1649247147.836918,6b68a3f1-1bf3-42bb-82bc-4033f18c8ffe
0.1486504547007324,0.3579645392190034,0.0693243713351342,-0.371735532500746,-0.1645646460772212,0.1973400744296562,-0.2007235647466282,-0.2256797924300078,-12.861634840119068,21.235321162178643,28.542348557797062,1.4242927786343265,1.231169570448638,0.4780348155030418,3466.314751519097,11.955777777777776,0.1522222222222222,179.42412595709573,-10.798749730845843,108.08479373264024,1647.0,1435.0,1200.0,1528.0,1543.0,995.0,60.0,293.1,1649247147.9697006,1649247149.0541966,6b68a3f1-1bf3-42bb-82bc-4033f18c8ffe
0.137355724896533,0.3552427592845978,0.0563071621611052,-0.3319344215848459,-0.1699556118456784,0.1685575797951655,-0.2216957369736584,-0.2518588497665489,-13.032864169752855,21.12960276547697,29.152683589066527,1.2684952235048743,1.2110363927656147,0.5337854113724293,3470.213134765625,11.955333333333334,0.1533333333333333,179.3504403585098,-10.841265286835712,107.724065639635,1647.0,1435.0,1200.0,1528.0,1543.0,995.0,60.0,293.1,1649247149.1627314,1649247150.284484,6b68a3f1-1bf3-42bb-82bc-4033f18c8ffe
0.2257018117891799,0.480037025212698,0.0966473620812644,-0.4023719999053069,-0.1643674153882718,0.1059303412450435,-0.2082183215588716,-0.2340292150791031,-12.720784347121558,21.09699070866668,28.617951367655888,1.2885177127404135,1.6928504322173454,0.4659569375428753,3480.3897569444443,11.946222222222222,0.15,179.21590991697758,-10.844467602055326,107.29009970488944,1745.0,1435.0,1200.0,1528.0,1614.0,995.0,60.0,293.1,1649247151.1963584,1649247152.339648,f9a28077-9626-4d20-b294-154588bb83b6
0.2145648665829563,0.4722792951144898,0.0928736862840963,-0.3940751711854082,-0.1637625753246543,0.1048258506878739,-0.2100459905636205,-0.2338582820641655,-12.766637189358994,20.92091537239905,28.44736096019531,1.2659147593383169,1.6643269670656409,0.4718129273405245,3471.1504991319443,11.933333333333334,0.1488888888888888,179.15138436097857,-10.86130335431324,106.96425718252502,1745.0,1435.0,1200.0,1528.0,1614.0,995.0,60.0,293.1,1649247152.4517748,1649247153.7682574,f9a28077-9626-4d20-b294-154588bb83b6
0.2062548909229596,0.4612606886273715,0.0941622585049828,-0.3859887225354759,-0.1603965087896329,0.1086258232590184,-0.2089677974623725,-0.2388416388536557,-12.895502902518109,21.105773631830388,28.518863162967,1.2574488982999303,1.6223680598737225,0.4626091496282143,3460.40625,11.938,0.15,179.10214932180148,-10.909289132918378,106.7441292924944,1745.0,1435.0,1200.0,1528.0,1614.0,995.0,60.0,293.1,1649247153.8772335,1649247155.2001626,f9a28077-9626-4d20-b294-154588bb83b6
0.2700655105929052,0.5743920607315159,0.1307945254931507,-0.4577411748091905,-0.1594103567771775,0.056609580623885,-0.1996585193492921,-0.231636152323888,-12.706626557027894,21.48287755579718,27.661518445827696,1.306699728295979,2.0641042413058326,0.4099056158758714,3456.684977213541,11.936333333333332,0.1533333333333333,178.907498037375,-10.936966197800132,106.51833234545266,1849.0,1435.0,1200.0,1528.0,1686.0,995.0,60.0,293.1,1649247156.1135733,1649247157.2459838,50bca3fa-9b25-4d91-93e2-351163f38025
0.2727215469978793,0.570578939157808,0.1233655120773303,-0.4609889053283635,-0.1656033934323172,0.0623029651055557,-0.2037872107115675,-0.2209462610751313,-12.637089652161883,21.36000951730741,27.471328775306773,1.3256398712035615,2.0509230197221755,0.4336866414025311,3455.1370713975693,11.909222222222224,0.1411111111111111,178.91829277190325,-10.92565474048842,106.3488594150366,1849.0,1435.0,1200.0,1528.0,1686.0,995.0,60.0,293.1,1649247157.3544607,1649247158.6866505,50bca3fa-9b25-4d91-93e2-351163f38025
0.2886183199078586,0.5990590125287418,0.1320699490962824,-0.4451973130854662,-0.1595944382131565,0.0276035575656098,-0.2052730132315564,-0.2297164421486508,-12.510591210842028,21.185617167606736,28.601250757349053,1.211564853268546,2.1454353900172887,0.4210908341159101,3446.9554578993057,11.904222222222222,0.1411111111111111,178.8411389550388,-10.93389175889998,106.23181198104989,1849.0,1435.0,1200.0,1528.0,1686.0,995.0,60.0,293.1,1649247158.7955692,1649247159.9107687,50bca3fa-9b25-4d91-93e2-351163f38025
0.3461701595378711,0.6840390281111136,0.1552773973181933,-0.5024598987656699,-0.1643805641386763,-0.0121975463011944,-0.2027616120545536,-0.2206306922979737,-12.292383286696372,21.5200365880938,27.378693863956368,1.2545842628303716,2.4819803346687426,0.400471248317685,3450.346001519097,11.896777777777778,0.14,178.69582136807742,-10.907892169505637,106.01140708890291,1962.0,1435.0,1200.0,1528.0,1760.0,995.0,60.0,293.1,1649247161.5799615,1649247162.7823875,fef6730e-9ad8-45fb-90ba-44c36feb3f47
0.3388200388738266,0.6928355050429329,0.154041419978349,-0.4979498960811515,-0.1666158425288216,-0.0240182250391094,-0.208481295596996,-0.2326486019367252,-12.325195584689764,21.530909906660867,27.487131491498843,1.2178594641166278,2.513610180967499,0.414573613527162,3440.348876953125,11.867333333333333,0.14,178.67301157188922,-10.919634118462533,105.83331445975428,1962.0,1435.0,1200.0,1528.0,1760.0,995.0,60.0,293.1,1649247162.8907554,1649247164.0057633,fef6730e-9ad8-45fb-90ba-44c36feb3f47
0.3524815332865362,0.6893511008762145,0.1581832587248658,-0.5051159389415765,-0.1630131004453104,-0.0148141383105909,-0.2021041775686594,-0.2264818630842994,-12.374621767830508,21.583368507108265,27.41233039869498,1.2552242996575382,2.5027000868265383,0.3942950681095621,3440.5006510416665,11.867,0.14,178.64558760346168,-10.904772954920924,105.69323638679624,1962.0,1435.0,1200.0,1528.0,1760.0,995.0,60.0,293.1,1649247164.114743,1649247165.232329,fef6730e-9ad8-45fb-90ba-44c36feb3f47
-0.0387842103802869,0.0426719642195181,-0.006188591604517,-0.230557960123329,-0.1647750250104754,0.3680101419069464,-0.2105850871040665,-0.2348970290277114,-13.667703010461318,22.11158930817039,27.03414468594375,1.4907518693053317,0.0455488039653959,0.555331442431298,3462.117947048612,11.907333333333334,0.1444444444444445,179.0342648305506,-10.9006210536792,105.49804096396588,1459.0,1435.0,1200.0,1528.0,1394.0,995.0,60.0,293.1,1649247167.1684525,1649247168.3175972,413f869d-1ad8-41e0-b377-cd62201c1689
-0.0301849627117946,0.0609092060423838,-0.0098176318332431,-0.2395648187564135,-0.1722960798314873,0.3592662592960915,-0.2170805441983779,-0.2370665644162078,-13.57262869324448,21.99272147041112,27.114250509953223,1.490512400048252,0.1134435197693219,0.5821263098808624,3467.4052734375,11.95188888888889,0.1588888888888889,178.98286538031655,-10.921896808352576,105.59086247587643,1459.0,1435.0,1200.0,1528.0,1394.0,995.0,60.0,293.1,1649247168.4264266,1649247169.5371828,413f869d-1ad8-41e0-b377-cd62201c1689
-0.0401648235288388,0.0412256076544317,-0.0184431767134042,-0.2155421487850793,-0.173045555557961,0.3602392622829084,-0.2235365546096542,-0.2446139169782206,-13.642274975031642,21.929654943015763,27.598298402780102,1.4377041414993996,0.0323153053149281,0.6025854740895075,3476.784912109375,11.953,0.1566666666666666,178.92168661701083,-10.871609825179572,105.68140649915377,1459.0,1435.0,1200.0,1528.0,1394.0,995.0,60.0,293.1,1649247169.645691,1649247170.7679946,413f869d-1ad8-41e0-b377-cd62201c1689
-0.1479052463888767,-0.1281690519818501,-0.057218683223629,-0.1334416811729314,-0.1731901913379017,0.4482566285663422,-0.2319911670927626,-0.2541598715351318,-14.181268085132114,22.750894721006947,27.07450080922854,1.4534509001955496,-0.6071129513200915,0.6464456637004973,3487.15478515625,11.945444444444442,0.1555555555555555,178.92894786700847,-10.821935377165886,105.8284953818399,1364.0,1435.0,1200.0,1528.0,1312.0,995.0,60.0,293.1,1649247172.5959466,1649247173.848277,f013c3d5-3067-4d38-953b-8e0993c06757
-0.1217974965998359,-0.1141232091489454,-0.053095555527256,-0.1528992239744707,-0.1745313586313579,0.448413401531576,-0.2273031506703101,-0.2521971754789224,-14.000656353101848,22.673432128978927,26.54036088454964,1.4973922051202402,-0.548321047076731,0.6369110524541302,3485.736572265625,11.924555555555555,0.1422222222222222,178.92413486037333,-10.819600875425818,105.80647181631612,1364.0,1435.0,1200.0,1528.0,1312.0,995.0,60.0,293.1,1649247173.957328,1649247175.062432,f013c3d5-3067-4d38-953b-8e0993c06757
-0.1369260841603208,-0.1147968270111057,-0.0544969032043943,-0.1425011330649494,-0.173295381093033,0.4419715524155043,-0.2307288925279637,-0.2568159085384474,-14.131955482567443,22.61998285582561,26.874490596516367,1.4590240346040364,-0.5542495758482244,0.6424263640129086,3485.894585503472,11.92388888888889,0.15,178.9036063473679,-10.801707013028985,105.80412754361102,1364.0,1435.0,1200.0,1528.0,1312.0,995.0,60.0,293.1,1649247175.1716754,1649247176.2950904,f013c3d5-3067-4d38-953b-8e0993c06757
-0.2298084830666079,-0.2846648508050641,-0.0750614649450939,-0.0774676771742607,-0.162868464030317,0.5348539346041941,-0.219907514049438,-0.241865839236648,-14.327544501252218,23.79907256178632,24.88128028577964,1.5274197724944745,-1.1815985376421414,0.617433173361205,3476.781982421875,11.912333333333336,0.1466666666666666,178.97958385387534,-10.750118689091616,105.72955705607262,1262.0,1435.0,1200.0,1528.0,1222.0,995.0,60.0,293.1,1649247178.2295177,1649247179.3740675,073735eb-2cfc-4d7d-a668-a996bc1f9ff5
-0.2296769958719283,-0.2950917683252754,-0.0871319685846534,-0.0645425094773618,-0.168930013366783,0.5328290353121632,-0.2321489518825629,-0.2644421534295624,-14.57451285535546,23.70392058127696,24.741970363803087,1.4923352129190888,-1.2200813203088516,0.65809337483717,3476.9386393229165,11.864222222222224,0.14,179.003336216169,-10.770319163289408,105.5581891276168,1262.0,1435.0,1200.0,1528.0,1222.0,995.0,60.0,293.1,1649247179.4894495,1649247180.6190922,073735eb-2cfc-4d7d-a668-a996bc1f9ff5
-0.2385260697182768,-0.3177469759729429,-0.0912738083806826,-0.0302901577290002,-0.1647881740145144,0.5327632910270481,-0.2340818099234567,-0.2627065251063999,-14.49601016579944,23.70736607246593,26.036148069230265,1.4149849833333177,-1.3215577200884108,0.6602876551080326,3469.277886284722,11.873111111111111,0.14,179.01550913108974,-10.7985452046257,105.42676035087771,1262.0,1435.0,1200.0,1528.0,1222.0,995.0,60.0,293.1,1649247180.728966,1649247181.8305857,073735eb-2cfc-4d7d-a668-a996bc1f9ff5
-0.2831001554446439,-0.3603093121466443,-0.0851333666490787,-0.0382582635975745,-0.1551633273350105,0.563636428086149,-0.2201573389513181,-0.240787645747737,-14.770939930892167,24.22559612471303,23.527436551119727,1.505538006063491,-1.455632721754926,0.6098195034520324,3471.4629177517363,11.79022222222222,0.1122222222222222,179.1051758545137,-10.78761187417554,105.12274863092044,1153.0,1435.0,1200.0,1528.0,1121.0,995.0,60.0,293.1,1649247182.7353704,1649247183.8767865,3956e958-5926-46e9-b477-b96338653856
-0.2902272555638845,-0.3953030569874156,-0.0852592907963207,0.0041392009535302,-0.1422538352608321,0.5663344387412134,-0.2168094787424337,-0.2367853844432333,-14.940391658981495,24.201651664428937,24.59968445472005,1.415883127589881,-1.6004129337299884,0.5851824523352348,3467.4052734375,11.738,0.09,179.19068223382317,-10.734797436418416,104.59386279836932,1153.0,1435.0,1200.0,1528.0,1121.0,995.0,60.0,293.1,1649247183.984898,1649247185.1164615,3956e958-5926-46e9-b477-b96338653856
-0.2842309435119564,-0.361242869947889,-0.0827928985773677,-0.0287780530323616,-0.1520733834897966,0.5556420215173876,-0.2187241311313227,-0.2395911142769395,-14.628796242250765,24.20003845868967,23.51602255667225,1.466205321586754,-1.461058304328569,0.6004439482473662,3469.4329698350693,11.740111111111112,0.09,179.2406018097371,-10.81926847288621,104.1812943284736,1153.0,1435.0,1200.0,1528.0,1121.0,995.0,60.0,293.1,1649247185.2243445,1649247186.3324215,3956e958-5926-46e9-b477-b96338653856
0.0682198811346577,0.227621521314999,0.0267225955586897,-0.3015740775016742,-0.1700345039679701,0.2615188581027923,-0.2138065181961941,-0.2321752488051325,-13.174501123866072,21.11542818285492,28.483622974849688,1.4071611028390905,0.7336977438556427,0.5467744553373461,3463.2036946614585,11.817333333333334,0.12,179.09691739689725,-10.81649076776,103.82999948562204,1553.0,1435.0,1200.0,1528.0,1471.0,995.0,60.0,293.1,1649247187.2383156,1649247188.3795214,87266822-04a3-497c-9f69-59e4ec3b2103
0.0507584125137507,0.2029808655754851,0.0145469026361816,-0.2587882140303444,-0.1715203067885795,0.2518282692606017,-0.2275469076022148,-0.2532789089821733,-13.306131515711426,21.148365897431763,29.174816681416715,1.2885266311635155,0.6300467476271768,0.5832212948097587,3475.842041015625,11.959666666666667,0.1522222222222222,178.9328228609976,-10.832983492739595,104.30967228738344,1553.0,1435.0,1200.0,1528.0,1471.0,995.0,60.0,293.1,1649247188.488468,1649247189.815406,87266822-04a3-497c-9f69-59e4ec3b2103
0.0560441884189043,0.2161427100564439,0.0187676343081775,-0.2811804461932118,-0.1733085295228495,0.2555493504850721,-0.2236417438973376,-0.2524373920372161,-13.265944142926664,21.19302022192843,28.63671868715496,1.3478404236921846,0.686921671618229,0.5749905605281502,3480.07568359375,11.960222222222225,0.1611111111111111,178.83380636750982,-10.83081851250018,104.66275663979752,1553.0,1435.0,1200.0,1528.0,1471.0,995.0,60.0,293.1,1649247189.925465,1649247191.0375135,87266822-04a3-497c-9f69-59e4ec3b2103
0.0562019727557321,0.2054265230441314,-0.002980309704026,-0.4864973794915408,-0.2121760793893098,0.4700045703375013,-0.1840773132690128,-0.2078107121986256,-13.29415281957306,20.64419937748714,30.827629738831178,2.288508578075376,0.6514020173979285,0.6014417994134843,3478.6630859375,11.958777777777778,0.1577777777777777,178.78863908543843,-10.705521348360971,105.00946083661688,1553.0,1537.0,1200.0,1528.0,1471.0,995.0,60.0,293.1,1649247191.5842507,1649247192.6835158,940d8542-052c-4128-8733-debde0efda81
0.0599756485760303,0.2084112770143804,0.0088009223270813,-0.5032882676797535,-0.2040238869058907,0.4793401441610517,-0.1700345043562509,-0.1889291822288215,-13.27035495696774,20.70443280255056,30.471282731501745,2.3483040857419017,0.6684017251516184,0.5539883916231251,3481.135681152344,11.955,0.1525,178.76366563710317,-10.673435016915022,105.2008514646246,1553.0,1537.0,1200.0,1528.0,1471.0,995.0,60.0,293.1,1649247192.791521,1649247194.1119108,940d8542-052c-4128-8733-debde0efda81
0.0689299106797915,0.2135261196184402,0.0036992279851765,-0.4999090518141165,-0.210348410605422,0.4726869044400923,-0.179698797335835,-0.2057989616553316,-13.370958961385076,20.855145436681063,30.62205542359962,2.326449139141789,0.6862243325295125,0.5840456538005218,3480.8608669704863,11.95211111111111,0.15,178.73475041070685,-10.69197566028076,105.41870528111654,1553.0,1537.0,1200.0,1528.0,1471.0,995.0,60.0,293.1,1649247194.221181,1649247195.3549347,940d8542-052c-4128-8733-debde0efda81
0.0630261460770772,0.1915809464055139,-0.0069512160472021,-0.6988094445871458,-0.2408533891068279,0.686695064511972,-0.1309960221682714,-0.1537827141621639,-13.232830321444204,20.798899082985827,32.09681014032303,3.255426034870621,0.613680996368169,0.568570237575397,3481.489013671875,11.944444444444445,0.1544444444444444,178.72593187757846,-10.601854729277028,105.63367941396343,1553.0,1645.0,1200.0,1528.0,1471.0,995.0,60.0,293.1,1649247196.2510045,1649247197.390304,59abdf27-5cb8-4c2d-b046-3fe57b3b4512
0.0659977514103535,0.1926065447397477,-0.0026252950025786,-0.7027277585596174,-0.2374741739032998,0.6881545696653601,-0.1263150862234432,-0.1449336412826091,-13.230095387834654,20.813544319122297,31.96878369566792,3.2678379497233028,0.6193998686591871,0.5513113356116018,3481.1750217013887,11.938333333333333,0.15,178.77042372983195,-10.550471595605975,105.71784404055596,1553.0,1645.0,1200.0,1528.0,1471.0,995.0,60.0,293.1,1649247197.4991462,1649247198.825,59abdf27-5cb8-4c2d-b046-3fe57b3b4512
0.0590157937878837,0.1857429255124733,-0.0111325015673371,-0.6821894867512376,-0.2419184337739577,0.6810542743792758,-0.1377676008997682,-0.1606726315336579,-13.339815308491987,20.88274115320157,32.61446151952151,3.205636135521999,0.5856442290151828,0.5854219029406956,3476.31201171875,11.942333333333336,0.1533333333333333,178.78352555047982,-10.599994261638106,105.81715423217804,1553.0,1645.0,1200.0,1528.0,1471.0,995.0,60.0,293.1,1649247198.9336846,1649247200.0611465,59abdf27-5cb8-4c2d-b046-3fe57b3b4512
0.0668261193132533,0.2120140195280012,-0.016391980479052,-0.8991825311018685,-0.2775514051432871,0.8681996521278781,-0.0923388542799724,-0.1180971508279556,-12.940042799765129,20.56924898088821,34.627610969548385,4.113842010380772,0.6898825686695423,0.5809674844068669,3520.92271592882,11.937111111111111,0.1477777777777777,178.80053423933293,-10.496713832833482,105.89634799887462,1553.0,1761.0,1200.0,1528.0,1471.0,995.0,60.0,293.1,1649247201.1661122,1649247202.3115177,f11afdd3-eeb1-4b3c-896d-38ffd8dfb7e0
0.0773319274767195,0.2123690343538974,-0.022137961239857,-0.897367999412976,-0.2815880559744128,0.8677657438676184,-0.09822947030833,-0.1214500683697663,-13.047329159010928,20.477635417310736,34.809671750326686,4.107855409114826,0.6897706105480187,0.6029631546064436,3568.294976128472,11.934111111111111,0.15,178.82817980945356,-10.484949021715613,105.90577214210944,1553.0,1761.0,1200.0,1528.0,1471.0,995.0,60.0,293.1,1649247202.419932,1649247203.6462471,f11afdd3-eeb1-4b3c-896d-38ffd8dfb7e0
0.0744523630416717,0.2019552673876956,-0.0158397349999504,-0.8783681226600483,-0.2720289519217707,0.8620986562113007,-0.0913132545522771,-0.1116674371542959,-12.884000471829896,20.48157915525448,35.09047994706888,4.052728370595705,0.6451279059892557,0.5709260981976297,3585.206597222222,11.928222222222225,0.14,178.8534985617969,-10.482398515243045,105.94238119715078,1553.0,1761.0,1200.0,1528.0,1471.0,995.0,60.0,293.1,1649247203.760423,1649247204.7985525,f11afdd3-eeb1-4b3c-896d-38ffd8dfb7e0
0.086470271326296,0.2131579560747208,-0.0224272324145144,-0.9497918853533696,-0.2945526721027066,0.9140228540125024,-0.0921153262963023,-0.1156383442386411,-12.98025307759438,21.124192616986,34.64722252480274,4.334336325782893,0.7001417114082994,0.6114987312116502,3593.889404296875,11.88888888888889,0.1322222222222222,178.86206058337646,-10.510860957015607,105.88176402717684,1553.0,1887.0,1200.0,1528.0,1471.0,995.0,60.0,293.1,1649247205.775977,1649247207.114114,403ab375-fd27-4a11-87d1-593cf4cd168e
0.085983769574124,0.2124216291324301,-0.0181802034286964,-0.9440590485231296,-0.2885305685072815,0.9115771964888256,-0.087184564578808,-0.117742135855756,-12.965815180144602,21.002291846893385,34.98396812206413,4.315373057063186,0.693854618784913,0.5909831338226834,3593.889404296875,11.871111111111112,0.1244444444444444,178.9271780891035,-10.51325778423185,105.73510772313811,1553.0,1887.0,1200.0,1528.0,1471.0,995.0,60.0,293.1,1649247207.226054,1649247208.363177,403ab375-fd27-4a11-87d1-593cf4cd168e
0.080172045879911,0.2062417421793602,-0.0230583697499728,-0.9359200007365056,-0.2907132523154351,0.9115771964901156,-0.0917734595077776,-0.1192279385618516,-13.016950329340018,20.989617610514497,35.15248680928356,4.296687562899751,0.6682330748436515,0.6066698337787474,3595.396728515625,11.871,0.13,178.9488525560697,-10.489705489562615,105.6116770979171,1553.0,1887.0,1200.0,1528.0,1471.0,995.0,60.0,293.1,1649247208.472161,1649247209.5879538,403ab375-fd27-4a11-87d1-593cf4cd168e
0.0514289960219777,0.2218360952510386,0.0375571214274877,-0.1001491795121014,-0.1402790019467641,0.0862730401758773,-0.2566318265218213,-0.2870447651018796,-13.279806067579097,21.904823157337542,29.000254996063976,0.5647969582878187,0.6840658270972564,0.5538489631023612,3593.889404296875,11.900333333333334,0.1422222222222222,178.95680744972307,-10.779499316988858,105.48257969241467,1553.0,1335.0,1200.0,1528.0,1471.0,995.0,60.0,293.1,1649247210.69054,1649247211.8125772,ab0a872a-6cd2-4105-b296-1b0d0192dc2a
0.0509687916386029,0.2329467430148464,0.0384775295482794,-0.0974799944919495,-0.141357195757662,0.0716779871815873,-0.2602740169332726,-0.2887277989027441,-13.224579147509823,21.89132941340656,28.811965387629435,0.5259330618882515,0.7267449212287943,0.5603949744540124,3598.415771484375,11.960111111111113,0.15,178.8780629576919,-10.829037920129052,105.7708963965692,1553.0,1335.0,1200.0,1528.0,1471.0,995.0,60.0,293.1,1649247211.944542,1649247213.2693093,ab0a872a-6cd2-4105-b296-1b0d0192dc2a
0.0519412473389822,0.2066301764897545,0.037683129754909,-0.0681775757437879,-0.1302914707434092,0.0740337949453649,-0.2564641809863442,-0.275365434353935,-13.419061356391888,21.64575669311993,29.33234510271389,0.4634453660294316,0.6211439010014695,0.5387528669981824,3600.095052083333,11.958222222222224,0.15,178.8565205410497,-10.78865831607463,106.01686137441013,1553.0,1335.0,1200.0,1528.0,1471.0,995.0,60.0,293.1,1649247213.382414,1649247214.6956563,ab0a872a-6cd2-4105-b296-1b0d0192dc2a
0.0581611285275073,0.2389688456459884,0.0573196118665661,0.0638939574196838,-0.1109311101137369,-0.0940481860965947,-0.2924883263243936,-0.3098577565366492,-13.335614224906248,22.657401028007733,27.15700529425318,-0.2047989875028238,0.7461241081365233,0.5385534082945238,3612.063232421875,11.95788888888889,0.1577777777777777,178.85314642759965,-10.93558697390648,106.29705394800186,1553.0,1236.0,1200.0,1528.0,1471.0,995.0,60.0,293.1,1649247215.6097813,1649247216.9534934,5d397d8a-326e-4845-a621-89a3a60719db
0.0570829354265772,0.2373252586968043,0.0550054413313906,0.0763720704673156,-0.1116148422526649,-0.1045802918705086,-0.2964066385766941,-0.3170106486363906,-13.218049670265868,22.61625183791027,27.04023470351682,-0.2569610494273863,0.7384787728348625,0.5480629316805404,3601.439453125,11.955,0.14,178.83217926466756,-10.881224739392442,106.40395855107109,1553.0,1236.0,1200.0,1528.0,1471.0,995.0,60.0,293.1,1649247217.0613225,1649247218.1768863,5d397d8a-326e-4845-a621-89a3a60719db
0.0459591383611819,0.2299619890737411,0.0512449140674912,0.081131899514322,-0.112311723341246,-0.0991235814502287,-0.2986945120603967,-0.3239400125286816,-13.355916359967493,22.591390440675045,27.390940885707305,-0.2558016530307944,0.7079046655674552,0.5569547743583546,3589.8758138020835,11.952333333333334,0.15,178.8634615310662,-10.869501858046975,106.52782403166928,1553.0,1236.0,1200.0,1528.0,1471.0,995.0,60.0,293.1,1649247218.285533,1649247219.4117558,5d397d8a-326e-4845-a621-89a3a60719db
0.0590157937762772,0.2520649464484764,0.0688378697080034,0.1931850868461207,-0.0946924693042424,-0.2353440856397227,-0.3271614434551542,-0.3491723646664577,-13.310679727603429,23.54833096456075,25.72051923929184,-0.8076956696528267,0.7926243082709196,0.5504462824643067,3566.968994140625,11.953,0.15,178.84521126560398,-10.921391374353997,106.7375176693778,1553.0,1133.0,1200.0,1528.0,1471.0,995.0,60.0,293.1,1649247221.077544,1649247222.0801632,88c4f8cc-8afa-4f14-8663-aad7788cbfd0
0.0550185900800128,0.2481071890448906,0.0662738740033898,0.2150250702228282,-0.0936800195514789,-0.2525162853745639,-0.3346956476710716,-0.3651480332680927,-13.398861486965655,23.58748128993073,25.54826187749352,-0.8954895319007314,0.7770803040703953,0.5626813156445623,3564.002685546875,11.949777777777776,0.15,178.84186599073044,-10.921741136957742,106.79171446153195,1553.0,1133.0,1200.0,1528.0,1471.0,995.0,60.0,293.1,1649247222.1886208,1649247223.3023937,88c4f8cc-8afa-4f14-8663-aad7788cbfd0
0.051784010783485,0.2385217899351857,0.0656558853479848,0.2038486793625657,-0.093680019463571,-0.2317939367665768,-0.3290285583819455,-0.3486201192629188,-13.427020198972304,23.5899472299454,25.71537437100033,-0.8237144085114795,0.741184333731922,0.5544121378298776,3560.055636935764,11.936888888888888,0.1411111111111111,178.8483394922438,-10.921415090288612,106.84441164770833,1553.0,1133.0,1200.0,1528.0,1471.0,995.0,60.0,293.1,1649247223.4107916,1649247224.5329275,88c4f8cc-8afa-4f14-8663-aad7788cbfd0
0.0396740614909548,0.2359314969246181,0.0635257964222981,0.2492379758733527,-0.0940350344712216,-0.273028254902694,-0.3471869116696628,-0.3630705393614624,-13.51124905074725,24.117201750781927,25.350675117374703,-1.0154719236619112,0.7295831431486798,0.5829477302385738,3528.7880859375,11.94077777777778,0.1455555555555555,178.8845227988269,-10.924747938012365,106.91609144740798,1553.0,1026.0,1200.0,1528.0,1471.0,995.0,60.0,293.1,1649247226.0814917,1649247227.3930032,0b33ff34-8e2e-4e55-b417-a640b35aca26
0.0397135076421199,0.228318402229638,0.0679569070076348,0.2407702155725397,-0.0893540983902168,-0.258262267591174,-0.3374174285885531,-0.3567723127177053,-13.46940884945778,24.09739852065261,25.335577066845577,-0.9630815696666404,0.7021902237710862,0.5556430339364439,3525.885009765625,11.927222222222222,0.1411111111111111,178.90880032677674,-10.930728622404356,106.9155298540762,1553.0,1026.0,1200.0,1528.0,1471.0,995.0,60.0,293.1,1649247227.5018108,1649247228.6294923,0b33ff34-8e2e-4e55-b417-a640b35aca26
0.0365446717970245,0.2296332717209906,0.0619479528094484,0.2409280006902566,-0.0926938675147257,-0.2599715968645275,-0.3425059744483122,-0.3588103611078364,-13.581391750992116,23.855602677608378,25.257213992023225,-0.9692495458720164,0.70820443812237,0.5756986750878227,3525.401692708333,11.925666666666665,0.1433333333333333,178.93990956171643,-10.89818552205766,106.90887117854535,1553.0,1026.0,1200.0,1528.0,1471.0,995.0,60.0,293.1,1649247228.737517,1649247229.8525026,0b33ff34-8e2e-4e55-b417-a640b35aca26
0.0444207409209378,0.2035068134798852,0.0161773410858329,-0.2820351117113438,-0.1725327564105424,0.2747201484310546,-0.2191843355339751,-0.2456526641571231,-13.261214200429029,21.08853992596239,29.497967158299726,1.392165759523046,0.6318019209776345,0.5708428494119573,3519.9347873263887,11.951333333333332,0.15,178.9925612132984,-10.807720425410752,106.87227426606252,1553.0,1435.0,1200.0,1528.0,1471.0,995.0,60.0,293.1,1649247231.784836,1649247233.1307526,e1ecb844-290c-4550-a3e7-a2950ea062a7
0.0613299642990047,0.2209814300035638,0.0172555341018383,-0.2952495534113989,-0.1778185328787329,0.2658579276341919,-0.2221559413067241,-0.2532263138845474,-13.133739635348851,21.16418851536425,28.93379678438772,1.4025891148906209,0.7031369668278568,0.5820644565514425,3523.14794921875,11.958555555555556,0.1544444444444444,178.9839627640432,-10.817851777815866,106.89907668727558,1553.0,1435.0,1200.0,1528.0,1471.0,995.0,60.0,293.1,1649247233.2399702,1649247234.358552,e1ecb844-290c-4550-a3e7-a2950ea062a7
0.0714939064695605,0.2344851404305237,0.0292076991487992,-0.3128030654225835,-0.1709417641291586,0.2675278119395922,-0.2102695187066168,-0.2335032673108584,-13.080409678902996,21.137843287054,28.846143219763363,1.4463713551328357,0.7571019759024964,0.5408867185789361,3524.43505859375,11.96,0.15,179.0006936918701,-10.819292852866996,106.9209833806735,1553.0,1435.0,1200.0,1528.0,1471.0,995.0,60.0,293.1,1649247234.4673054,1649247235.591477,e1ecb844-290c-4550-a3e7-a2950ea062a7
0.0819641036135308,0.2257642680526364,0.0925652397559147,-0.2930203017323269,-0.1080345617124096,0.258101840621224,-0.1459055489179228,-0.1721207642985974,-12.756156510688598,21.27012776953752,29.369198564168045,1.3848431821042473,0.7190456837531672,0.2772293740658183,3520.0927734375,11.960666666666665,0.15,179.00005317190795,-10.83565362238638,106.93442139841058,1553.0,1435.0,1200.0,1435.0,1471.0,995.0,60.0,293.1,1649247237.7271836,1649247238.868513,2af1e001-8167-418d-9871-53e669bf6cc9
0.0759776118700586,0.2216125674104444,0.0899678245229743,-0.3010086848064024,-0.1099186602716326,0.2693028851945069,-0.1441447191311742,-0.1637494267398093,-12.745547677042268,21.17052431492281,29.335449461661327,1.4272436030407272,0.70451550231417,0.2802573997521178,3517.04380967882,11.959444444444443,0.151111111111111,178.9925657667578,-10.814431086270288,106.94310029211594,1553.0,1435.0,1200.0,1435.0,1471.0,995.0,60.0,293.1,1649247238.9804132,1649247240.102848,2af1e001-8167-418d-9871-53e669bf6cc9
0.0807768859383665,0.2282132126562827,0.0874958694623391,-0.3082273186358752,-0.1142051356824344,0.2673042842233871,-0.1463931465566156,-0.1724670133276707,-12.643241119730568,21.077971716759524,29.008373360563205,1.4382986806244489,0.7321771916448544,0.2930501664860133,3513.679741753472,11.96,0.15,178.99857177976796,-10.81510234208372,106.95043136182508,1553.0,1435.0,1200.0,1435.0,1471.0,995.0,60.0,293.1,1649247240.2116048,1649247241.319331,2af1e001-8167-418d-9871-53e669bf6cc9
0.1337135361755597,0.2473182672613364,0.1936189941935716,-0.3012322112316516,-0.0178909315828416,0.2391266295106771,-0.0428340093844441,-0.0651341989196301,-11.92279182804367,21.12958579519489,29.38213909808201,1.365249094962388,0.8012881910279478,-0.1268540526505495,3516.7232259114585,11.955666666666666,0.1466666666666666,178.99949157857617,-10.846172208571936,106.97896030307832,1553.0,1435.0,1200.0,1330.0,1471.0,995.0,60.0,293.1,1649247243.138353,1649247244.3973055,5d772841-6de9-47d2-8650-68b54877c1ae
0.1019725840554653,0.2442020264436623,0.1868211183915656,-0.3014688882978065,-0.0242943470085499,0.2401522273777404,-0.0499737519744597,-0.07193207543328,-11.972655505883411,21.19344347825604,29.008954182922817,1.3680878793115911,0.7928601185645442,-0.0996672085153759,3507.6092122395835,11.957333333333333,0.15,178.9924883579472,-10.860918017807563,106.9781862149724,1553.0,1435.0,1200.0,1330.0,1471.0,995.0,60.0,293.1,1649247244.529953,1649247245.8313782,5d772841-6de9-47d2-8650-68b54877c1ae
0.1210951709643697,0.2413098612817148,0.1942621846409074,-0.3014299896702979,-0.0169661398276959,0.2409674468268959,-0.04105838725154,-0.0678625533754885,-11.877498117132566,21.18711693357984,28.789760927867608,1.3701735756154851,0.7837487718439541,-0.1330746853419276,3497.1151529947915,11.955666666666668,0.16,179.03805027317063,-10.847575243263943,106.96920451621382,1553.0,1435.0,1200.0,1330.0,1471.0,995.0,60.0,293.1,1649247245.9405525,1649247247.061139,5d772841-6de9-47d2-8650-68b54877c1ae
0.1575389730982955,0.2616897915439152,0.3102742211522639,-0.3133684608603781,0.0834855172601997,0.2265959219947134,0.0743471729767287,0.0454594872671998,-11.057896855845302,21.506219999735208,28.9053493174832,1.3731320959925728,0.8621903456058148,-0.5893770533704721,3489.99462890625,11.954333333333333,0.15,179.04674889853356,-10.86946258445925,106.95107188178726,1553.0,1435.0,1200.0,1303.3333333333333,1471.0,995.0,60.0,293.1,1649247249.1939013,1649247250.329942,ad75b70a-a769-42bf-bc23-1dc1f77cf005
0.1429965154701067,0.2536164925069279,0.2955739797446455,-0.302836351662594,0.0734793595462969,0.2253862428779264,0.0585555892833291,0.0281689519734371,-11.307633268663883,21.48641894302497,28.871752897171422,1.3456616236392338,0.83174692205292,-0.5343248354620134,3489.99462890625,11.953333333333331,0.151111111111111,179.03486588719755,-10.851470727820574,106.93078318431267,1553.0,1435.0,1200.0,1210.0,1471.0,995.0,60.0,293.1,1649247250.4479797,1649247251.5602353,ad75b70a-a769-42bf-bc23-1dc1f77cf005
0.1479667224971577,0.2483964603445068,0.3103268159609083,-0.2895035735247548,0.0902439470382904,0.2186146636939346,0.0730323035254501,0.0407785514230234,-11.242066916568524,21.47349587391345,29.03958692535418,1.3010781824365465,0.8095105380305317,-0.5981071561687341,3485.736572265625,11.953,0.15,179.04977543124582,-10.850290812641454,106.92040281459408,1553.0,1435.0,1200.0,1210.0,1471.0,995.0,60.0,293.1,1649247251.6687849,1649247252.791474,ad75b70a-a769-42bf-bc23-1dc1f77cf005
0.1585514226660571,0.2460691412299078,0.4007766909031616,-0.2609051537786644,0.1743430063053007,0.1891484375333557,0.1572497016484267,0.125745425961879,-10.659103862530996,22.01002062004025,28.933210505549564,1.1786895885717776,0.7998204799695173,-0.955847288043241,3485.736572265625,11.94288888888889,0.15,179.0062595371338,-10.8768964864609,106.92012581247772,1553.0,1435.0,1200.0,1071.0,1471.0,995.0,60.0,293.1,1649247253.9048245,1649247255.0418808,46df0b1f-d5bd-4008-8a45-afec10f6f3f8
0.1778663510736673,0.2454936328876351,0.3948071831472341,-0.2777992088417961,0.1663738850685869,0.2030764460078774,0.1556399974643353,0.1317068425728104,-10.58131533055998,21.983360750599484,28.592442282898592,1.247607395680307,0.801832758516892,-0.935197132536105,3485.894585503472,11.937555555555557,0.15,179.03083759340709,-10.88583644517454,106.85495214741748,1553.0,1435.0,1200.0,1071.0,1471.0,995.0,60.0,293.1,1649247255.1501153,1649247256.475181,46df0b1f-d5bd-4008-8a45-afec10f6f3f8
0.1745533854642755,0.2742730931447542,0.3954251719032138,-0.2867291967192216,0.1622199087026959,0.1824820486955345,0.150109959595462,0.1339107662830599,-10.533952907310528,21.753186997870888,28.488165734157302,1.2199850407533823,0.9114969593188768,-0.9191235225567128,3484.3193359375,11.93211111111111,0.1411111111111111,179.00746772170694,-10.871267841402378,106.81927655156268,1553.0,1435.0,1200.0,1071.0,1471.0,995.0,60.0,293.1,1649247256.584857,1649247257.6997492,46df0b1f-d5bd-4008-8a45-afec10f6f3f8
0.0358346422575639,0.2057026456896516,-0.0714455731693213,-0.2690836439835503,-0.2569736925990183,0.2599804608589828,-0.3214549084164603,-0.3416644577628503,-13.940439398412153,21.513561360572712,28.671768772842515,1.3278092522459772,0.6450253709099407,0.9494701796275922,3487.15478515625,11.955222222222224,0.15,179.0637029458734,-10.915950085178956,106.8022246048448,1553.0,1435.0,1200.0,1613.0,1471.0,995.0,60.0,293.1,1649247259.638365,1649247260.7850406,87c84870-ad55-4d71-8a8f-115eff68fdd6
0.0297204984325486,0.2036777465251672,-0.0654629161994513,-0.2768150785759207,-0.2519114439843195,0.2672911355185078,-0.3117511693164037,-0.3280555555029091,-13.808432733245535,21.456129717898285,28.47740716431485,1.3616301780772833,0.6395492788513318,0.9201330907192752,3487.15478515625,11.954777777777776,0.15,179.07069250612403,-10.900237614448296,106.7740318606807,1553.0,1435.0,1200.0,1613.0,1471.0,995.0,60.0,293.1,1649247260.8941455,1649247262.2070224,87c84870-ad55-4d71-8a8f-115eff68fdd6
0.028997320159425,0.1971296960825556,-0.071314086225181,-0.2683341689171988,-0.2538837486292696,0.2701312535749284,-0.3168923104300852,-0.3462928001587135,-13.971868522958411,21.397332810169186,29.03818670231116,1.3482074492920069,0.6097605803153319,0.9380979327657109,3487.15478515625,11.961222222222222,0.1555555555555555,179.10354268039214,-10.8822607462803,106.76595250580247,1553.0,1435.0,1200.0,1613.0,1471.0,995.0,60.0,293.1,1649247262.3169737,1649247263.4357653,87c84870-ad55-4d71-8a8f-115eff68fdd6
-0.0037297853228795,0.1917913256215101,-0.1508900013590149,-0.2551854714491992,-0.3280161093666706,0.2647271392825672,-0.4047519158791361,-0.430510216514142,-14.480345699233304,21.612147743525973,28.60334119523033,1.3035398563637388,0.59053141493294,1.2710452575268274,3485.26416015625,11.951,0.1499999999999999,179.08180446499372,-10.86384930732636,106.77830755910114,1553.0,1435.0,1200.0,1694.0,1471.0,995.0,60.0,293.1,1649247265.1697276,1649247266.303033,adfc8fa9-91bc-4ef4-bbba-55f1e5301f62
-0.0145906086286838,0.1675056844686776,-0.1466824176427997,-0.2286382511313432,-0.3144729494281317,0.2670413093072685,-0.396678613322096,-0.4224237657856901,-14.577126561436096,21.495436432001885,29.073651319526903,1.2483181497961682,0.4929583674360585,1.2333066753796782,3483.5329318576387,11.954,0.15,179.1055583451072,-10.88926112099713,106.76348301296258,1553.0,1435.0,1200.0,1694.0,1471.0,995.0,60.0,293.1,1649247266.410802,1649247267.5376675,adfc8fa9-91bc-4ef4-bbba-55f1e5301f62
-0.0138411328955688,0.1739879915443368,-0.1531910229273574,-0.2460339773867019,-0.3238611201009099,0.2735762117500668,-0.4017014167362507,-0.4207801782955289,-14.565515125467632,21.44923313203638,28.58476778054361,1.3015409862848444,0.523250131554551,1.2620864387086914,3491.416015625,11.944666666666668,0.15,179.0981984368216,-10.824060324907668,106.74433343925958,1553.0,1435.0,1200.0,1694.0,1471.0,995.0,60.0,293.1,1649247267.645736,1649247268.765335,adfc8fa9-91bc-4ef4-bbba-55f1e5301f62
-0.029251953229487,0.1606782241366959,-0.2059649636420389,-0.2171139651914368,-0.3705428348657862,0.2611013861149389,-0.4645834266799419,-0.4889633064621834,-15.02902715607218,21.87146419484324,28.295502693652264,1.208163725482993,0.4722756867060293,1.4848735665617496,3481.97607421875,11.947666666666668,0.15,179.07123133215856,-10.89042187370108,106.70585291238564,1553.0,1435.0,1200.0,1774.0,1471.0,995.0,60.0,293.1,1649247270.701114,1649247271.8437026,a0501b52-730c-4b25-8c70-5382dfa95982
-0.011763638854409,0.1846384351674016,-0.2045629835912705,-0.2423917874955687,-0.3784282188541502,0.2541029940000568,-0.4664719081311084,-0.4996986721563274,-14.812203785583693,21.91339107583001,27.326104336293124,1.2497603412417595,0.5724000065092337,1.4978362077003704,3449.1154513888887,11.949999999999998,0.15,179.0909311155447,-10.84622229662585,106.69627698716928,1553.0,1435.0,1200.0,1774.0,1471.0,995.0,60.0,293.1,1649247271.9764416,1649247273.0717576,a0501b52-730c-4b25-8c70-5382dfa95982
-0.0145248651511458,0.1831131864189749,-0.2028405043969213,-0.2413267431052741,-0.3746939886475272,0.2560884466225647,-0.4645653470962853,-0.489403240116989,-15.011416506764975,21.85005202219469,27.550982331269665,1.2514208931471278,0.5660732790780165,1.48771622075363,3420.6683213975693,11.948777777777776,0.1555555555555555,179.0775484982309,-10.85495839316551,106.66652771878434,1553.0,1435.0,1200.0,1774.0,1471.0,995.0,60.0,293.1,1649247273.1803176,1649247274.4983375,a0501b52-730c-4b25-8c70-5382dfa95982
-0.0306188697522638,0.1772883142329893,-0.2402748464007612,-0.2246410461075371,-0.4095643376735471,0.2437155240040676,-0.5098626163859906,-0.5304140343370538,-15.248225782897476,22.15687229298489,26.844436674459565,1.18591657666871,0.5477423404205237,1.648885125482845,3405.41357421875,11.937,0.15,179.11085098280407,-10.873029366162074,106.61815328344268,1553.0,1435.0,1200.0,1856.0,1471.0,995.0,60.0,293.1,1649247275.1188283,1649247276.1385715,82917d71-b414-4e3f-9756-aa6a49980c61
-0.0232424509455765,0.177117381165655,-0.2371454567350769,-0.2215905476032064,-0.406277163342418,0.2448463121703949,-0.5064176575841309,-0.5362783545163317,-15.215029647675133,22.16252443737453,27.405430970759948,1.1818758586989662,0.5417171059285808,1.6360554775552365,3402.413031684028,11.931444444444445,0.1544444444444444,179.1438362430358,-10.835342753915404,106.53950213733016,1553.0,1435.0,1200.0,1856.0,1471.0,995.0,60.0,293.1,1649247276.2465718,1649247277.335921,82917d71-b414-4e3f-9756-aa6a49980c61
-0.0339060439477403,0.1819166550485127,-0.2545411842903928,-0.200421144738118,-0.423041754849888,0.220573819636745,-0.5338589948259006,-0.5611293980507867,-15.30239586120583,22.37984629108009,27.2199058234785,1.0800802507522511,0.5582744448729363,1.7220267368535678,3397.315185546875,11.93211111111111,0.15,179.15206434425593,-10.850409487178284,106.49631940466762,1553.0,1435.0,1200.0,1856.0,1471.0,995.0,60.0,293.1,1649247277.4439914,1649247278.6008444,82917d71-b414-4e3f-9756-aa6a49980c61
-0.0028225252186679,0.1548960851768475,-0.0784275319243684,-0.2297295920905448,-0.2133068680548854,0.2778100917329374,-0.2716607890772602,-0.2946841590197589,-13.164711542066009,17.032292059066616,29.495307006716143,1.2495689420404923,0.436316524729587,0.8263560183980939,7193.47705078125,11.634333333333334,7.966666666666667,-178.6081262925939,-10.885816049470767,92.87650479921292,1553.0,1435.0,1350.0,1528.0,1471.0,995.0,60.0,293.1,1649247282.7339733,1649247283.9249835,65caa351-abcc-4d55-ad8e-16b5f91cbb79
0.0021608307323012,0.161786001778426,-0.0710905587768589,-0.2224583615162024,-0.2059041509998973,0.2771132111898138,-0.2675189489544225,-0.28730773939744,-13.365302527023218,17.096998301973798,31.35114240519818,1.2325899799795048,0.4467003906185852,0.8037231432108066,7197.503472222223,11.631222222222222,7.996666666666666,-178.10270899003092,-10.748908512379924,87.3233523037679,1553.0,1435.0,1350.0,1528.0,1471.0,995.0,60.0,293.1,1649247284.0334108,1649247285.1601398,65caa351-abcc-4d55-ad8e-16b5f91cbb79
0.0208714257762467,0.1527396991308153,-0.0718663319088608,-0.2125310945973709,-0.2039975900042787,0.2742993904204996,-0.2675058003815155,-0.2973401958003848,-13.307951433350958,17.088395016765745,30.987683451167825,1.2037487381095957,0.4143150813547823,0.8006885324056561,7212.308539496527,11.636555555555557,7.978888888888889,-177.9168428466969,-10.690017482991212,82.93029605520094,1553.0,1435.0,1350.0,1528.0,1471.0,995.0,60.0,293.1,1649247285.2729976,1649247286.3822348,65caa351-abcc-4d55-ad8e-16b5f91cbb79
0.1125441356126609,0.3298263312320772,-0.0449246520628428,-0.2941845095337612,-0.218434859675812,0.16988559780726,-0.2778538255185772,-0.3065311363664146,-12.796007401494778,16.452429478252565,30.191292389237773,1.1505634770890376,1.093683055753676,0.8185688666875808,7221.0830078125,11.627666666666666,7.989999999999999,-178.0135446649659,-10.538869475799585,76.55186773945135,1647.0,1435.0,1350.0,1528.0,1543.0,995.0,60.0,293.1,1649247287.2934873,1649247288.4280615,fd19e2b9-58aa-4aa0-9223-bbc47997dbbe
0.1122198011139531,0.3328576533343449,-0.0359358743480624,-0.2784060707467996,-0.2095671589608994,0.1753472376303435,-0.2779814771346341,-0.3017860993716326,-13.468347887841878,17.02696481019786,33.48421870771508,1.1316869365274638,1.0792628152489936,0.7988633284789199,7221.0830078125,11.624444444444444,7.98888888888889,-178.15728675495876,-10.48808208640614,73.15220331068996,1647.0,1435.0,1350.0,1528.0,1543.0,995.0,60.0,293.1,1649247288.5403965,1649247289.6553967,fd19e2b9-58aa-4aa0-9223-bbc47997dbbe
0.1112161173072382,0.3240014592014997,-0.0463973059504984,-0.2977215081037503,-0.2201573390266634,0.1851643828658658,-0.2786427470806336,-0.3019553888384945,-13.01719601004832,16.701603672108558,31.07787642673254,1.1944840127916116,1.0658903384442115,0.8243032689331151,7221.0830078125,11.624333333333333,7.989999999999999,-178.3256296685222,-10.456709130273502,70.53183614547032,1647.0,1435.0,1350.0,1528.0,1543.0,995.0,60.0,293.1,1649247289.7635448,1649247290.8854,fd19e2b9-58aa-4aa0-9223-bbc47997dbbe
0.1913574186565114,0.4555147088537055,-0.0272133575623505,-0.3817416916120266,-0.236501170341818,0.1160416883817215,-0.2847700404485531,-0.3136445815317812,-12.521873435615024,16.35907844527513,28.62459727938573,1.227227895133052,1.5889375977796916,0.8413415405877294,7227.17236328125,11.608555555555556,8.005555555555553,-178.761124047822,-10.505673807795937,66.90889055601149,1745.0,1435.0,1350.0,1528.0,1614.0,995.0,60.0,293.1,1649247291.6162689,1649247293.1516669,3434f362-3170-4446-858c-53b4db95c174
0.1807332725083132,0.4570925522386849,-0.0223877859248338,-0.3564567442990553,-0.2286645464022232,0.1062196123205038,-0.2869527242429199,-0.3154328044272871,-12.84917019410242,16.538386488394412,30.76648249266956,1.1497253444367694,1.5753843594304522,0.8303287492029654,7227.17236328125,11.608875,7.99,-179.07638926334678,-10.55327021818652,64.76045569094882,1745.0,1435.0,1350.0,1528.0,1614.0,995.0,60.0,293.1,1649247293.2842245,1649247294.3641632,3434f362-3170-4446-858c-53b4db95c174
0.1927511804166456,0.4709775742781811,-0.0117373416661723,-0.3729452118783312,-0.2262846321421678,0.1105981284873259,-0.2788531261389178,-0.3087401169824395,-12.732251804242765,16.849572585939942,31.23208756456419,1.199484683191749,1.6252180106387308,0.8031836490279046,7227.17236328125,11.605777777777778,8.0,-179.33606508703664,-10.614702599697036,63.17148010298211,1745.0,1435.0,1350.0,1528.0,1614.0,995.0,60.0,293.1,1649247294.4735286,1649247295.6008923,3434f362-3170-4446-858c-53b4db95c174
0.2645430584506011,0.5771138406092375,0.0188596752413003,-0.4161518358199298,-0.2229711600272928,0.0376097162211539,-0.2799839139996884,-0.3013505485065904,-12.833403350229826,17.013859948220862,30.096666240327345,1.135314231293303,2.041334810140471,0.7692975626338908,7230.560221354167,11.583444444444446,8.005555555555553,179.8938623514345,-10.64934418080248,60.03214378097629,1849.0,1435.0,1350.0,1528.0,1686.0,995.0,60.0,293.1,1649247297.732119,1649247298.8769376,6c73ec62-330e-40c7-a5d4-efd435e75ced
0.2639119210876335,0.562952696086525,0.0272879896001847,-0.405501389884596,-0.2127020271809978,0.0582268716904515,-0.2710427993593152,-0.2978003999663067,-13.146041771702413,17.44297943357148,32.51116953874227,1.161110806093564,1.9682652942681995,0.7324822440952414,7219.06103515625,11.586666666666666,8.023333333333333,179.71091497560582,-10.693096285623334,59.18351857953907,1849.0,1435.0,1350.0,1528.0,1686.0,995.0,60.0,293.1,1649247298.985565,1649247300.09842,6c73ec62-330e-40c7-a5d4-efd435e75ced
0.2693878049002512,0.5668907302424561,0.0270546002086204,-0.4124954021883711,-0.2137172162674688,0.0584882019943884,-0.2707496929970239,-0.2952117500544844,-13.158776840923784,17.35550842149888,32.18284743782828,1.1768246043027963,1.9868801963639984,0.7337448855528814,7205.571614583333,11.584888888888887,8.035555555555554,179.50953823157658,-10.73847473437656,58.263556605680506,1849.0,1435.0,1350.0,1528.0,1686.0,995.0,60.0,293.1,1649247300.2065876,1649247301.5318687,6c73ec62-330e-40c7-a5d4-efd435e75ced
0.3034490369152532,0.6795143598865382,0.0427129274910093,-0.4978629112811032,-0.2326132012942872,0.000270452151375,-0.2751188958727983,-0.2918076282360253,-12.443097419121935,17.152075211624346,28.46339474521972,1.237768181758658,2.448687066415911,0.7525756755248575,7196.83154296875,11.533333333333337,8.016666666666667,178.98568548953386,-10.775943349752218,56.633026905713336,1962.0,1435.0,1350.0,1528.0,1760.0,995.0,60.0,293.1,1649247303.6765645,1649247304.820135,1a989ab5-ecf3-4be5-bd50-a2fbf37ca1da
0.3431226965383564,0.697024881547692,0.0430542878097613,-0.5168400245311279,-0.2367095264500238,-0.0060510362486435,-0.2730328043792433,-0.3023265864407482,-12.120490097999122,16.81526790615677,27.531829042987667,1.2641688278308822,2.522687694175512,0.7557218865488409,7201.535047743056,11.534333333333333,8.002222222222223,178.83001940707,-10.819994844531694,56.14838627969564,1962.0,1435.0,1350.0,1528.0,1760.0,995.0,60.0,293.1,1649247304.9335663,1649247306.0383656,1a989ab5-ecf3-4be5-bd50-a2fbf37ca1da
0.3126935812164201,0.6918099068350583,0.0521390254777738,-0.5015789356107364,-0.2258901711846337,-0.0094757657533338,-0.2683867625089298,-0.2872419956368448,-12.396470744770532,17.08597233389241,28.36690948722264,1.2242888124050324,2.496381942791479,0.7223635658996886,7208.9375,11.536333333333332,8.02,178.67740262461564,-10.830067571146431,55.71675019836696,1962.0,1435.0,1350.0,1528.0,1760.0,995.0,60.0,293.1,1649247306.1470735,1649247307.262367,1a989ab5-ecf3-4be5-bd50-a2fbf37ca1da
-0.0921547706294966,-0.0471204839778989,-0.0679743170776373,-0.0936274250019831,-0.1528228590432131,0.3799886036589017,-0.2267448362693981,-0.244705957633972,-13.90689951169039,18.04113707541901,33.90067669862279,1.1797014563980095,-0.3712373935438263,0.6478046203754786,7214.335503472223,11.613444444444443,8.034444444444444,178.69263546428456,-10.81173088481841,54.85961306340409,1459.0,1435.0,1350.0,1528.0,1394.0,995.0,60.0,293.1,1649247309.205395,1649247310.3358357,7af88696-b62b-4d18-a1e4-65940de8780b
-0.0979796433979779,-0.0358257536192564,-0.1025159443039338,-0.1486284253516467,-0.1878378405554045,0.3863131259719124,-0.2499391395016924,-0.2678871123739439,-13.770904158905878,17.065183966374555,28.96481393307672,1.3090742819952168,-0.2815259081969553,0.7700225413657192,7227.17236328125,11.615555555555554,8.036666666666665,178.60807620454,-10.821318952593291,54.639389930180045,1459.0,1435.0,1350.0,1528.0,1394.0,995.0,60.0,293.1,1649247310.4440534,1649247311.775458,7af88696-b62b-4d18-a1e4-65940de8780b
-0.0881444180698341,-0.005425967123451,-0.123698495576752,-0.2201441912978454,-0.2259033203352252,0.4106645093678194,-0.2653888602982306,-0.2835998066611251,-13.2622057367334,17.074798008816472,27.15640578556277,1.5240939165777625,-0.1476183687572352,0.8735928799175947,7227.17236328125,11.619333333333332,8.04,178.52360042488527,-10.78506079852054,54.45465532151852,1459.0,1435.0,1350.0,1528.0,1394.0,995.0,60.0,293.1,1649247311.8837185,1649247313.0097344,7af88696-b62b-4d18-a1e4-65940de8780b
-0.2110715886583948,-0.2330299138155938,-0.1420803738143572,-0.061005509070627,-0.1803956777243448,0.4870584280695172,-0.2474145897238664,-0.2654283059151872,-14.12530979349146,17.492391746466428,27.143496849760577,1.3381998364426932,-1.0157999099093946,0.7841368747655943,7227.17236328125,11.59422222222222,8.02,178.53917780965233,-10.78367977221586,54.19780795505496,1364.0,1435.0,1350.0,1528.0,1312.0,995.0,60.0,293.1,1649247313.6159503,1649247314.844579,84292c26-078d-4ead-ac39-0a92e7d02705
-0.2195656473653309,-0.2406693071457955,-0.1210161607701524,-0.0331565683541977,-0.1594629513047647,0.4826404668059536,-0.2307157431497819,-0.2611812759136808,-14.029302714792411,17.95610088740126,29.23495410483469,1.2699562593591904,-1.0657539046874218,0.705283760143395,7233.2705078125,11.587555555555555,8.02111111111111,178.47290068958617,-10.789738624328354,54.02647341863511,1364.0,1435.0,1350.0,1528.0,1312.0,995.0,60.0,293.1,1649247314.9529352,1649247316.0755217,84292c26-078d-4ead-ac39-0a92e7d02705
-0.2078238604763179,-0.2405378204406113,-0.1264860194240323,-0.05424707832905,-0.1674705085261915,0.4996943240379998,-0.2331351038515454,-0.2539757897279019,-14.151379925737112,18.03355568377762,28.88631674794508,1.3559776463179205,-1.0590555061033582,0.72631311982556,7241.420247395833,11.595333333333334,8.006666666666668,178.46602193018208,-10.780867916143798,53.93002849136984,1364.0,1435.0,1350.0,1528.0,1312.0,995.0,60.0,293.1,1649247316.1831815,1649247317.3131664,84292c26-078d-4ead-ac39-0a92e7d02705
-0.3146964770052187,-0.437360687260492,-0.1382278053340215,0.0745575523289689,-0.1330603672874504,0.579086144810677,-0.2115054957859506,-0.2322278434015662,-14.25200665783497,18.90992761583487,29.645785894234407,1.249125302423613,-1.819867979472827,0.6426095551002543,7245.5,11.553,7.996666666666666,178.45031249509103,-10.785410561124287,53.83895019551745,1262.0,1435.0,1350.0,1528.0,1222.0,995.0,60.0,293.1,1649247319.2368662,1649247320.3713274,53ebc2c9-e8d1-4825-9c1f-5ff2f9ba2c93
-0.335313636162669,-0.4412527022290712,-0.1484048968813016,0.0775949011524323,-0.1400028793578175,0.5770349483654612,-0.2195524986754611,-0.2404194822473875,-14.22107269884274,18.677758366309423,29.142444787167143,1.235553982003936,-1.831246318780937,0.6763579197981522,7245.5,11.548777777777778,7.989999999999999,178.4378223558288,-10.741314290660256,53.76047891105307,1262.0,1435.0,1350.0,1528.0,1222.0,995.0,60.0,293.1,1649247320.4799583,1649247321.6162052,53ebc2c9-e8d1-4825-9c1f-5ff2f9ba2c93
-0.3281870415934405,-0.448931542649901,-0.1570041450013314,0.0170846006336182,-0.1570830371856108,0.6227924069376448,-0.2205517998064892,-0.2448505932318157,-14.533734270766134,19.143425096387418,26.617190035429584,1.4769723637021162,-1.828539564077486,0.707335106228376,7245.5,11.553555555555556,7.989999999999999,178.46460428647433,-10.744979540923612,53.7386925048755,1262.0,1435.0,1350.0,1528.0,1222.0,995.0,60.0,293.1,1649247321.7248237,1649247322.83171,53ebc2c9-e8d1-4825-9c1f-5ff2f9ba2c93
-0.4231863895979178,-0.5897278201486204,-0.1589633007514643,0.1309391609924991,-0.1260784090179715,0.6519430636968689,-0.2087442692441757,-0.2273496764317277,-14.688133925892016,20.088403728326032,26.08147687730996,1.2916534960714876,-2.364896500237568,0.6336753540864815,7245.5,11.497555555555556,7.975555555555555,178.52541270174504,-10.6836530747771,53.71022389695994,1153.0,1435.0,1350.0,1528.0,1121.0,995.0,60.0,293.1,1649247324.7697392,1649247325.8133724,1fddd548-1c83-4076-9108-1ab5eb51c968
-0.4097484192944026,-0.6021270449214525,-0.180303636694614,0.1308339711673902,-0.1480235846756959,0.6719027826657568,-0.2272181894656597,-0.2479405370879471,-14.577348356712948,20.42822822033565,27.019514626033533,1.3381383587675506,-2.4218331989107686,0.7187174242233386,7245.5,11.502333333333333,7.976666666666666,178.51764905338848,-10.685138546057836,53.679198901020015,1153.0,1435.0,1350.0,1528.0,1121.0,995.0,60.0,293.1,1649247325.9226005,1649247326.928748,1fddd548-1c83-4076-9108-1ab5eb51c968
-0.3470554238026747,-0.4748739269503827,-0.1833804318540597,0.0806848447784071,-0.1871935540685799,0.5918009328655964,-0.2674663535641929,-0.2936717089426318,-14.173048233565954,20.84730836043661,26.61895710985273,1.274027541646673,-1.937881557227578,0.8480708745890045,7245.5,11.497777777777776,7.975555555555555,178.57075453309525,-10.672687206064644,53.71080294521957,1153.0,1435.0,1350.0,1528.0,1121.0,995.0,60.0,293.1,1649247327.0366936,1649247328.3684208,1fddd548-1c83-4076-9108-1ab5eb51c968
0.0327709959835372,0.1974847108468679,-0.1013588587185534,-0.241957879884771,-0.2454685820779193,0.2504082107442726,-0.3080300871745277,-0.3401786549809415,-13.18363502503275,17.076054228053682,29.70247454618106,1.2147490538477284,0.5944001620429302,0.9585084958067924,7242.780164930556,11.621888888888888,8.024444444444445,178.34595934713175,-10.6770021780728,53.75334667573977,1553.0,1435.0,1350.0,1528.0,1471.0,995.0,60.0,293.1,1649247330.2960663,1649247331.4337404,e41afc76-ffc3-4374-91cb-fcfe3b3c380d
0.0162693819984243,0.1594718314057765,-0.0537211301596003,-0.2178431693884353,-0.1897706989679189,0.2826225142751671,-0.2521349727089166,-0.2798392787464427,-13.52579340854337,17.405037761838447,32.53868104386521,1.2375748027977431,0.4291697590977922,0.7373655607463945,7250.948784722223,11.623333333333331,8.028888888888888,178.3906166417451,-10.654684250368568,53.88070883373805,1553.0,1435.0,1350.0,1528.0,1471.0,995.0,60.0,293.1,1649247331.5436656,1649247332.6684391,e41afc76-ffc3-4374-91cb-fcfe3b3c380d
0.0098002233252193,0.1515694651189901,-0.0809257844135117,-0.2389994235048106,-0.211308266073803,0.280229451905627,-0.2666511351895238,-0.2914232819104843,-13.110573873814054,16.432131592587467,28.17980502862426,1.2716306562981448,0.4360885251227554,0.8178515407707495,7248.905490451389,11.618000000000002,8.02,178.43933865782458,-10.631395771756026,53.992046609033565,1553.0,1435.0,1350.0,1528.0,1471.0,995.0,60.0,293.1,1649247332.7761405,1649247333.8299944,e41afc76-ffc3-4374-91cb-fcfe3b3c380d
0.0259599712339671,0.1560926165135624,-0.0933250048592953,-0.4979761920335719,-0.2543176557257577,0.5437424526204653,-0.2124784994659673,-0.2379738246233309,-13.238103248309503,16.395166104662195,32.528331077356434,2.447734231944413,0.4465137497738495,0.820538864936545,7251.6298828125,11.61111111111111,8.044444444444444,178.45491907823126,-10.530933080575249,54.15676155378282,1553.0,1537.0,1350.0,1528.0,1471.0,995.0,60.0,293.1,1649247335.8250227,1649247336.963626,b179636c-6b7d-4404-83e2-fce48a0f20fb
0.0350720178458509,0.1673216027310435,-0.1025816876450172,-0.5301247644669457,-0.2674795025058313,0.5519603869876962,-0.2158840124134183,-0.2451267160211136,-13.02060200322366,16.03570118004271,31.00759014862556,2.5357435429797177,0.503933400149541,0.8551639691960414,7251.6298828125,11.61488888888889,8.03,178.51294532978005,-10.526669429849605,54.215174849384574,1553.0,1537.0,1350.0,1528.0,1471.0,995.0,60.0,293.1,1649247337.0718548,1649247338.194351,b179636c-6b7d-4404-83e2-fce48a0f20fb
0.0188728239335221,0.1524767251883552,-0.0984792943051128,-0.4932689580142401,-0.2595376890997722,0.5501853131728461,-0.2210645992503173,-0.2476249685716648,-13.533422489601538,16.745018139724547,33.50065448936082,2.4536627331981475,0.4255240955171753,0.8475243966856835,7251.6298828125,11.612222222222222,8.034444444444444,178.56855824782212,-10.517856019363087,54.3016545306508,1553.0,1537.0,1350.0,1528.0,1471.0,995.0,60.0,293.1,1649247338.304484,1649247339.4252326,b179636c-6b7d-4404-83e2-fce48a0f20fb
0.0388982884466622,0.1626012208575078,-0.126867331325602,-0.7812781023197948,-0.3191538863103704,0.8303577064036909,-0.1746628458289939,-0.1953325979721727,-13.58858518581593,16.257861631149236,37.11117868850401,3.728830393798887,0.4655397312091668,0.9053070833417444,7251.6298828125,11.608,8.03,178.55846626386847,-10.427803485114792,54.40795504143343,1553.0,1645.0,1350.0,1528.0,1471.0,995.0,60.0,293.1,1649247340.1261933,1649247341.26577,27d5465e-5309-4f58-9e37-3156ea41c384
0.0363079952819651,0.1655202314192538,-0.1238825768059113,-0.7852227117496312,-0.3148805591067157,0.8189577875863346,-0.1681673890599766,-0.1941360663979953,-13.293835792005304,15.794221700922964,35.42233555749392,3.709065580223575,0.490036826211268,0.884503023121641,7251.6298828125,11.601111111111113,8.03111111111111,178.6288900676707,-10.39810079482544,54.44965448468122,1553.0,1645.0,1350.0,1528.0,1471.0,995.0,60.0,293.1,1649247341.374054,1649247342.4956434,27d5465e-5309-4f58-9e37-3156ea41c384
0.0369522814313363,0.1473881799157696,-0.1121670876981638,-0.7677349378370336,-0.2993125004215651,0.8146844616359527,-0.1556235318171795,-0.1728877713945513,-13.238771728657891,15.910149450569422,34.670634474794625,3.661274457359527,0.426894733025695,0.8263595581329095,7250.267686631944,11.59888888888889,8.037777777777778,178.65311295410726,-10.41775475902589,54.50059745060575,1553.0,1645.0,1350.0,1528.0,1471.0,995.0,60.0,293.1,1649247342.6036313,1649247343.7273986,27d5465e-5309-4f58-9e37-3156ea41c384
0.0407128084940381,0.1613915409032371,-0.1577799189886934,-1.0254889717509672,-0.3770476064421214,1.0379098607562425,-0.1427509581875254,-0.1653404194953282,-13.082438671365578,15.733487937153376,34.4885316918586,4.740929025990194,0.508763768310728,0.9754444800381528,7244.820041232639,11.588444444444445,8.02222222222222,178.702103624294,-10.321982225938925,54.58446420505948,1553.0,1761.0,1350.0,1528.0,1471.0,995.0,60.0,293.1,1649247344.6358316,1649247345.7731674,12c4d6e8-97c6-4e61-9e91-31ed08a893cb
0.0356768578485424,0.1508068408136648,-0.1413571958277844,-0.9968379439915092,-0.3556415247982192,1.0305334425779806,-0.129720598724595,-0.1466035256696658,-13.298848794021543,15.886511303419752,35.82803302178988,4.661660271612575,0.4562405921775336,0.9059957572767732,7239.38037109375,11.582666666666666,8.025555555555554,178.73744605869928,-10.368598456751736,54.6325377326227,1553.0,1761.0,1350.0,1528.0,1471.0,995.0,60.0,293.1,1649247345.8813734,1649247347.001427,12c4d6e8-97c6-4e61-9e91-31ed08a893cb
