raw_voltage_G-,raw_voltage_G0,raw_voltage_G1,raw_voltage_G2,raw_voltage_G3,raw_voltage_G4,raw_voltage_G5,raw_voltage_G6,load_x,load_y,load_z,load_l,load_m,load_n,rpm,voltage,current,roll,pitch,yaw,aileron1_pwm,elevator_pwm,throttle_pwm,rudder_pwm,aileron2_pwm,pbaro,pdiff,Tt,sample_start_time,sample_end_time,uid
0.0899597330830996,0.2179951590308859,0.0989868186535977,-0.2024091254796545,-0.089014254890191,0.1811408821325182,-0.1543152361205272,-0.1795253348180517,-12.387579455509744,21.02270514725148,29.201322815310206,1.0063433478599886,0.6780327045800896,0.2545202643183083,3152.4189453125,11.965,0.23,179.63831917164748,-9.351889035165934,110.965295482589,1553.0,1435.0,1200.0,1528.0,1471.0,998.0,60.0,292.7,1649238683.1805294,1649238684.289199,4a238aa4-5df0-4da5-be20-2706691507d2
0.0538483562165456,0.2131448074928562,0.0984618822519617,-0.1988827459445203,-0.0875527266506051,0.1827450230157156,-0.1537827138737032,-0.1752019418538373,-12.437154821643594,20.982412838403008,29.216148715145223,1.0016775857953533,0.6595922837025104,0.2519337625844873,3490.3178439670137,11.968222222222222,0.2155555555555555,179.74815316696075,-9.33379140545886,110.08284794329175,1553.0,1435.0,1200.0,1528.0,1471.0,998.0,60.0,292.7,1649238684.398433,1649238685.5173664,4a238aa4-5df0-4da5-be20-2706691507d2
0.0556846222070549,0.2149482016733473,0.0992776071211838,-0.2011574706294639,-0.087459168622542,0.1820132475201746,-0.1532026540442374,-0.1716234732952957,-12.42467357886382,20.98232934279195,29.07093930783913,1.0051876097976686,0.6678865349668187,0.2498707522955856,3536.391357421875,11.96677777777778,0.21,179.82232598570744,-9.31429036160483,109.3226638257774,1553.0,1435.0,1200.0,1528.0,1471.0,998.0,60.0,292.7,1649238685.6261845,1649238686.745819,4a238aa4-5df0-4da5-be20-2706691507d2
0.1960343086422052,0.4030630467751989,0.1240957708461669,-0.2795945101323113,-0.1069799264083427,0.0716527023043732,-0.1715349724248461,-0.1979461543103808,-12.002115122371476,20.55960519104585,29.3446775912684,0.9328173030690045,1.3792381251318306,0.2916594115030829,3549.244873046875,11.962333333333332,0.2166666666666666,179.76687243874605,-9.313285659750669,108.34138496700994,1647.0,1435.0,1200.0,1528.0,1543.0,998.0,60.0,292.7,1649238687.8605397,1649238689.0046656,8ba9cb78-ab98-43fd-a84e-34c42f5eaf0c
0.2034936648636041,0.4061605759289036,0.1280783085648526,-0.2828311127124992,-0.103857110866192,0.0712228410923129,-0.1677041500097799,-0.1978450105701637,-12.010250212719711,20.538505967049705,29.321730942427617,0.9392030116373709,1.3917673053593291,0.2768401404090482,3549.244873046875,11.951222222222222,0.2011111111111111,179.73671184119107,-9.279708449790885,107.82653061974372,1647.0,1435.0,1200.0,1528.0,1543.0,998.0,60.0,292.7,1649238689.1358287,1649238690.2280755,8ba9cb78-ab98-43fd-a84e-34c42f5eaf0c
0.1989674792242335,0.4029239740382456,0.1263335777546543,-0.2818702463142816,-0.104640975503144,0.0736755786508893,-0.1683236559473997,-0.193293538135149,-12.011278809315062,20.518794123924355,29.336494088644294,0.94233144867137,1.3792752710435203,0.2808130856895072,3549.7349446614585,11.954333333333333,0.21,179.70933947863728,-9.254205092612487,107.4676489545441,1647.0,1435.0,1200.0,1528.0,1543.0,998.0,60.0,292.7,1649238690.3361156,1649238691.4574916,8ba9cb78-ab98-43fd-a84e-34c42f5eaf0c
0.2548494355959845,0.5561947725972449,0.1491415079771213,-0.3531513626353472,-0.1209883459606153,-0.0158999152616418,-0.1819780724696722,-0.1959485635356547,-11.646833266882796,20.38220792201308,28.65602374067116,0.9021413058978034,1.96780530493404,0.3087020180178915,3553.986762152778,11.941444444444445,0.2022222222222222,179.48818706023113,-9.201430592489263,106.6891591711442,1745.0,1435.0,1200.0,1528.0,1614.0,998.0,60.0,292.7,1649238693.3916404,1649238694.7421484,949b88d3-e1fa-4bd4-b75e-1212188ca665
0.2541287859486324,0.5575349280496523,0.1541228408380018,-0.3537708686219385,-0.1168035202448814,-0.0182515090602137,-0.1785897542755523,-0.1994759544946909,-11.714572533970957,20.45708384905844,28.459103490812108,0.8989333246067995,1.9754497780093023,0.2911886721830229,3550.715087890625,11.939666666666666,0.21,179.40498169576207,-9.153767160867451,106.41070677797104,1745.0,1435.0,1200.0,1528.0,1614.0,998.0,60.0,292.7,1649238694.8733685,1649238695.9633362,949b88d3-e1fa-4bd4-b75e-1212188ca665
0.2486796630807806,0.5544626848899121,0.1491667939258094,-0.3505469089211631,-0.1199263358164918,-0.0188963009389915,-0.1835331588007847,-0.2001333895547624,-11.789966093183088,20.41860863925625,28.32437323956128,0.8896506651094443,1.9649429482419616,0.3086656196213224,3550.715087890625,11.938,0.2,179.32889794186755,-9.11855611273996,106.1844977428494,1745.0,1435.0,1200.0,1528.0,1614.0,998.0,60.0,292.7,1649238696.0715148,1649238697.1336813,949b88d3-e1fa-4bd4-b75e-1212188ca665
0.3269017580151775,0.6774914837329722,0.1781318536599874,-0.3944812626637224,-0.1253248874212455,-0.1091798045773531,-0.1939636159542015,-0.22176552558472,-11.636546285592187,20.85867472792103,26.94139756735997,0.7900930068215387,2.444800108477092,0.303864216268788,3552.1865234375,11.92388888888889,0.1988888888888889,179.08939659971116,-9.058759134648836,105.70553300403198,1849.0,1435.0,1200.0,1528.0,1686.0,998.0,60.0,292.7,1649238699.330557,1649238700.4686675,6b4a2d00-a883-4632-87f1-132a8f7fbe97
0.34605586708141,0.6798683632074609,0.179459366223378,-0.3939881864590583,-0.1252743154949162,-0.1116704712305634,-0.1932176801999457,-0.2138004490974973,-11.525074517872431,20.88886519080499,26.98994619271573,0.7837139756484457,2.4525195576201915,0.3013496998657994,3550.715087890625,11.915,0.2,179.04778101600817,-9.02192942655179,105.52659343142624,1849.0,1435.0,1200.0,1528.0,1686.0,998.0,60.0,292.7,1649238700.5776663,1649238701.9023275,6b4a2d00-a883-4632-87f1-132a8f7fbe97
0.3247398090684265,0.6820808839945585,0.1745791772080391,-0.3969845726180829,-0.1294085693065896,-0.1120750465164773,-0.1971622894673627,-0.2216517387666651,-11.536717412937463,20.73666997226411,26.81639536631352,0.7882785069516044,2.46249539809682,0.319300207041994,3546.307861328125,11.91311111111111,0.2,178.98425266762797,-9.013263149723644,105.35097560748687,1849.0,1435.0,1200.0,1528.0,1686.0,998.0,60.0,292.7,1649238702.0109768,1649238703.1302226,6b4a2d00-a883-4632-87f1-132a8f7fbe97
0.4040638647491278,0.7884659636911109,0.1950127561143946,-0.4354146799054412,-0.1397925000515679,-0.1853001415903746,-0.2107165737924921,-0.234384229642266,-11.355425002279231,21.227164153594376,26.2145353441972,0.7146851667710752,2.8715905227886247,0.336500942204034,3546.307861328125,11.896333333333333,0.1933333333333333,178.87270505374298,-8.975893951545904,105.0531178879718,1962.0,1435.0,1200.0,1528.0,1760.0,998.0,60.0,292.7,1649238704.232375,1649238705.2908428,0a0e3439-70bd-4f15-9121-a42536d09aa6
0.4178806147951376,0.7872578009084413,0.1968434591432333,-0.4375432518973258,-0.13660242380953,-0.1832676562796075,-0.2062273049887228,-0.2378094655557863,-11.327226544287964,21.047848154970684,26.082963550594588,0.7229496400064264,2.8684008020305547,0.3230116237761273,3540.9363606770835,11.864,0.19,178.85971858740106,-8.964634669290351,104.81511539288329,1962.0,1435.0,1200.0,1528.0,1760.0,998.0,60.0,292.7,1649238705.4245653,1649238706.6122663,0a0e3439-70bd-4f15-9121-a42536d09aa6
0.4170679242844309,0.785967711640182,0.1977082387380887,-0.4359669252927719,-0.136649961416453,-0.183761743926506,-0.2064432470828466,-0.2257586839405843,-11.302881035627196,21.18150416938477,26.04016262935749,0.719218066787341,2.863632224455312,0.3219645614756534,3538.0132649739585,11.859333333333334,0.1833333333333333,178.8210506097799,-8.945949548450919,104.57841063373702,1962.0,1435.0,1200.0,1528.0,1760.0,998.0,60.0,292.7,1649238706.7211263,1649238707.8384016,0a0e3439-70bd-4f15-9121-a42536d09aa6
-0.0661304651444601,-0.0003111240931593,0.068542529947588,-0.1233778687844417,-0.0700624312272117,0.3239559445471875,-0.1309257266580822,-0.1518751413384201,-12.797573405999517,21.54420385182342,29.409935313795323,1.1507607388685053,-0.1513472777306243,0.2109757830956602,3543.3770345052085,11.900666666666668,0.1966666666666666,179.26621501912462,-8.903667831576389,104.32876038938387,1459.0,1435.0,1200.0,1528.0,1394.0,998.0,60.0,292.7,1649238708.751744,1649238709.8846004,82a9944c-5f45-484b-9503-efc42b7a8f5d
-0.0574194535393782,-5.8264546693704375e-05,0.0729296429985027,-0.1238583019473308,-0.0657891047597203,0.3233870106098324,-0.125577746961592,-0.14241819372188,-12.722635917369328,21.486907138915832,29.33919997409534,1.1504310759636174,-0.1499660648210176,0.1915633951862419,3553.331922743056,11.959555555555555,0.2022222222222222,179.2372671596023,-8.877243347497423,104.29314702414156,1459.0,1435.0,1200.0,1528.0,1394.0,998.0,60.0,292.7,1649238709.9927092,1649238711.1251352,82a9944c-5f45-484b-9503-efc42b7a8f5d
-0.0646006648533988,0.000194595005769,0.0687195316288639,-0.1208366302163863,-0.0694429253133649,0.3221606419118724,-0.1311027283462142,-0.1489672565034912,-12.79733487503864,21.51974893517653,29.55802439963116,1.1408644677636333,-0.1510667963669126,0.2104452776004177,3564.4969075520835,11.959666666666664,0.21,179.18924789409746,-8.853033362529361,104.24577586769792,1459.0,1435.0,1200.0,1528.0,1394.0,998.0,60.0,292.7,1649238711.2551925,1649238712.2952378,82a9944c-5f45-484b-9503-efc42b7a8f5d
-0.1754669386670072,-0.1922947427668964,0.0443185857324947,-0.0545115686806863,-0.0530323403056082,0.4464790267440867,-0.1094832360365807,-0.1248191683884716,-13.072254480002025,22.174472163652744,29.084467127894207,1.273522748541551,-0.8765777268919096,0.1667345276477027,3568.784152560764,11.953888888888889,0.2,179.22717214000903,-8.827663858085948,104.15201482532156,1364.0,1435.0,1200.0,1528.0,1312.0,998.0,60.0,292.7,1649238713.2562902,1649238714.3941152,f371e99b-353d-4028-a592-64c84bc7af9f
-0.1400160278708539,-0.1927625329709401,0.0448243048206515,-0.0525898360815515,-0.0518818293407658,0.4454170167512963,-0.109748738568349,-0.1308498687887385,-13.153600406158215,22.18530126862295,29.121106314085303,1.2668631742796213,-0.8782855731534447,0.1648067503522725,3572.491071428572,11.936285714285717,0.2,179.23089643617362,-8.81112234604085,104.02990383601446,1364.0,1435.0,1200.0,1528.0,1312.0,998.0,60.0,292.7,1649238714.502261,1649238716.0297413,f371e99b-353d-4028-a592-64c84bc7af9f
-0.1549094560869443,-0.1982369426057104,0.0442553708519675,-0.0490371593676948,-0.0510726787701176,0.4470732466208427,-0.1089016590466363,-0.1286752767507547,-13.11117411438052,22.17175785554147,29.06012868380713,1.26246450177704,-0.8990514849739777,0.1625920875933515,3571.427490234375,11.941555555555558,0.2,179.2123324156723,-8.810808943352864,103.90570757911216,1364.0,1435.0,1200.0,1528.0,1312.0,998.0,60.0,292.7,1649238716.1378334,1649238717.2644875,f371e99b-353d-4028-a592-64c84bc7af9f
-0.2898100370696054,-0.395834061437128,0.0175786888479863,0.0274528541088374,-0.0386319888205073,0.5633001250864087,-0.0970551887767892,-0.1176758857286549,-13.560738130415574,23.365982225598405,28.003879968400483,1.3572927520535032,-1.6387058733036102,0.1396109540559655,3575.5661349826387,11.932555555555556,0.1977777777777777,179.26692535879832,-8.781499273532,103.6421237488522,1262.0,1435.0,1200.0,1528.0,1222.0,998.0,60.0,292.7,1649238719.196175,1649238720.270292,b3e12c57-433b-4bf9-a741-24cb26372a4f
-0.2828311127082134,-0.3885390621978949,0.0185774840449583,0.0180591219873663,-0.0387837045663294,0.5629081928311293,-0.0947794527808855,-0.1140094222426994,-13.51366364577777,23.177704286869268,27.74937488313296,1.3763867287762797,-1.6082060056082113,0.1357675320639942,3571.262993706597,11.904777777777776,0.19,179.28043091951716,-8.758142208436542,103.45548427632215,1262.0,1435.0,1200.0,1528.0,1222.0,998.0,60.0,292.7,1649238720.3782597,1649238721.4257677,b3e12c57-433b-4bf9-a741-24cb26372a4f
-0.2899506270071914,-0.3959948801390281,0.0177551848063107,0.0256049565501828,-0.0371932179813806,0.5641097812671758,-0.0951526734735627,-0.1214237701353941,-13.57437100128215,23.208595556646724,27.864735311635087,1.3622169719271917,-1.6377432800521583,0.1345250840506424,3569.7750379774307,11.90277777777778,0.1911111111111111,179.2704740215271,-8.756396715648652,103.29791940126906,1262.0,1435.0,1200.0,1528.0,1222.0,998.0,60.0,292.7,1649238721.5353117,1649238722.5865612,b3e12c57-433b-4bf9-a741-24cb26372a4f
-0.3004807113358803,-0.4739676774845719,0.008033240959305,0.0691114638809261,-0.0325760025770385,0.5941237004468223,-0.0973459772730596,-0.1209251310654574,-13.834657236743936,24.02432084489165,26.91210554533989,1.336162811902922,-1.9258623690855785,0.1336974857391939,3548.789469401041,11.895,0.1966666666666666,179.30351240545235,-8.713350302178291,102.89639686508109,1153.0,1435.0,1200.0,1528.0,1121.0,998.0,60.0,292.7,1649238724.72658,1649238725.863822,b0521804-4f15-4c96-90ab-b53cc0d3bc9e
-0.332113445099159,-0.4668496796464222,0.0051127131542888,0.0589970821558088,-0.0391756369008855,0.5916330341843644,-0.1027571718522466,-0.1268420447902651,-13.84106292513844,24.1505900534557,26.192353054567587,1.3539551932697929,-1.8916787710001328,0.1540729595768953,3490.666069878472,11.866666666666667,0.19,179.30110362540506,-8.700236813290559,102.67259357436708,1153.0,1435.0,1200.0,1528.0,1121.0,998.0,60.0,292.7,1649238725.9728148,1649238727.0946524,b0521804-4f15-4c96-90ab-b53cc0d3bc9e
-0.2934512150874871,-0.449933372244483,0.0089688212672929,0.0594775153400226,-0.0377596233969611,0.5770051110155346,-0.1020997369823719,-0.1201412664848765,-13.682494727258844,23.97039882845426,26.55052424453033,1.319134969989998,-1.832346852999012,0.148693051678401,3447.5738118489585,11.867222222222225,0.1844444444444444,179.2954482287723,-8.67906626250315,102.45402448528702,1153.0,1435.0,1200.0,1528.0,1121.0,998.0,60.0,292.7,1649238727.2027493,1649238728.3488283,b0521804-4f15-4c96-90ab-b53cc0d3bc9e
0.08244980473064,0.206477407349318,0.0934744806892392,-0.1962393520263911,-0.0899751211949764,0.1781318536779681,-0.1593471414211018,-0.1830906546693282,-12.575216013500686,20.95334353966337,27.938913131466546,0.9846341908692342,0.6462406233178926,0.267284462362344,3425.829833984375,11.875666666666667,0.1922222222222222,179.06516460635578,-8.642342706929453,102.2138955246369,1553.0,1435.0,1200.0,1528.0,1471.0,998.0,60.0,292.7,1649238729.2318013,1649238730.3776302,08c16ad6-22c9-4d35-bdf7-05ca82a96126
0.0684793150525395,0.2108771632098924,0.0961295058524556,-0.1999816736273016,-0.0883315340855426,0.1791306488340717,-0.1550991007708722,-0.1718257609947849,-12.43841045883147,20.83712442894361,28.23092340327265,0.9947975621627292,0.6598131303948475,0.2564332235273782,3434.531494140625,11.965333333333335,0.2166666666666666,178.9743838031872,-8.619806592626734,102.37730021143038,1553.0,1435.0,1200.0,1528.0,1471.0,998.0,60.0,292.7,1649238730.5093062,1649238731.595393,08c16ad6-22c9-4d35-bdf7-05ca82a96126
0.0606027403281929,0.2141390511714279,0.0953203553318389,-0.2009172540387545,-0.0892418284809717,0.1805593051996423,-0.1559841092295265,-0.1697270265601098,-12.47675587913188,20.797902516725465,28.75972955379909,0.999883079524879,0.6676950263173874,0.2611577036045394,3473.9686686197915,11.96622222222222,0.2055555555555555,178.92739361951735,-8.619048441628863,102.5322612665899,1553.0,1435.0,1200.0,1528.0,1471.0,998.0,60.0,292.7,1649238731.7043612,1649238733.033159,08c16ad6-22c9-4d35-bdf7-05ca82a96126
0.0697056838229193,0.211926530268458,0.0831451684619131,-0.4063530205476503,-0.1218354254805491,0.3835170056237062,-0.1099004543007882,-0.1402562444905166,-12.333798010495135,20.30176378781846,30.54574892382163,1.9158303454958472,0.6670687463456912,0.2572878014993376,3504.9801635742188,11.9635,0.20875,178.89027173110577,-8.565433413208869,102.68039896276858,1553.0,1537.0,1200.0,1528.0,1471.0,998.0,60.0,292.7,1649238733.6795063,1649238734.8770406,26205cdc-1ae0-4f7f-af8b-cd2a7f549a76
0.0682390985043525,0.2136206891304831,0.0872541359940877,-0.4048358629829207,-0.1174230261793579,0.3800275441935519,-0.105740914582645,-0.1199516218388062,-12.296300359074795,20.217779870999184,30.516939478628203,1.904228866571049,0.673485078094881,0.2399930351779393,3513.999782986112,11.950333333333331,0.21,178.86520247039468,-8.574581823129833,102.77165863808894,1553.0,1537.0,1200.0,1528.0,1471.0,998.0,60.0,292.7,1649238734.9875374,1649238736.1025076,26205cdc-1ae0-4f7f-af8b-cd2a7f549a76
0.0637002697256235,0.2089048588603027,0.084143963649392,-0.4039634973822208,-0.1197999060278077,0.3828595708601111,-0.1084085829100251,-0.1252743156318231,-12.335918075067774,20.27839535403957,30.354198371075327,1.9088260426841284,0.6572170749450609,0.2504230477220335,3523.4698350694443,11.959666666666667,0.2011111111111111,178.83431483714804,-8.584769240004384,102.87406821777438,1553.0,1537.0,1200.0,1528.0,1471.0,998.0,60.0,292.7,1649238736.224296,1649238737.338874,26205cdc-1ae0-4f7f-af8b-cd2a7f549a76
0.0817544409859004,0.2109656640461734,0.0735997207771529,-0.6169597902540372,-0.1541382344285294,0.5913169597906202,-0.0623502148438818,-0.0762574904101125,-12.262454162832675,20.00720040555285,32.531174311840005,2.855786267065864,0.6706832595563683,0.2476036511382867,3536.06689453125,11.9525,0.2,178.77289322267185,-8.541247606636148,103.05818697104571,1553.0,1645.0,1200.0,1528.0,1471.0,998.0,60.0,292.7,1649238739.268118,1649238740.6098945,db5417d2-aac9-4a96-95b6-91dcc557fd5b
0.0881138584307692,0.21241960635463,0.0732330744470475,-0.6217514802229087,-0.1550864577814756,0.5930490474935612,-0.0615157783077692,-0.0843489963080195,-12.2140152198562,19.94640446704117,32.35504907473879,2.870062405393351,0.6779202669195181,0.248151215464683,3536.06689453125,11.953555555555557,0.2088888888888888,178.76461047993837,-8.535775154723021,103.10486106873904,1553.0,1645.0,1200.0,1528.0,1471.0,998.0,60.0,292.7,1649238740.7184956,1649238741.8392477,db5417d2-aac9-4a96-95b6-91dcc557fd5b
0.0778477610875814,0.2145815553506478,0.0730055008614698,-0.6237111423517893,-0.1569070466332046,0.5940351996174422,-0.0618192097653549,-0.0769275682617997,-12.121020108504888,20.000251361078536,32.53654847024682,2.8771203078765577,0.6839898316170099,0.2519164892854862,3536.06689453125,11.95,0.2,178.75665710410482,-8.551024026363768,103.17319862920482,1553.0,1645.0,1200.0,1528.0,1471.0,998.0,60.0,292.7,1649238741.947284,1649238743.06744,db5417d2-aac9-4a96-95b6-91dcc557fd5b
0.0845991108286366,0.2242913613634391,0.0629543340558284,-0.7259296510560874,-0.1839630200712125,0.6861013503419102,-0.0537403470713449,-0.0754104108050756,-12.21490240103054,20.40131665784497,33.58351673418275,3.316863017535158,0.7237476278842798,0.2924909946152617,3573.5789388020835,11.946666666666664,0.1977777777777777,178.75545043735144,-8.527573615349654,103.27654470371644,1553.0,1761.0,1200.0,1528.0,1471.0,998.0,60.0,292.7,1649238745.2065048,1649238746.3454316,f2be99f0-fca3-42d9-be81-754408e00d88
0.1038037928688919,0.221307618890761,0.0617026793178967,-0.72533543117636,-0.1845825260145415,0.6900838877674935,-0.0542081372418397,-0.0734128206305558,-12.25070326795471,20.429612230566136,33.804943772463595,3.324614422649948,0.7106956374453625,0.2956267917287743,3579.0501844618057,11.936333333333334,0.1944444444444444,178.75932998480005,-8.542713393691155,103.29456198383704,1553.0,1761.0,1200.0,1528.0,1471.0,998.0,60.0,292.7,1649238746.4537354,1649238747.5745552,f2be99f0-fca3-42d9-be81-754408e00d88
0.0938790559489833,0.2223443429670073,0.0673540900839945,-0.727269807384235,-0.1792471891764012,0.6880483686401205,-0.0479498633170618,-0.0689498491995254,-12.19791967781816,20.36426907577429,33.45333514277124,3.324222574508021,0.7179220164376174,0.2714222273488591,3581.874755859375,11.932444444444444,0.1922222222222222,178.75402824018423,-8.551198955097512,103.29451189578312,1553.0,1761.0,1200.0,1528.0,1471.0,998.0,60.0,292.7,1649238747.6831148,1649238748.811759,f2be99f0-fca3-42d9-be81-754408e00d88
0.0776834023866152,0.2162630712369327,0.059591302147148,-0.7434907537631366,-0.1933693959527339,0.712032093984345,-0.0564080153464454,-0.0718703771505956,-12.29800970135338,21.07099755856784,33.821706127345095,3.419014479775155,0.6940741118893285,0.3125627679289207,3578.55162217882,11.924444444444443,0.1933333333333333,178.7663028490327,-8.545663086775216,103.27758516920002,1553.0,1887.0,1200.0,1528.0,1471.0,998.0,60.0,292.7,1649238749.7120705,1649238750.8498948,dca8b0c8-ecf7-46a6-8254-44b87954e666
0.089732159490885,0.2217374800966434,0.0595913021461386,-0.7354371737707729,-0.1920924551310585,0.6985546816323592,-0.0591009695801309,-0.0790010166723316,-12.297972775047985,20.92021054796279,33.7140789086923,3.3695453082375884,0.7145659841696167,0.3153008528881632,3576.394938151041,11.893333333333334,0.18,178.79495018023155,-8.568739829523487,103.17355228122184,1553.0,1887.0,1200.0,1528.0,1471.0,998.0,60.0,292.7,1649238750.9576886,1649238752.0796523,dca8b0c8-ecf7-46a6-8254-44b87954e666
0.1120975857671835,0.216907863043499,0.0589591532713877,-0.7175094247715952,-0.1892983569453967,0.6837118278909666,-0.063968516001741,-0.0902153378343508,-12.42508427384405,20.95496682733685,33.25752211214184,3.2958129889087933,0.6991513240967877,0.3181129457724854,3562.521240234375,11.897,0.18,178.8052956400944,-8.578701375836737,103.10337891768911,1553.0,1887.0,1200.0,1528.0,1471.0,998.0,60.0,292.7,1649238752.1883323,1649238753.3137662,dca8b0c8-ecf7-46a6-8254-44b87954e666
0.074674373819325,0.2167561473245096,0.1103654979124857,-0.0361792511703728,-0.0638800151386157,0.0204739306572383,-0.1935337546707629,-0.210639704463046,-12.613790590205854,21.8598554273386,27.83371849856892,0.2761136650521068,0.6673768563311013,0.2594918791170144,3503.3087565104165,11.908888888888889,0.1844444444444444,178.80969579973967,-8.780613435942145,102.92903758021464,1553.0,1335.0,1200.0,1528.0,1471.0,998.0,60.0,292.7,1649238755.2420714,1649238756.3810508,b6ea7118-a024-4ebf-b582-4b23d8c3a951
0.0859266234198534,0.2153274909712752,0.1097965639533401,-0.0344471632455219,-0.062982363722497,0.0191084891100171,-0.1929268917069334,-0.2167589060381769,-12.58920842790719,21.734791363946,27.6689706095324,0.2682668879531767,0.6630532507919844,0.2578591981758456,3498.2240939670137,11.964666666666666,0.2077777777777777,178.77082595208304,-8.784558534233998,103.1229458918414,1553.0,1335.0,1200.0,1528.0,1471.0,998.0,60.0,292.7,1649238756.4899824,1649238757.6099305,b6ea7118-a024-4ebf-b582-4b23d8c3a951
0.0475299019477406,0.2135701172248916,0.1103654979226353,-0.0339667300970935,-0.0615410642581851,0.0193360627007326,-0.1919533823619641,-0.2147866015707808,-12.632650063876062,21.703128680613773,27.5260663206716,0.267468322898469,0.6580124358934072,0.253307138046469,3498.541259765625,11.96622222222222,0.2,178.74849275131697,-8.792524147489786,103.30277870140856,1553.0,1335.0,1200.0,1528.0,1471.0,998.0,60.0,292.7,1649238757.718068,1649238759.0424073,b6ea7118-a024-4ebf-b582-4b23d8c3a951
0.0389326774459353,0.2165285737460249,0.1270036555365448,0.1698001320158063,-0.0288463242019196,-0.1815102822587169,-0.2371773164070173,-0.2521845322624095,-12.772110063154807,22.63623665263115,25.940720839083188,-0.6368171086263825,0.6601289204001279,0.249913463765062,3496.004692925347,11.965,0.2077777777777777,178.75138116242596,-8.85729891052977,103.48755884466456,1553.0,1236.0,1200.0,1528.0,1471.0,998.0,60.0,292.7,1649238759.6806183,1649238760.7353413,0b4408b4-f1a2-4f4e-9aa3-5510de74a51c
0.0760903872749097,0.2180078020078469,0.1256129280806576,0.1724045852223776,-0.0298451194255387,-0.1832297273060184,-0.2396932691528786,-0.263601141884778,-12.829884493539224,22.638197168211725,26.228335352206987,-0.6465954267790942,0.6631279233963242,0.2573180242979336,3495.687744140625,11.964,0.2,178.73918699802775,-8.852947890300996,103.62677934942684,1553.0,1236.0,1200.0,1528.0,1471.0,998.0,60.0,292.7,1649238760.845666,1649238761.909125,0b4408b4-f1a2-4f4e-9aa3-5510de74a51c
0.0497929948520349,0.2175779408047069,0.1250313511378847,0.1699518477373128,-0.029402615224266,-0.1824964345689672,-0.2376956785393183,-0.2582152331203461,-12.748396363320731,22.44956131775816,25.959077704884145,-0.6406961959152038,0.6635872697777606,0.2543450505783013,3495.687744140625,11.963,0.21,178.73998537125073,-8.8527775150267,103.71694619448,1553.0,1236.0,1200.0,1528.0,1471.0,998.0,60.0,292.7,1649238762.0187724,1649238763.1381576,0b4408b4-f1a2-4f4e-9aa3-5510de74a51c
0.0451656651995595,0.2241396456441168,0.1404304969507162,0.3104026738967862,-0.0071636178536682,-0.3168407263135218,-0.2673813925685101,-0.2933121422852532,-12.754233140022656,23.42033012782285,26.09389893976529,-1.252187738994094,0.6707442309065653,0.2471432359777291,3543.2310384114585,11.951444444444444,0.1977777777777777,178.75363664267186,-8.8924244864289,103.90154116371848,1553.0,1133.0,1200.0,1528.0,1471.0,998.0,60.0,292.7,1649238765.2770813,1649238766.4153423,bc1f91c9-f06d-47ee-a56b-9797edccf030
0.0322318995161465,0.2268705285813971,0.1360686699405545,0.3259408917887058,-0.0095404976095281,-0.3334156720191323,-0.2777107062937456,-0.295524663681552,-12.903358022967858,23.452964027068035,26.095890567499925,-1.3245598717912008,0.6798354694741783,0.2713848308344094,3581.879638671875,11.943,0.1911111111111111,178.75631104118688,-8.890568192794472,103.95606125149334,1553.0,1133.0,1200.0,1528.0,1471.0,998.0,60.0,292.7,1649238766.5241234,1649238767.647721,bc1f91c9-f06d-47ee-a56b-9797edccf030
0.0424474250834627,0.2273383187139021,0.1370421791334045,0.3210859888767091,-0.0098439290945414,-0.3281688357090394,-0.2746384625006624,-0.2975728264888685,-12.772852353793905,23.442331469845342,26.286291156460305,-1.3017440245850729,0.6796380416577763,0.2664751019526655,3592.384521484375,11.947,0.19,178.75902793865671,-8.905121238913523,103.99009001284826,1553.0,1133.0,1200.0,1528.0,1471.0,998.0,60.0,292.7,1649238767.7601025,1649238768.8065355,bc1f91c9-f06d-47ee-a56b-9797edccf030
0.0671391594894618,0.2209789015021,0.1395581315331793,0.3791804647565466,-0.0047740951444547,-0.3766040895920012,-0.2911628358714097,-0.314691419826977,-12.871929998212517,24.13247362446632,26.058304669921867,-1.5370173137674898,0.651526775202028,0.2787332698353489,3610.54150390625,11.932333333333334,0.1833333333333333,178.7923228341308,-8.920445337498876,104.04571051998938,1553.0,1026.0,1200.0,1528.0,1471.0,998.0,60.0,292.7,1649238770.8091755,1649238771.9471729,16128a8b-ed53-4d4b-bf72-599e492ae5e4
0.0551409741912516,0.2229259198877717,0.1421625847470066,0.3807355507524882,-0.0014995640120055,-0.3803464118203113,-0.2881032350241301,-0.3216197724346341,-12.820407777546851,23.99873167334842,26.024234551890068,-1.5496711076769318,0.6587379548088166,0.2666589565201002,3609.021484375,11.937111111111111,0.1888888888888888,178.79824688487096,-8.940606632972681,104.06113384604518,1553.0,1026.0,1200.0,1528.0,1471.0,998.0,60.0,292.7,1649238772.05583,1649238773.1802015,16128a8b-ed53-4d4b-bf72-599e492ae5e4
0.0704263335397715,0.2268958145321861,0.1407845002833852,0.3816711310640413,-0.0039523016123196,-0.3861368962312536,-0.2922248461117113,-0.3165372947714492,-12.84815144301534,24.06583692440967,25.85477807255057,-1.5644582876569868,0.6751243096391881,0.2779490650459646,3609.865939670138,11.929222222222222,0.1855555555555555,178.80711702387305,-8.930893060471798,104.06089782506388,1553.0,1026.0,1200.0,1528.0,1471.0,998.0,60.0,292.7,1649238773.2928336,1649238774.402427,16128a8b-ed53-4d4b-bf72-599e492ae5e4
0.0983673127938748,0.2197019608693672,0.0998591840714773,-0.2146854575603012,-0.0883441770561993,0.1943401497792331,-0.1482592495889342,-0.178867900009926,-12.35228485827142,20.82475404254558,29.736958676592245,1.0625306081518733,0.6810005410297233,0.2447563050335102,3602.4501953125,11.947444444444445,0.1944444444444444,178.82592432920762,-8.731936669865972,104.0416055762982,1553.0,1435.0,1200.0,1528.0,1471.0,998.0,60.0,292.7,1649238775.314463,1649238776.4502945,4ceb1e95-7110-4bae-9447-d89121355e38
0.0751295210062344,0.2155803505031357,0.0973938035503035,-0.211006350820528,-0.0887487523560385,0.1951240143328492,-0.1504464848119247,-0.1800184109035131,-12.453538020569784,20.79880445527228,29.73884368773195,1.0556474428273894,0.6656322255699009,0.2512581367014392,3592.7181260850693,11.964000000000002,0.1988888888888889,178.8186524544713,-8.748209880154743,104.0546762816399,1553.0,1435.0,1200.0,1528.0,1471.0,998.0,60.0,292.7,1649238776.5589492,1649238777.6794307,4ceb1e95-7110-4bae-9447-d89121355e38
0.0850036860850874,0.2190950979932068,0.099302893078852,-0.2146475286228997,-0.0878637439045684,0.1954021598155962,-0.1474627419735696,-0.1695626679783032,-12.343262241921884,20.719318273553444,29.810468249509785,1.0641211416927283,0.6779673390557449,0.2438063298342351,3587.3728841145835,11.965666666666667,0.1955555555555555,178.81416274345688,-8.751992287135117,104.0801111471991,1553.0,1435.0,1200.0,1528.0,1471.0,998.0,60.0,292.7,1649238777.7885478,1649238778.9109774,4ceb1e95-7110-4bae-9447-d89121355e38
0.086596701201022,0.2329644432755895,0.1885243805074634,-0.2245975527129683,-0.0090979933985525,0.1864762182906792,-0.0564459442653509,-0.0725910268648876,-11.701485254600218,20.816108463949927,29.86024610304929,1.0719234331946594,0.731885165723659,-0.1126124627855636,3578.219699435764,11.964444444444444,0.1944444444444444,178.84121636384938,-8.748239193049931,104.0868411602613,1553.0,1435.0,1200.0,1435.0,1471.0,998.0,60.0,292.7,1649238780.8476818,1649238781.9978628,ad7eb846-ee8a-4993-b15e-8c20f13e0edd
0.1241084138317984,0.2303979190391009,0.1896369624579338,-0.22053915660976,-0.0064050392053323,0.1850728478828034,-0.054827643121969,-0.0821491179376589,-11.713158118527549,20.752442248819342,29.84586973658448,1.0592403058335538,0.7220389510373898,-0.1203783266466449,3574.572157118056,11.962222222222222,0.2,178.83644130270966,-8.751907289225443,104.11314042420548,1553.0,1435.0,1200.0,1435.0,1471.0,998.0,60.0,292.7,1649238782.1169636,1649238783.209505,ad7eb846-ee8a-4993-b15e-8c20f13e0edd
0.122351040038119,0.2319909340820124,0.1887393111144875,-0.222637891042804,-0.008175056041465,0.1843016263045269,-0.0572424518517712,-0.0828191957612676,-11.788957206764916,20.83279472252838,29.6701814744336,1.062663306817157,0.7303101894877675,-0.113465155024853,3575.8974609375,11.96511111111111,0.1955555555555556,178.85405104820973,-8.755057998571328,104.12846812761288,1553.0,1435.0,1200.0,1435.0,1471.0,998.0,60.0,292.7,1649238783.3180726,1649238784.4385014,ad7eb846-ee8a-4993-b15e-8c20f13e0edd
0.1644814845645483,0.2513943629974557,0.3243564740342259,-0.2275863528401058,0.1133330574682259,0.1623119497550758,0.0808294807888403,0.0604227043152094,-10.680270961252244,20.87501691315116,29.646420949516195,1.031999107090238,0.8046558079369284,-0.6573808139375944,3568.784152560764,11.962222222222223,0.19,178.8783543790965,-8.745213039792661,104.12528222382002,1553.0,1435.0,1200.0,1330.0,1471.0,998.0,60.0,292.7,1649238786.372488,1649238787.7265682,4ac89be7-dad8-4f23-910a-f68b525803b7
0.1489897922266691,0.252813916396843,0.3262443232537694,-0.2304638947677504,0.1153974027414873,0.1635165725770403,0.0832842412132235,0.0687574605279928,-10.730924288899578,20.810138210887025,29.656477957215568,1.0408371040836544,0.8107222393369852,-0.6661090045163174,3563.179660373264,11.95722222222222,0.2,178.88211553659943,-8.75033150766568,104.11502859205603,1553.0,1435.0,1200.0,1330.0,1471.0,998.0,60.0,292.7,1649238787.8359344,1649238788.9442356,4ac89be7-dad8-4f23-910a-f68b525803b7
0.1675370391848,0.2488313788027579,0.3248788818142687,-0.2275560096943181,0.115106614272294,0.1644268669041032,0.0825130196105721,0.0551156881109818,-10.730533131763783,20.817306922209845,29.603529231547327,1.0362944696425485,0.7958073536798553,-0.6632873768753563,3562.521240234375,11.961555555555556,0.19,178.89964787328893,-8.739581928276941,104.10578506937928,1553.0,1435.0,1200.0,1330.0,1471.0,998.0,60.0,292.7,1649238789.052302,1649238790.1743803,4ac89be7-dad8-4f23-910a-f68b525803b7
0.1670945349985149,0.2679981311266803,0.4471996763718772,-0.2129786554673663,0.2246580076674938,0.1266117232556622,0.197766396426505,0.1815201713597007,-9.918609018781536,21.19716245622025,29.71150438499909,0.92747063397606,0.8669568917448947,-1.1403221116058324,3564.9911295572915,11.954,0.19,178.91391841519484,-8.750094158592018,104.01507712156187,1553.0,1435.0,1200.0,1210.0,1471.0,998.0,60.0,292.7,1649238792.5158522,1649238793.6543815,780a9432-b466-4d95-b328-409b1198368f
0.1800283001472729,0.2634719455569149,0.4442285769963025,-0.2135602324726017,0.222875347977094,0.1299494691503518,0.1956550193401547,0.1766526252294649,-10.000478989892384,21.20631142320409,29.46031846438634,0.9361143468490504,0.852670061847381,-1.131806030452449,3565.4853515625,11.954333333333333,0.19,178.9293683030974,-8.754998234416089,103.99417901943134,1553.0,1435.0,1200.0,1210.0,1471.0,998.0,60.0,292.7,1649238793.762122,1649238794.8829186,780a9432-b466-4d95-b328-409b1198368f
0.1911161907263364,0.2614617123021875,0.4365290045553891,-0.2116764286807273,0.2155803504855642,0.1279265928501934,0.186627933994764,0.1614557673004001,-10.047033777709276,21.275057623122823,29.0745985844968,0.9273066929719476,0.848159711324987,-1.0993534858061542,3555.2996419270835,11.949,0.19,178.93956046315887,-8.750310732506954,103.97611089234697,1553.0,1435.0,1200.0,1210.0,1471.0,998.0,60.0,292.7,1649238794.9915886,1649238796.1087449,780a9432-b466-4d95-b328-409b1198368f
0.173099948944852,0.2671889806345445,0.4941556894158102,-0.1693603801549448,0.2695532172167308,0.0771903262738917,0.2303473471149648,0.2093726489820578,-9.643795647382529,21.724586306028243,28.582088637608777,0.7238147645718634,0.8696023695380872,-1.313198236676468,3529.880798339844,11.94775,0.19,178.90632438320262,-8.756774439339313,103.91546279679426,1553.0,1435.0,1200.0,1071.0,1471.0,998.0,60.0,292.7,1649238796.67813,1649238797.7570455,821f337d-bb78-4fb5-af60-d460935c2ce7
0.2098277961503123,0.2672016236114495,0.4958372052246724,-0.167476576406437,0.2707290140213914,0.0775949015416788,0.2307392793811546,0.2083359248919038,-9.693458890416048,21.834778417631696,28.89469558882752,0.72131353672259,0.8671071964517968,-1.3172708374871258,3519.612087673612,11.940111111111111,0.19,178.92326818525865,-8.760634089118735,103.86294148798902,1553.0,1435.0,1200.0,1071.0,1471.0,998.0,60.0,292.7,1649238797.8646154,1649238799.190335,821f337d-bb78-4fb5-af60-d460935c2ce7
0.1766779113490716,0.263484588535415,0.5000346732603037,-0.1658962041219046,0.2757229897082889,0.07877069841158,0.2357206121394861,0.2083232819251425,-9.708148263948774,21.840941838109625,28.78638609013624,0.7206159811305869,0.8543015910715215,-1.3374882483353792,3514.31982421875,11.947285714285714,0.19,178.9362108516573,-8.750159858506892,103.81172710335674,1553.0,1435.0,1200.0,1071.0,1471.0,998.0,60.0,292.7,1649238799.3027165,1649238800.41257,821f337d-bb78-4fb5-af60-d460935c2ce7
0.0603498807839471,0.196653814508194,-0.0035856552436316,-0.1927372470167984,-0.1815102822698789,0.1980066130061044,-0.2604783261421841,-0.2844873429548217,-13.212736528225992,21.270500014488352,29.09021506968761,1.0185276723358287,0.5971255305409473,0.6681414294873312,3514.31982421875,11.939,0.19,178.97749836944874,-8.728524136601905,103.76921307873866,1553.0,1435.0,1200.0,1613.0,1471.0,998.0,60.0,292.7,1649238802.1779969,1649238803.286092,580c8e66-0da6-481b-84e3-a7cb420d534d
0.0589970822326113,0.2012305720507817,-0.0032569378294961,-0.198388658346955,-0.1822688609655971,0.1986514048163899,-0.2594795308180254,-0.2805806624766319,-13.1688046667841,21.190936027366376,29.08541389925119,1.032235082479679,0.614738066983268,0.6678653328979193,3516.7232259114585,11.965,0.19,178.98992020681928,-8.719292851347417,103.76146536749016,1553.0,1435.0,1200.0,1613.0,1471.0,998.0,60.0,292.7,1649238803.396006,1649238804.5157146,580c8e66-0da6-481b-84e3-a7cb420d534d
0.0216876564781418,0.1997007718792012,-0.0031305080549146,-0.1987173757877149,-0.1815482111984989,0.1989548362538668,-0.2586071652810439,-0.278709501590808,-13.168358455973756,21.149194703434564,28.87690385315949,1.033355013427874,0.6108930265573783,0.6650047517362585,3521.217827690972,11.962333333333332,0.1977777777777777,179.00024289938492,-8.704487277956552,103.7566424950262,1553.0,1435.0,1200.0,1613.0,1471.0,998.0,60.0,292.7,1649238804.6485507,1649238805.7440872,580c8e66-0da6-481b-84e3-a7cb420d534d
0.0005106694387795,0.1882968069362852,-0.0823008336801769,-0.180675845694518,-0.2533350431562475,0.1988031205342705,-0.3443265630685911,-0.3607624363213742,-13.700710899205983,21.36213853340306,28.993965764166497,0.9895369806645148,0.5636149038229461,0.9912287700648884,3521.700439453125,11.962666666666664,0.2,178.9902541271787,-8.699937613059417,103.76655082278216,1553.0,1435.0,1200.0,1694.0,1471.0,998.0,60.0,292.7,1649238806.8527534,1649238807.9651268,2be5912d-4b90-44e6-b65b-51383574f46d
0.0144558734555341,0.1899909658097134,-0.0829456255466707,-0.1830527256147516,-0.253587902730746,0.2005099223800757,-0.3436185562213042,-0.3649851915048668,-13.686939994176686,21.245696167950392,29.16290486026546,0.9979638960215168,0.5686240532518293,0.9919238921693267,3524.757269965278,11.959555555555555,0.19,178.98910969103775,-8.69473784696253,103.7364183048938,1553.0,1435.0,1200.0,1694.0,1471.0,998.0,60.0,292.7,1649238808.0729935,1649238809.4302912,2be5912d-4b90-44e6-b65b-51383574f46d
0.017351115242176,0.1903070402260329,-0.0788113718138525,-0.1827745800880307,-0.2504650869891047,0.1977158245439228,-0.3413807488878681,-0.3553259551585279,-13.731600368261375,21.366398322759565,28.869634239094182,0.991994534421681,0.5729547607529741,0.9783951814982924,3528.7880859375,11.961111111111112,0.19,178.9792332374979,-8.690613266477488,103.71083924645208,1553.0,1435.0,1200.0,1694.0,1471.0,998.0,60.0,292.7,1649238809.5432491,1649238810.8567646,2be5912d-4b90-44e6-b65b-51383574f46d
-0.030717484873369,0.176728483264711,-0.1670593581277719,-0.1597137877821721,-0.3305962875969736,0.1950607994472283,-0.4396167005682149,-0.4635372188252863,-14.460760293953362,21.75390404697947,28.90083912723115,0.9318214364251198,0.518484005978501,1.3456298022440767,3524.2747667100693,11.959111111111111,0.19,178.9723043900399,-8.69210471417375,103.6935816351492,1553.0,1435.0,1200.0,1774.0,1471.0,998.0,60.0,292.7,1649238811.7751744,1649238813.1138065,8bafeac8-e7c3-4201-890b-43cdc1a6b084
-0.0031305080645548,0.1781697826105646,-0.1652766981948185,-0.1601942209471179,-0.3291929168946475,0.1950481564741226,-0.4365823853564737,-0.4601994724251109,-14.330700492158789,21.679167181606505,29.055566874216133,0.932560223631942,0.5217687706572567,1.3374782226393989,3521.5390625,11.958666666666666,0.1988888888888889,178.97711436103543,-8.690801001815924,103.67886637203736,1553.0,1435.0,1200.0,1774.0,1471.0,998.0,60.0,292.7,1649238813.222455,1649238814.3489285,8bafeac8-e7c3-4201-890b-43cdc1a6b084
-0.0274176677579049,0.1751354681984359,-0.1650238386318342,-0.1594988571596541,-0.3283837662373295,0.1958446639983316,-0.4365444564311538,-0.4667106069121417,-14.40206332238322,21.72944614743018,28.83820030597957,0.9330568363889534,0.5127511182239647,1.33523927918099,3522.3432345920137,11.95788888888889,0.19,178.9814538078881,-8.677310429567763,103.66024575854009,1553.0,1435.0,1200.0,1774.0,1471.0,998.0,60.0,292.7,1649238814.4795823,1649238815.5682366,8bafeac8-e7c3-4201-890b-43cdc1a6b084
-0.0513128953519215,0.1649199430008073,-0.2264307846667033,-0.1325187418901954,-0.3834692274541479,0.1846556296498268,-0.5070922861077278,-0.5221500759577443,-14.814614749686244,22.033174826209656,28.84699759836243,0.8458025849636667,0.470069103583655,1.593016902658943,3524.7975463867188,11.9525,0.19,178.99079674776277,-8.696556930295541,103.63203043680625,1553.0,1435.0,1200.0,1856.0,1471.0,998.0,60.0,292.7,1649238817.706875,1649238818.840833,5503cdc2-f418-430c-8650-43e0cfb4f237
-0.030793342748329,0.1714184330432033,-0.2208552311070926,-0.1356289144841936,-0.3801820527363319,0.1812293829683726,-0.5025534560759072,-0.5222385770237465,-14.725072877624216,22.040115533747365,28.8963175862023,0.845495709687368,0.4941080220162465,1.5753656111193366,3527.3359375,11.942555555555554,0.1844444444444444,179.00288997714318,-8.691344950492326,103.58043348026868,1553.0,1435.0,1200.0,1856.0,1471.0,998.0,60.0,292.7,1649238818.9495306,1649238820.0697758,5503cdc2-f418-430c-8650-43e0cfb4f237
-0.0162665616108389,0.1675623251377792,-0.2231436102356433,-0.1337198247971348,-0.3816233524177314,0.1841246246318764,-0.5041211856604222,-0.5301025107126668,-14.738211676769026,22.069180868558348,29.00549896440301,0.8477847876993607,0.4783909663591852,1.5823631620259222,3522.986572265625,11.941555555555556,0.1822222222222222,179.00598632956695,-8.692876715277439,103.52723313682344,1553.0,1435.0,1200.0,1856.0,1471.0,998.0,60.0,292.7,1649238820.1781435,1649238821.2996757,5503cdc2-f418-430c-8650-43e0cfb4f237
0.0528399523610411,0.2154665637094133,0.0342294897939591,-0.2130671564708502,-0.1204194120683898,0.2173377242360947,-0.1681087253718939,-0.1844181675066755,-11.442594581194378,16.87106367738924,32.34019128000433,1.0819542113881293,0.6311774053847903,0.4115980285641715,7265.289930555556,11.636111111111113,7.98,-179.24947953783828,-8.851053556307441,90.27341421804388,1553.0,1435.0,1350.0,1528.0,1471.0,998.0,60.0,292.7,1649238826.184152,1649238827.454533,236626a5-94fd-4fb0-aeda-cae8742cfb65
0.0586304358849077,0.2165538596981597,0.0403866197441297,-0.2140659517694599,-0.1146415710976953,0.2198916055073701,-0.1633676085216014,-0.1871743366501752,-11.630574063566788,16.974440977401738,32.76541064271489,1.0909112040102984,0.6333322459924027,0.3891338674993869,7270.767252604167,11.641555555555554,7.98,-178.69988001826422,-8.810275524551434,83.8731239845809,1553.0,1435.0,1350.0,1528.0,1471.0,998.0,60.0,292.7,1649238827.5677416,1649238828.6756732,236626a5-94fd-4fb0-aeda-cae8742cfb65
0.0542559657875763,0.2171946057484133,0.033691404686865,-0.2123996071878114,-0.1203718744700045,0.2152617474729424,-0.1690615002128404,-0.1906516613559234,-11.488904001258527,16.807098985403762,32.36841915512374,1.0753137527669814,0.6376188112870398,0.4138719245654508,7263.9208984375,11.63977777777778,7.98888888888889,-178.4440939873067,-8.763416727159345,78.77230152582989,1553.0,1435.0,1350.0,1528.0,1471.0,998.0,60.0,292.7,1649238828.7845483,1649238829.9052956,236626a5-94fd-4fb0-aeda-cae8742cfb65
0.180078872071234,0.4234182383432102,0.0654576434533215,-0.3137937684272388,-0.1392195203433368,0.106572604830858,-0.183760732454133,-0.1983507294428188,-11.269486877125996,16.485313985747435,32.43766789529188,1.059365205498097,1.4234082305051672,0.4416180209389075,7270.08154296875,11.635666666666667,7.973333333333333,-178.52847717995266,-8.708450210631236,72.70612745054596,1647.0,1435.0,1350.0,1528.0,1543.0,998.0,60.0,292.7,1649238830.8160489,1649238831.9522831,18ef2d87-036f-4bd3-926a-2318d3bb247a
0.2078428488186393,0.4207505703840478,0.0628152612287428,-0.3147293489537723,-0.1424814086995794,0.108152976941853,-0.186061754508284,-0.2089076164294987,-11.204591851817558,16.56468817841525,32.148119173032484,1.0654080719773804,1.4154588288932215,0.4522122854680259,7270.08154296875,11.629666666666669,8.008888888888889,-178.6983834479261,-8.68737594653838,69.41792032539054,1647.0,1435.0,1350.0,1528.0,1543.0,998.0,60.0,292.7,1649238832.060734,1649238833.1663983,18ef2d87-036f-4bd3-926a-2318d3bb247a
0.1830373286176131,0.424467605360335,0.0652427128010245,-0.3162591494289194,-0.1400918858706845,0.1075587570370733,-0.1838365903517987,-0.1997920290377819,-11.255242371349336,16.494770892109266,32.400006642877955,1.0671956724599876,1.4278670425448678,0.4432655131310304,7268.712510850694,11.630666666666665,8.015555555555556,-178.89242912224614,-8.690309417923162,66.89187124241961,1647.0,1435.0,1350.0,1528.0,1543.0,998.0,60.0,292.7,1649238833.2795212,1649238834.2214053,18ef2d87-036f-4bd3-926a-2318d3bb247a
0.2990745671201609,0.5819738005676893,0.0861921257974605,-0.3936215402240449,-0.1597517168792415,0.015821314990675,-0.2029148447171385,-0.2317661219109458,-11.143619783260691,16.495777952448343,31.178061488863783,1.0364712106128025,2.0395041336912776,0.4853840732309328,7257.76953125,11.621333333333334,8.026666666666666,-179.56434822293625,-8.702560595428178,61.891262836990855,1745.0,1435.0,1350.0,1528.0,1614.0,998.0,60.0,292.7,1649238836.346213,1649238837.4882023,e21baa9a-1fdd-4c1c-9f63-ffcdc40d4699
0.2582377532980189,0.5768028234049409,0.0878989277027401,-0.3940514015401986,-0.1576656254641757,0.0204233587133967,-0.2007402524232526,-0.2152291058135429,-11.225892566587904,16.599376176048384,31.069943878127315,1.048495383030034,2.021813259820946,0.4762380241929742,7257.76953125,11.606444444444444,8.03,-179.8462923605951,-8.716600144130878,60.16580527066409,1745.0,1435.0,1350.0,1528.0,1614.0,998.0,60.0,292.7,1649238837.6208203,1649238838.717075,e21baa9a-1fdd-4c1c-9f63-ffcdc40d4699
0.2826260548385594,0.5617071101153897,0.0800349960307241,-0.3832416539370828,-0.1614838048252668,0.0200187834634447,-0.2076433186087999,-0.2288455936016476,-11.262963341396958,16.65003969996573,30.268014029525325,1.0229998968206084,1.9707364352990344,0.4990768513415456,7251.6298828125,11.613,8.053333333333333,179.93863348253407,-8.745056894079134,58.99123964748431,1745.0,1435.0,1350.0,1528.0,1614.0,998.0,60.0,292.7,1649238838.8486395,1649238839.939818,e21baa9a-1fdd-4c1c-9f63-ffcdc40d4699
0.3550829521146307,0.6854059866641188,0.1057760971890169,-0.430159751631575,-0.1684247998714618,-0.0745380453923456,-0.2204000839704945,-0.2467859804113746,-11.156253351995636,16.872535704664468,27.962355565821248,0.9187966780277848,2.4617744003625828,0.502893273856181,7231.23779296875,11.602,8.06,179.52177337710984,-8.760661884194109,57.32839594309886,1849.0,1435.0,1350.0,1528.0,1686.0,998.0,60.0,292.7,1649238840.8527553,1649238841.98971,7c48f55c-02b1-4d4d-a720-d818d992f797
0.3248915247826537,0.679906292135339,0.105460022787781,-0.4307413288427728,-0.1686776594339475,-0.0705302214259038,-0.2200713664775326,-0.245167678989828,-11.17324709101606,16.981977158682145,27.688903253524263,0.9297723074461254,2.443744503771856,0.5020874540146719,7221.0830078125,11.580555555555556,8.061111111111112,179.2890475826101,-8.784732134875403,56.353301820624814,1849.0,1435.0,1350.0,1528.0,1686.0,998.0,60.0,292.7,1649238842.097747,1649238843.226496,7c48f55c-02b1-4d4d-a720-d818d992f797
0.3224135014264936,0.6776305564686684,0.102640638897177,-0.432663061703626,-0.1701442449340226,-0.0695314262145988,-0.2207920162847853,-0.2493398619570334,-11.147334026108526,16.840329537860043,27.25054007744713,0.935215472818716,2.4389663771449404,0.5081199484985732,7221.0830078125,11.5865,8.07,179.09331105701548,-8.776084024453173,55.63470653523919,1849.0,1435.0,1350.0,1528.0,1686.0,998.0,60.0,292.7,1649238843.3396528,1649238844.441225,7c48f55c-02b1-4d4d-a720-d818d992f797
0.4063648864144526,0.8080180732019102,0.125811169800486,-0.4891271172605192,-0.1839984206686377,-0.1518630042958611,-0.2356990994795928,-0.2593667555160773,-10.95887362560741,17.253519626658317,26.343095526985003,0.8814175383672896,2.9431354509440344,0.5305945270511527,7221.0830078125,11.556777777777777,8.054444444444446,178.72732675398896,-8.76628977034272,54.61255070183648,1962.0,1435.0,1350.0,1528.0,1760.0,998.0,60.0,292.7,1649238845.3549626,1649238846.4932067,467accd2-1152-4d87-a850-7ae58b71ab61
0.426313479868092,0.8102806601823331,0.1270795133164658,-0.5030212465802628,-0.1848100997169228,-0.1388149450359067,-0.2305903246631654,-0.2526396793787836,-10.893741579787728,17.211227720059078,26.71881527374368,0.9419554959881838,2.949620898198099,0.5234421382327268,7221.0830078125,11.532,8.05,178.5854743496665,-8.781267806010128,54.07120167132483,1962.0,1435.0,1350.0,1528.0,1760.0,998.0,60.0,292.7,1649238846.6018505,1649238847.7324898,467accd2-1152-4d87-a850-7ae58b71ab61
0.3960431606898396,0.8077813966925972,0.1277834742281057,-0.4999090507972294,-0.1846953014993462,-0.1347828465699341,-0.2305711074481044,-0.2513197525692265,-10.910804439195807,17.388592235002033,27.35164797269876,0.9452989199566524,2.9344235844916944,0.5228315469309135,7221.0830078125,11.535666666666666,8.053333333333335,178.47957302549537,-8.783760445602228,53.63947110571264,1962.0,1435.0,1350.0,1528.0,1760.0,998.0,60.0,292.7,1649238847.8638585,1649238848.9514606,467accd2-1152-4d87-a850-7ae58b71ab61
-0.0485314402980879,-0.0198065953012391,0.0032415524191575,-0.1407872496698983,-0.1005952226882454,0.3688637961983687,-0.1434802039432664,-0.1749991485965586,-12.072739270008023,17.608926088379306,30.54250263169256,1.262152392032039,-0.2416982673854601,0.3606576601800007,7224.465983072917,11.589666666666666,8.061111111111112,178.69200405124127,-8.765157571624052,52.739452145865656,1459.0,1435.0,1350.0,1528.0,1394.0,998.0,60.0,292.7,1649238850.885307,1649238852.0223649,8a81b434-6d8f-4b80-a45b-db42c7d24a88
-0.0827686238486567,-0.0224363346133451,0.0019013968601744,-0.1385873714540909,-0.1002159333177688,0.3707981715648826,-0.1440364949562115,-0.1615217337349264,-12.149676315580518,17.55395856207679,30.73282370307477,1.2610972984384443,-0.2530604010566841,0.3626981506317989,7227.17236328125,11.628222222222222,8.095555555555555,178.5959245390966,-8.77495765985442,52.53072763610933,1459.0,1435.0,1350.0,1528.0,1394.0,998.0,60.0,292.7,1649238852.131195,1649238853.2525833,8a81b434-6d8f-4b80-a45b-db42c7d24a88
-0.0474188582376609,-0.0189848017599479,0.0030771937309668,-0.1426331244363949,-0.0988252057676288,0.3724038295448246,-0.141634329128239,-0.1664145665744114,-12.17120704240676,17.4128972372452,30.92770682453213,1.2729753155692527,-0.2411196436076613,0.3564808815488071,7227.17236328125,11.62811111111111,8.08,178.50407822641753,-8.766546566482766,52.27720277722202,1459.0,1435.0,1350.0,1528.0,1394.0,998.0,60.0,292.7,1649238853.3605378,1649238854.4828606,8a81b434-6d8f-4b80-a45b-db42c7d24a88
-0.1619389520039166,-0.2186047808997958,-0.0232201993497731,-0.067976340014947,-0.0823387627139492,0.499137021968176,-0.1224170025396172,-0.1537589451354693,-12.551669686267484,18.18508363295929,30.87721364867627,1.3929642241927438,-0.997521459337162,0.318356970353511,7233.2705078125,11.630333333333333,8.087777777777777,178.44931528747222,-8.72733966796334,51.86423701798958,1364.0,1435.0,1350.0,1528.0,1312.0,998.0,60.0,292.7,1649238856.2094662,1649238857.3486073,820ea0de-ddd5-45d4-9fb0-dba282500e70
-0.1924843874481722,-0.2199070076952439,-0.0193767341798282,-0.0669649017620757,-0.0787355140368426,0.4953188432119103,-0.1171701666839545,-0.1385873714028613,-12.337139011172017,18.1087302172577,30.32055221590989,1.3818071869354436,-0.9988724901181047,0.2999873132472687,7233.2705078125,11.604666666666668,8.064444444444446,178.39621284340512,-8.713457972521459,51.742787147627865,1364.0,1435.0,1350.0,1528.0,1312.0,998.0,60.0,292.7,1649238857.4568026,1649238858.5003269,820ea0de-ddd5-45d4-9fb0-dba282500e70
-0.1567300449364119,-0.2210069468133652,-0.020754818680343,-0.0697969287587865,-0.0801262415538067,0.4990990930413523,-0.1183333206258318,-0.139080447547691,-12.423149597071658,18.14969504026893,30.324188319373032,1.3968504975344895,-1.0021593808111071,0.3051863408326969,7233.2705078125,11.6075,8.061250000000001,178.3751866752276,-8.717049312074579,51.69938205436233,1364.0,1435.0,1350.0,1528.0,1312.0,998.0,60.0,292.7,1649238858.608535,1649238859.6031785,820ea0de-ddd5-45d4-9fb0-dba282500e70
-0.3047793242120679,-0.4278966581474693,-0.0443971866754095,0.0032162665480901,-0.0630708646126122,0.6288033834379458,-0.0961448944116686,-0.1217722106150695,-12.658193722643786,19.18425179187124,29.4865078284408,1.5290425994528574,-1.7795044023789504,0.2564279220737545,7239.38037109375,11.609,8.07,178.41888451799008,-8.684621388164356,51.55386487409521,1262.0,1435.0,1350.0,1528.0,1222.0,998.0,60.0,292.7,1649238861.176533,1649238862.2598598,3f45f3d1-3d57-4f53-9dc6-99d230d7a493
-0.2723627262234772,-0.4270369355185306,-0.0385814170341771,0.0035323409224437,-0.0575332404390192,0.626401218010871,-0.092073855582598,-0.1185229654545029,-12.77574344643218,19.251586987248672,29.34411596450812,1.5235857166685918,-1.7738550010445553,0.2349577774572913,7235.986002604167,11.57088888888889,8.05,178.39400441557348,-8.68566925301952,51.469260079756175,1262.0,1435.0,1350.0,1528.0,1222.0,998.0,60.0,292.7,1649238862.368574,1649238863.4944336,3f45f3d1-3d57-4f53-9dc6-99d230d7a493
-0.3115433180500974,-0.4293000289324798,-0.0495175925934294,-0.0002984812310485,-0.0683556292804529,0.6307124728018046,-0.1020997369830257,-0.1243008061952697,-12.784853334782728,19.26911876414773,29.05959880257564,1.541436810423974,-1.7799781730035915,0.2781579162313801,7233.2705078125,11.575222222222225,8.05888888888889,178.41418686566095,-8.670481283898875,51.4588243096143,1262.0,1435.0,1350.0,1528.0,1222.0,998.0,60.0,292.7,1649238863.6030118,1649238864.7207515,3f45f3d1-3d57-4f53-9dc6-99d230d7a493
-0.3632025312804663,-0.5769826836926596,-0.0524760493892885,0.0667851560669802,-0.0443086858318453,0.7127527436045112,-0.0781792229919407,-0.1042111143134689,-12.907961648263113,20.3798119428691,29.00116177397714,1.5816123260410695,-2.3409168077305584,0.1974743142569578,7233.2705078125,11.576,8.06,178.45608172820997,-8.633954191127554,51.45450952733362,1153.0,1435.0,1350.0,1528.0,1121.0,998.0,60.0,292.7,1649238865.6771858,1649238866.7684605,0500fae2-d466-4830-9c4c-09f517eb4191
-0.3671729325653105,-0.5912925154929392,-0.0635169089331521,0.0604095555730375,-0.0519986505288417,0.7348061394005125,-0.0840288759390828,-0.1046854788480374,-13.171717503203068,20.41297723584284,29.244246244198067,1.6451271204265396,-2.39478942598664,0.2296842842342071,7227.17236328125,11.523777777777775,8.044444444444444,178.47675139845828,-8.635232100548516,51.37415273120338,1153.0,1435.0,1350.0,1528.0,1121.0,998.0,60.0,292.7,1649238866.8768225,1649238867.9986184,0500fae2-d466-4830-9c4c-09f517eb4191
-0.4052783673063098,-0.5952265054526372,-0.0648282385358574,0.0573534950985199,-0.0534495586181376,0.7373054028834839,-0.0839444208269649,-0.1058547014178157,-13.117330315591348,20.434981545150347,28.646599829033548,1.6576497054673185,-2.404338785895679,0.2320109807164509,7227.17236328125,11.522444444444446,8.07,178.5009909809127,-8.651403047727213,51.357386514065766,1153.0,1435.0,1350.0,1528.0,1121.0,998.0,60.0,292.7,1649238868.1071465,1649238869.2285326,0500fae2-d466-4830-9c4c-09f517eb4191
0.0835750296898742,0.2028488730495706,0.0294125154371361,-0.227821512383959,-0.1225307894273767,0.2311691405958744,-0.1695373819418862,-0.198527731341785,-11.85717435352164,16.871873232759558,30.59671285884481,1.1455963668879527,0.603751313145946,0.4186685797959527,7227.17236328125,11.563666666666666,8.063333333333334,178.2511305185151,-8.666646606998604,51.412357014870885,1553.0,1435.0,1350.0,1528.0,1471.0,998.0,60.0,292.7,1649238870.3421032,1649238871.4808738,ea17d710-a00e-4ab4-bfda-535ed4e54475
0.0446093742094906,0.2025454416184906,0.0264540587980081,-0.2279100132378044,-0.1253375304757926,0.2316748596598245,-0.1729130570797657,-0.1925223164635958,-11.903443354682526,16.89612650198437,30.59032658540304,1.14692157920991,0.6028211000844983,0.4312415972477407,7233.2705078125,11.63211111111111,8.076666666666666,178.23469404773243,-8.661800872373696,51.47952395680393,1553.0,1435.0,1350.0,1528.0,1471.0,998.0,60.0,292.7,1649238871.5892875,1649238872.5351105,ea17d710-a00e-4ab4-bfda-535ed4e54475
0.0833095271659401,0.2055165411228335,0.0299688064827137,-0.2281249438767977,-0.1226698621237876,0.2298669140063713,-0.1699546001882696,-0.190575297768479,-11.868333306040256,16.895642539656038,30.743670091277416,1.1435576348594458,0.612606220337901,0.419203584518392,7239.38037109375,11.631222222222222,8.081111111111111,178.2181057949682,-8.666257286215915,51.564119264769126,1553.0,1435.0,1350.0,1528.0,1471.0,998.0,60.0,292.7,1649238872.6441605,1649238873.7318103,ea17d710-a00e-4ab4-bfda-535ed4e54475
0.067404661993787,0.1971216046376593,0.0224968069234031,-0.4798340204693095,-0.1542267353727661,0.4833712308663832,-0.1044513308759226,-0.1288649214227661,-11.753199245811771,16.316748412527247,32.890547555364336,2.2772002564454423,0.5917847653707115,0.3792309354723046,7239.38037109375,11.627444444444444,8.08,178.29797043802324,-8.567408701545244,51.8006426444474,1553.0,1537.0,1350.0,1528.0,1471.0,998.0,60.0,292.7,1649238875.8747385,1649238877.015917,2dc16764-812d-4717-9065-eca740e9e2c6
0.09136310353249,0.1948205828893572,0.0199429255125587,-0.475206689700593,-0.1565024714359615,0.4810069943487129,-0.1087246574119835,-0.1306981530762326,-11.794687969449928,16.42875490026655,32.812318298318935,2.262031360533653,0.5834117993559134,0.391472928130491,7240.060329861111,11.60511111111111,8.043333333333331,178.3074416336723,-8.579872468688178,51.88391213680372,1553.0,1537.0,1350.0,1528.0,1471.0,998.0,60.0,292.7,1649238877.12846,1649238878.233427,2dc16764-812d-4717-9065-eca740e9e2c6
0.0530043110617945,0.194276934888039,0.016099460397789,-0.4764077728414178,-0.1586644207074242,0.4800840570992778,-0.1106084611104275,-0.1324175980819457,-11.76427021387138,16.22439385982825,32.428641169099066,2.2610747848399098,0.5844587781551294,0.401826472297023,7245.5,11.619222222222223,8.054444444444446,178.33104069616465,-8.583873346858251,51.96511359966132,1553.0,1537.0,1350.0,1528.0,1471.0,998.0,60.0,292.7,1649238878.3422616,1649238879.467315,2dc16764-812d-4717-9065-eca740e9e2c6
0.1048910889000662,0.1943275068003059,0.0115859175001038,-0.776628011361127,-0.1981357989187811,0.7749814712344828,-0.0352183849323455,-0.0663074669731192,-11.582784795224423,15.982973070240147,35.33049095386353,3.59970072836174,0.5943182313379878,0.3560935313359877,7239.38037109375,11.620444444444445,8.06777777777778,178.40273643297238,-8.480421499278208,52.09884984197502,1553.0,1645.0,1350.0,1528.0,1471.0,998.0,60.0,292.7,1649238881.1954772,1649238882.3311088,cb6cc9d1-07ed-45f6-a3d5-27af8fb7e35c
0.0919067515297098,0.1926965628100686,0.0107261950302926,-0.7809898404178047,-0.1978450103975708,0.7780031424895993,-0.0327530043149089,-0.0613134907139634,-11.516314607225915,15.788199088207902,34.970275539538896,3.614972095110716,0.5914025497054992,0.3527419681858875,7239.38037109375,11.610666666666669,8.066666666666668,178.42111571311892,-8.492283830319229,52.13409741264182,1553.0,1645.0,1350.0,1528.0,1471.0,998.0,60.0,292.7,1649238882.4388795,1649238883.5588677,cb6cc9d1-07ed-45f6-a3d5-27af8fb7e35c
0.0741054398683913,0.189649605436339,0.0107261950705627,-0.7774118762207614,-0.1977438665433777,0.7788122929552814,-0.0347126658059998,-0.0526404080165658,-11.648152779884256,15.969992152261453,35.120145474431546,3.609882007968116,0.5791419908626294,0.3551016062036943,7239.38037109375,11.609555555555556,8.064444444444446,178.45732178699927,-8.505175148331457,52.20265581589079,1553.0,1645.0,1350.0,1528.0,1471.0,998.0,60.0,292.7,1649238883.668153,1649238884.996219,cb6cc9d1-07ed-45f6-a3d5-27af8fb7e35c
0.1138549595558687,0.1885875953978972,0.0033806251894401,-1.03034741675218,-0.2379232522706719,1.0266778401691703,0.0226358797174998,-0.0050016689418757,-11.375844166199894,16.105580389482753,37.285920758735706,4.738444978779056,0.5847146707801044,0.3390312463606132,7239.38037109375,11.606777777777776,8.075555555555557,178.51197088945844,-8.415225636103145,52.3321679656578,1553.0,1761.0,1350.0,1528.0,1471.0,998.0,60.0,292.7,1649238885.6754448,1649238886.839616,c67f0083-9a38-429a-b574-7d306ed56179
0.0921596110547425,0.1878922316778479,0.0053908585762601,-1.0288049725499793,-0.2340292148835675,1.0242503887116348,0.0252529760078913,0.0026726183861154,-11.44361624977204,15.961649367617092,37.06593807156499,4.728587573831142,0.5844710984116128,0.3268918661378499,7244.140082465277,11.588888888888889,8.044444444444444,178.5327756456703,-8.419928695665389,52.34614442997441,1553.0,1761.0,1350.0,1528.0,1471.0,998.0,60.0,292.7,1649238886.948222,1649238888.0693734,c67f0083-9a38-429a-b574-7d306ed56179
0.1178122113356582,0.1885117375354869,-0.0002226233470636,-1.0386412152545987,-0.2421460071219709,1.0261594781318295,0.0227623095117419,-0.0011834895651989,-11.100659893554583,15.89737285385267,36.10433049115024,4.754379445300122,0.5937440620807448,0.3480438731388927,7245.5,11.589,8.05,178.56056996213283,-8.398658443088847,52.38966487754592,1553.0,1761.0,1350.0,1528.0,1471.0,998.0,60.0,292.7,1649238888.177778,1649238889.3014023,c67f0083-9a38-429a-b574-7d306ed56179
